     2.11           OBSERVATION DATA    G (GPS)             RINEX VERSION / TYPE
teqc  2015Jun23                         20151003 10:08:36UTCPGM / RUN BY / DATE
Linux2.6.32-279.el6.x86_64|x86_64|gcc|Win64-MinGW64|=       COMMENT
BIT 2 OF LLI FLAGS DATA COLLECTED UNDER A/S CONDITION       COMMENT
-Unknown-                                                   MARKER NAME
-Unknown-           -Unknown-                               OBSERVER / AGENCY
-Unknown-           -Unknown-           -Unknown-           REC # / TYPE / VERS
-Unknown-           -Unknown-                               ANT # / TYPE
        0.0000        0.0000        0.0000                  APPROX POSITION XYZ
        0.0000        0.0000        0.0000                  ANTENNA: DELTA H/E/N
     1     1                                                WAVELENGTH FACT L1/2
     7    L1    L2    C1    P1    P2    S1    S2            # / TYPES OF OBSERV
 SNR is mapped to RINEX snr flag value [0-9]                COMMENT
  L1 & L2: min(max(int(snr_dBHz/6), 0), 9)                  COMMENT
  2015     7     9     6     0    0.0000000     GPS         TIME OF FIRST OBS
                                                            END OF HEADER
 15  7  9  6  0  0.0000000  0  9G13G15G17G20G24G30G28G18G05
 105725768.238 8  82383700.17047  20118944.770                    20118941.0534
        50.500          42.3004
 113009973.732 8  88059715.40446  21505080.763                    21505077.6764
        48.400          38.2004
 124080761.973 7  96686320.05744  23611780.598                    23611780.4054
        43.600          28.1004
 118713757.576 7  92504214.26645  22590478.209                    22590477.4694
        43.600          31.0004
 128752159.256 6 100326380.36643  24500720.915                    24500724.1294
        37.600          22.0004
 118136123.293 7  92054118.23145  22480559.906                    22480560.9684
        47.000          34.1004
 110595313.019 8  86178152.93846  21045588.904                    21045584.6874
        51.200          39.7004
 133464507.647 6 103998317.80342  25397451.253                    25397449.4384
        36.500          16.9004
 124194402.472 7  96774842.97845  23633414.692                    23633413.5514
        46.300          30.7004
 15  7  9  6  0 15.0000000  0  9G13G15G17G20G24G30G28G18G05
 105722524.525 8  82381172.60047  20118327.421                    20118323.8004
        51.100          42.6004
 112979518.429 8  88035984.01346  21499285.604                    21499281.9394
        48.800          38.2004
 124036705.960 7  96651990.74344  23603397.576                    23603396.7724
        43.000          27.5004
 118731767.311 7  92518247.79645  22593905.160                    22593904.5034
        43.900          30.5004
 128706763.771 6 100291007.31043  24492082.843                    24492085.7394
        37.200          22.3004
 118174148.148 7  92083747.95845  22487795.690                    22487796.5474
        46.900          34.4004
 110615105.928 8  86193575.98246  21049355.479                    21049351.2764
        51.700          40.2004
 133430276.510 6 103971644.24243  25390937.555                    25390935.9204
        37.100          18.3004
 124242995.440 7  96812707.54445  23642660.927                    23642660.8094
        45.400          30.2004
 15  7  9  6  0 30.0000000  0  9G13G15G17G20G24G30G28G18G05
 105719410.605 8  82378746.16447  20117734.877                    20117731.4484
        51.000          42.1004
 112949161.946 8  88012329.62546  21493509.102                    21493506.4444
        49.800          39.5004
 123992699.929 7  96617700.40544  23595023.135                    23595022.9164
        42.400          26.5004
 118749905.348 7  92532381.30545  22597356.894                    22597356.1264
        44.000          31.1004
 128661382.989 6 100255645.65143  24483446.922                    24483449.8384
        36.700          22.2004
 118212210.644 7  92113407.02545  22495039.010                    22495039.8474
        47.800          34.9004
 110635001.220 8  86209078.79946  21053141.062                    21053137.1494
        51.700          40.2004
 133396130.343 6 103945036.86742  25384438.124                    25384437.9344
        36.700          17.4004
 124291626.538 7  96850601.83945  23651915.701                    23651914.8664
        45.900          30.9004
 15  7  9  6  0 45.0000000  0  9G13G15G17G20G24G30G28G18G05
 105716428.084 8  82376422.13447  20117167.421                    20117163.9664
        50.700          43.0004
 112918905.914 8  87988753.50446  21487751.399                    21487749.6414
        49.900          40.6004
 123948745.527 6  96583450.29144  23586659.180                    23586658.9704
        41.500          26.9004
 118768172.647 7  92546615.52445  22600833.480                    22600832.4784
        45.200          30.9004
 128616018.518 6 100220296.78543  24474814.816                    24474816.7484
        38.500          22.6004
 118250312.076 7  92143096.43845  22502289.658                    22502289.8244
        46.900          34.2004
 110655000.026 8  86224662.28946  21056946.988                    21056942.5824
        51.000          40.1004
 133362070.864 6 103918496.95642  25377957.413                    25377956.9014
        38.900          16.9004
 124340296.762 7  96888526.60544  23661177.029                    23661176.1544
        46.300          29.5004
 15  7  9  6  1  0.0000000  0  9G13G15G17G20G24G30G28G18G05
 105713575.340 8  82374199.21147  20116624.448                    20116621.1024
        51.100          42.3004
 112888748.822 8  87965254.49146  21482012.908                    21482011.6894
        49.100          39.8004
 123904841.405 6  96549239.33744  23578304.354                    23578303.7454
        41.700          27.9004
 118786567.391 7  92560949.06945  22604333.887                    22604333.1824
        44.800          31.7004
 128570667.994 6 100184958.73643  24466184.306                    24466186.8974
        36.000          22.0004
 118288450.560 7  92172814.71245  22509546.544                    22509547.0234
        47.100          33.4004
 110675100.642 8  86240325.11146  21060771.717                    21060767.9154
        51.100          39.9004
 133328096.455 6 103892023.37542  25371491.753                    25371492.0654
        37.300          16.3004
 124389003.876 7  96926480.12745  23670445.987                    23670445.0384
        46.600          31.0004
 15  7  9  6  1 15.0000000  0  9G13G15G17G20G24G30G28G18G05
 105710853.150 8  82372078.01747  20116106.267                    20116103.1554
        51.300          42.3004
 112858691.750 8  87941833.43346  21476292.875                    21476290.5894
        49.000          38.9004
 123860988.534 7  96515068.32944  23569959.654                    23569958.9574
        42.600          29.1004
 118805090.071 7  92575382.30445  22607858.533                    22607857.5284
        45.100          31.5004
 128525332.849 6 100149632.72143  24457557.555                    24457560.1684
        38.300          22.2004
 118326626.803 7  92202562.39945  22516811.161                    22516812.1564
        46.600          34.2004
 110695302.919 8  86256067.15246  21064616.327                    21064612.4204
        51.700          40.5004
 133294208.041 6 103865616.78342  25365043.248                    25365043.5634
        37.500          15.6004
 124437748.122 7  96964462.58044  23679721.799                    23679720.8344
        46.000          29.9004
 15  7  9  6  1 30.0000000  0  9G13G15G17G20G24G30G28G18G05
 105708261.617 8  82370058.63947  20115613.437                    20115610.5694
        50.700          42.6004
 112828734.808 8  87918490.38046  21470592.286                    21470589.0024
        48.600          38.9004
 123817187.175 7  96480937.45944  23561624.242                    23561623.9164
        42.500          27.2004
 118823740.258 7  92589914.89845  22611407.239                    22611406.8544
        46.700          31.8004
 128480012.726 6 100114318.37143  24448933.079                    24448936.0464
        36.200          21.1004
 118364840.605 7  92232339.35645  22524083.797                    22524085.0454
        47.500          34.8004
 110715606.744 8  86271888.32746  21068479.580                    21068476.2704
        51.300          40.4004
 133260405.754 6 103839277.35042  25358611.279                    25358611.4524
        37.200          14.8004
 124486529.209 7  97002473.75445  23689004.664                    23689003.7764
        47.000          30.5004
 15  7  9  6  1 45.0000000  0  9G13G15G17G20G24G30G28G18G05
 105705800.663 8  82368141.02447  20115144.671                    20115141.8874
        50.300          42.1004
 112798878.029 8  87895225.35546  21464910.776                    21464907.6914
        49.500          39.6004
 123773437.438 7  96446846.80144  23553298.988                    23553298.2814
        42.700          28.6004
 118842517.607 7  92604546.57245  22614981.159                    22614980.2164
        46.500          32.0004
 128434707.555 6 100079015.67843  24440311.584                    24440315.1424
        36.800          20.9004
 118403091.681 7  92262145.35645  22531362.268                    22531363.6274
        47.300          34.7004
 110736011.760 8  86287788.33946  21072362.493                    21072359.2094
        51.100          40.4004
 133226689.728 6 103813005.12342  25352196.457                    25352195.7694
        38.600          16.3004
 124535346.734 7  97040513.30745  23698294.461                    23698293.8454
        47.000          30.8004
 15  7  9  6  2  0.0000000  0  9G13G15G17G20G24G30G28G18G05
 105703470.031 8  82366324.96047  20114701.151                    20114698.0274
        49.800          42.6004
 112769121.394 8  87872038.36146  21459248.439                    21459246.4694
        48.900          40.0004
 123729739.652 7  96412796.62644  23544983.424                    23544982.9544
        42.400          27.7004
 118861421.479 7  92619276.83445  22618578.180                    22618576.6804
        47.600          31.2004
 128389417.313 5 100043724.59443  24431692.955                    24431696.6414
        34.300          21.1004
 118441379.591 7  92291980.06745  22538648.106                    22538649.8384
        46.300          34.5004
 110756517.490 8  86303766.82746  21076264.748                    21076261.3384
        51.000          40.5004
 133193060.006 6 103786800.11942  25345796.845                    25345795.6154
        39.700          16.3004
 124584199.902 7  97078580.62945  23707591.032                    23707589.8004
        46.700          30.5004
 15  7  9  6  2 15.0000000  0  9G13G15G17G20G24G30G28G18G05
 105701270.604 8  82364611.12047  20114282.804                    20114279.2244
        51.200          42.3004
 112739465.796 8  87848930.12646  21453604.442                    21453603.9564
        48.400          39.4004
 123686094.786 7  96378787.69344  23536678.271                    23536676.8284
        42.800          27.0004
 118880452.485 7  92634106.17045  22622199.898                    22622197.9844
        46.300          30.4004
 128344142.639 6 100008445.70043  24423076.977                    24423081.6654
        36.000          20.6004
 118479705.069 7  92321844.03545  22545941.404                    22545942.8464
        45.600          34.0004
 110777124.365 8  86319824.14246  21080186.250                    21080182.7104
        50.400          40.2004
 133159517.297 6 103760662.94642  25339413.979                    25339412.1554
        39.900          17.4004
 124633088.998 7  97116675.95744  23716894.157                    23716893.1824
        46.000          29.9004
 15  7  9  6  2 30.0000000  0  9G13G15G17G20G24G30G28G18G05
 105699201.433 8  82362998.77347  20113888.941                    20113886.2584
        51.300          42.1004
 112709910.564 8  87825900.10846  21447980.631                    21447979.2904
        48.400          39.8004
 123642502.056 7  96344819.39344  23528382.609                    23528382.2354
        43.700          28.1004
 118899609.350 7  92649033.59245  22625845.405                    22625843.0964
        46.300          30.0004
 128298882.452 6  99973178.08443  24414464.433                    24414468.8694
        36.200          20.9004
 118518066.938 7  92351736.35545  22553241.861                    22553243.0074
        46.500          34.3004
 110797831.154 8  86335959.30146  21084126.256                    21084123.4154
        50.400          40.5004
 133126060.833 6 103734593.01542  25333048.148                    25333045.3344
        40.900          17.8004
 124682012.631 7  97154798.18145  23726204.731                    23726203.7164
        46.400          30.4004
 15  7  9  6  2 45.0000000  0  9G13G15G17G20G24G30G28G18G05
 105697263.661 8  82361488.82447  20113520.366                    20113517.5064
        50.000          42.2004
 112680456.847 8  87802949.17446  21442376.134                    21442373.3634
        49.500          39.8004
 123598962.767 7  96310892.73644  23520097.523                    23520096.5214
        43.500          28.4004
 118918892.714 7  92664059.58744  22629515.039                    22629511.2744
        47.800          29.2004
 128253637.781 6  99937922.50243  24405854.599                    24405858.3054
        36.300          20.6004
 118556466.083 7  92381657.73645  22560548.735                    22560550.0254
        46.900          34.6004
 110818638.657 8  86352172.94446  21088086.009                    21088082.6424
        51.700          40.5004
 133092691.928 6 103708591.30642  25326697.679                    25326695.7614
        39.100          16.9004
 124730971.421 7  97192947.81844  23735520.851                    23735520.0784
        46.700          29.8004
 15  7  9  6  3  0.0000000  0  9G13G15G17G20G24G30G28G18G05
 105695457.406 8  82360081.34847  20113176.856                    20113173.2504
        49.900          42.2004
 112651104.893 8  87780077.51146  21436790.618                    21436786.9514
        49.900          39.3004
 123555477.448 7  96277008.12444  23511822.025                    23511821.5954
        42.900          29.3004
 118938302.310 7  92679183.95844  22633208.481                    22633203.2274
        47.500          28.2004
 128208408.694 6  99902679.11043  24397247.664                    24397251.3644
        38.300          21.7004
 118594902.449 7  92411608.10745  22567863.291                    22567864.1154
        47.600          34.6004
 110839546.697 8  86368464.92346  21092064.533                    21092061.0344
        50.400          40.2004
 133059410.793 6 103682657.94742  25320364.486                    25320362.2834
        39.200          17.8004
 124779965.154 7  97231124.66844  23744843.932                    23744844.0414
        45.500          29.6004
 15  7  9  6  3 15.0000000  0  9G13G15G17G20G24G30G28G18G05
 105693781.626 8  82358775.55047  20112858.064                    20112854.3024
        50.700          42.8004
 112621853.840 8  87757284.47546  21431224.251                    21431221.6704
        48.700          38.8004
 123512045.229 7  96243164.88844  23503557.671                    23503556.1324
        43.900          29.6004
 118957836.783 7  92694405.62444  22636925.996                    22636921.5914
        45.400          27.8004
 128163194.526 6  99867447.33943  24388643.724                    24388647.9954
        38.900          22.9004
 118633374.782 7  92441586.52345  22575184.806                    22575185.2344
        47.900          34.6004
 110860553.809 8  86384834.10346  21096062.475                    21096058.9874
        50.300          40.3004
 133026216.450 6 103656792.20942  25314046.921                    25314046.3394
        38.900          15.6004
 124828992.143 7  97269327.44844  23754172.968                    23754173.7554
        45.300          29.8004
 15  7  9  6  3 30.0000000  0  9G13G15G17G20G24G30G28G18G05
 105692237.911 8  82357572.66247  20112564.096                    20112560.8384
        50.100          42.3004
 112592705.454 8  87734571.46646  21425677.084                    21425675.1834
        48.200          39.3004
 123468668.181 7  96209364.64244  23495303.102                    23495302.2474
        44.000          28.7004
 118977497.478 7  92709725.65044  22640667.006                    22640663.2324
        44.300          27.3004
 128117996.444 6  99832228.10543  24380043.739                    24380047.0884
        38.700          22.8004
 118671884.520 7  92471594.09145  22582512.143                    22582513.3044
        47.200          34.7004
 110881661.350 8  86401281.53846  21100078.828                    21100075.4914
        49.600          40.9004
 132993110.926 6 103630995.68342  25307746.614                    25307746.5704
        38.200          16.9004
 124878053.565 7  97307557.03044  23763509.961                    23763509.6434
        44.800          29.8004
 15  7  9  6  3 45.0000000  0  9G13G15G17G20G24G30G28G18G05
 105690825.184 8  82356471.83647  20112295.379                    20112291.7494
        50.100          42.2004
 112563658.623 8  87711937.60146  21420149.928                    21420148.5004
        49.900          40.5004
 123425345.200 7  96175606.51944  23487058.613                    23487057.8134
        43.900          27.8004
 118997282.911 7  92725142.87044  22644431.716                    22644428.0604
        45.600          27.6004
 128072813.359 6  99797020.52643  24371444.418                    24371449.2254
        38.900          22.3004
 118710430.262 7  92501629.72945  22589847.002                    22589848.3454
        46.400          34.2004
 110902867.798 8  86417806.04246  21104114.300                    21104110.7064
        51.300          40.6004
 132960092.937 6 103605267.35242  25301463.226                    25301462.9184
        38.500          15.6004
 124927147.854 7  97345812.26344  23772851.791                    23772851.3714
        44.700          29.4004
 15  7  9  6  4  0.0000000  0  9G13G15G17G20G24G30G28G18G05
 105689544.746 8  82355474.09647  20112051.548                    20112048.1604
        51.200          42.3004
 112534715.018 8  87689384.14346  21414642.677                    21414640.4444
        50.800          41.0004
 123382077.918 7  96141891.81844  23478825.092                    23478824.0834
        42.800          28.7004
 119017194.004 7  92740657.99644  22648220.525                    22648217.9124
        46.500          28.3004
 128027646.503 6  99761825.65043  24362849.810                    24362854.5344
        37.700          22.8004
 118749013.176 7  92531694.30545  22597189.202                    22597190.5014
        46.000          33.3004
 110924174.065 8  86434408.32446  21108168.374                    21108164.9394
        51.300          40.2004
 132927164.062 6 103579608.43842  25295197.350                    25295196.7564
        37.700          15.6004
 124976275.650 7  97384093.59044  23782200.320                    23782200.7954
        44.600          28.4004
 15  7  9  6  4 15.0000000  0  9G13G15G17G20G24G30G28G18G05
 105688396.257 8  82354579.17947  20111832.810                    20111828.9964
        50.500          42.4004
 112505874.213 8  87666910.78546  21409154.285                    21409151.4714
        50.000          40.7004
 123338866.233 6  96108220.43044  23470601.991                    23470601.8254
        40.900          28.2004
 119037230.061 7  92756270.47744  22652033.120                    22652031.4364
        44.900          28.5004
 127982495.596 6  99726643.16943  24354258.473                    24354262.6834
        38.800          22.6004
 118787632.718 7  92561787.42345  22604538.204                    22604539.5724
        46.800          32.3004
 110945579.453 8  86451087.85146  21112241.936                    21112238.4674
        51.500          40.7004
 132894323.865 6 103554018.72742  25288948.189                    25288947.3384
        36.900          14.8004
 125025436.025 7  97422400.29644  23791555.274                    23791555.5684
        44.300          29.1004
 15  7  9  6  4 30.0000000  0  9G13G15G17G20G24G30G28G18G05
 105687380.143 8  82353787.39747  20111639.629                    20111635.9514
        50.100          42.1004
 112477136.780 8  87644517.98446  21403685.572                    21403682.0264
        49.500          39.3004
 123295710.787 7  96074592.88244  23462389.677                    23462389.5244
        43.100          28.6004
 119057391.041 7  92771980.31544  22655870.200                    22655867.4064
        45.100          28.5004
 127937360.905 6  99691473.33343  24345668.666                    24345673.6574
        38.600          22.6004
 118826289.016 7  92591909.17245  22611893.756                    22611896.4804
        45.500          32.5004
 110967083.983 8  86467844.62646  21116334.448                    21116330.8134
        51.500          40.6004
 132861572.908 6 103528498.56542  25282716.889                    25282714.0864
        37.300          15.6004
 125074629.165 7  97460732.51144  23800917.323                    23800917.0144
        45.000          29.5004
 15  7  9  6  4 45.0000000  0  9G13G15G17G20G24G30G28G18G05
 105686496.965 8  82353099.20847  20111471.370                    20111468.1664
        49.600          42.9004
 112448503.481 8  87622206.33846  21398236.471                    21398233.1234
        48.200          39.7004
 123252612.350 6  96041009.74044  23454188.621                    23454187.8504
        41.100          29.3004
 119077677.186 7  92787787.68044  22659729.880                    22659728.2034
        43.900          28.5004
 127892242.853 6  99656316.44243  24337083.735                    24337087.8444
        37.700          22.6004
 118864982.471 7  92622059.88845  22619257.100                    22619258.8444
        44.800          32.7004
 110988688.013 8  86484678.93446  21120445.115                    21120441.6434
        51.700          40.9004
 132828911.932 6 103503048.43742  25276501.427                    25276498.8444
        39.900          15.6004
 125123855.152 7  97499090.34644  23810283.920                    23810284.7284
        45.700          28.9004
 15  7  9  6  5  0.0000000  0  9G13G15G17G20G24G30G28G18G05
 105685744.541 8  82352512.91047  20111328.336                    20111324.6374
        48.300          42.4004
 112419972.341 8  87599974.27546  21392807.687                    21392804.9194
        50.800          40.3004
 123209569.134 7  96007469.62344  23445997.771                    23445997.2084
        42.700          29.4004
 119098086.103 7  92803690.69844  22663613.734                    22663612.9504
        42.600          28.8004
 127847139.302 6  99621170.88143  24328500.188                    24328504.6904
        36.600          22.3004
 118903710.806 7  92652237.78145  22626626.934                    22626628.0014
        44.900          32.3004
 111010389.124 8  86501588.88946  21124575.261                    21124571.6174
        50.300          40.9004
 132796339.169 6 103477667.04042  25270303.775                    25270299.7624
        40.400          16.9004
 125173111.362 7  97537471.71844  23819657.197                    23819657.7974
        45.300          28.9004
 15  7  9  6  5 15.0000000  0  9G13G15G17G20G24G30G28G18G05
 105685123.758 8  82352029.19047  20111210.340                    20111206.9094
        49.500          42.4004
 112391544.473 8  87577822.69246  21387398.381                    21387396.6004
        51.100          41.1004
 123166582.362 7  95973973.48344  23437817.364                    23437817.1674
        42.800          28.9004
 119118618.296 7  92819689.76744  22667520.851                    22667519.2564
        44.600          29.3004
 127802051.282 6  99586037.40543  24319921.535                    24319924.1444
        38.400          22.6004
 118942474.845 7  92682443.51145  22634003.264                    22634004.7834
        45.100          32.7004
 111032187.980 8  86518575.00446  21128723.116                    21128719.6184
        51.000          40.4004
 132763855.449 6 103452355.03042  25264122.327                    25264118.4294
        40.200          17.8004
 125222398.416 7  97575877.12944  23829036.093                    23829036.7984
        45.400          29.4004
 15  7  9  6  5 30.0000000  0  9G13G15G17G20G24G30G28G18G05
 105684635.306 8  82351648.56647  20111117.274                    20111114.0974
        50.200          42.2004
 112363220.463 8  87555752.03346  21382008.078                    21382006.5944
        49.500          40.3004
 123123652.735 7  95940521.87544  23429648.356                    23429647.6744
        43.000          29.2004
 119139274.039 7  92835785.10644  22671452.095                    22671450.1364
        43.700          29.2004
 127756979.214 6  99550916.40043  24311344.392                    24311346.8824
        37.200          22.8004
 118981274.749 7  92712677.18345  22641386.929                    22641387.8484
        44.100          32.3004
 111054084.620 8  86535637.31946  21132890.022                    21132886.1594
        50.700          40.7004
 132731461.376 6 103427112.87342  25257956.235                    25257955.1874
        36.800          16.3004
 125271716.148 7  97614306.45544  23838421.106                    23838421.8414
        46.300          29.3004
 15  7  9  6  5 45.0000000  0  9G13G15G17G20G24G30G28G18G05
 105684279.297 8  82351371.15747  20111049.358                    20111046.5474
        50.500          42.4004
 112335000.638 8  87533762.57846  21376637.425                    21376634.6184
        48.200          39.0004
 123080780.784 7  95907115.22144  23421490.075                    23421488.9684
        42.800          28.9004
 119160053.025 7  92851976.50545  22675406.325                    22675404.8824
        44.500          30.4004
 127711923.304 6  99515807.96144  24302770.282                    24302773.1304
        38.300          24.4004
 119020110.616 7  92742938.86445  22648777.179                    22648778.1124
        45.000          33.3004
 111076078.856 8  86552775.69046  21137075.374                    21137071.4214
        51.000          40.6004
 132699157.242 5 103401940.78742  25251809.379                    25251808.0414
        34.700          16.9004
 125321064.246 7  97652759.43445  23847812.036                    23847812.9174
        46.300          30.5004
 15  7  9  6  6  0.0000000  0  9G13G15G17G20G24G30G28G18G05
 105684056.100 8  82351197.23847  20111007.207                    20111004.0214
        51.000          42.9004
 112306885.548 8  87511854.73446  21371287.625                    21371284.4484
        49.800          38.4004
 123037967.079 7  95873753.93244  23413342.213                    23413342.0954
        42.800          29.1004
 119180955.383 7  92868264.02045  22679384.143                    22679382.4294
        46.300          30.6004
 127666883.792 6  99480712.29943  24294198.998                    24294202.2854
        39.400          22.8004
 119058982.655 7  92773228.73545  22656173.976                    22656175.6994
        46.100          33.2004
 111098170.872 8  86569990.23946  21141279.543                    21141275.6464
        51.100          40.4004
 132666943.752 6 103376839.39942  25245680.253                    25245678.1984
        36.000          16.9004
 125370442.749 7  97691236.11944  23857209.075                    23857209.7574
        46.300          29.5004
 15  7  9  6  6 15.0000000  0  9G13G15G17G20G24G30G28G18G05
 105683965.494 8  82351126.63747  20110990.092                    20110986.8704
        50.800          42.3004
 112278875.206 8  87490028.48146  21365957.943                    21365954.3664
        50.500          40.1004
 122995211.724 6  95840438.12944  23405206.023                    23405205.5104
        40.500          27.7004
 119201980.355 7  92884647.08945  22683385.233                    22683383.1404
        45.500          32.0004
 127621860.349 6  99445629.12243  24285631.580                    24285634.7774
        38.800          22.2004
 119097890.317 7  92803546.35245  22663579.128                    22663579.8924
        46.500          33.1004
 111120360.000 8  86587280.46846  21145501.807                    21145498.3054
        50.600          40.3004
 132634820.780 6 103351808.46542  25239567.494                    25239565.6674
        37.800          16.9004
 125419850.833 7  97729735.84844  23866610.847                    23866611.3824
        46.100          29.6004
 15  7  9  6  6 30.0000000  0  9G13G15G17G20G24G30G28G18G05
 105684007.429 8  82351159.31247  20110997.716                    20110994.5934
        50.000          42.0004
 112250969.579 8  87468283.82146  21360647.572                    21360645.6314
        50.500          40.5004
 122952514.789 6  95807167.84444  23397081.365                    23397080.4224
        41.600          27.3004
 119223127.680 7  92901125.52245  22687408.649                    22687407.5234
        47.200          32.7004
 127576853.137 6  99410558.63643  24277066.635                    24277070.3954
        38.300          23.2004
 119136833.421 7  92833891.59945  22670989.289                    22670990.6334
        46.100          34.2004
 111142645.816 8  86604646.04446  21149742.398                    21149739.2044
        51.000          40.0004
 132602788.332 6 103326848.11642  25233472.669                    25233471.0834
        38.400          17.4004
 125469287.929 7  97768258.18644  23876018.622                    23876018.7714
        46.000          29.6004
 15  7  9  6  6 45.0000000  0  9G13G15G17G20G24G30G28G18G05
 105684182.534 8  82351295.75746  20111031.020                    20111027.9884
        49.900          41.7004
 112223169.521 8  87446621.45746  21355356.829                    21355355.5064
        49.400          40.1004
 122909877.343 6  95773943.90444  23388967.990                    23388966.9674
        40.900          28.3004
 119244397.769 7  92917699.57545  22691456.653                    22691455.8934
        47.500          32.9004
 127531862.498 6  99375501.05643  24268505.359                    24268508.6674
        37.100          22.0004
 119175812.496 7  92864264.88045  22678407.108                    22678407.9454
        46.700          33.9004
 111165028.806 8  86622087.32746  21154001.516                    21153999.0654
        51.000          39.9004
 132570847.160 6 103301958.93142  25227393.451                    25227392.3134
        38.100          17.8004
 125518754.395 7  97806803.39844  23885431.418                    23885432.1044
        45.700          29.3004
 15  7  9  6  7  0.0000000  0  9G13G15G17G20G24G30G28G18G05
 105684490.146 8  82351535.45446  20111089.308                    20111086.5644
        49.900          41.3004
 112195474.377 8  87425040.87046  21350086.404                    21350084.4764
        49.000          39.1004
 122867298.808 7  95740765.87244  23380865.388                    23380864.1974
        42.500          28.9004
 119265789.295 7  92934368.26045  22695527.318                    22695526.4554
        47.900          33.2004
 127486887.933 6  99340455.94343  24259946.657                    24259949.9084
        37.000          22.8004
 119214826.630 7  92894665.47245  22685830.900                    22685832.1144
        47.600          33.6004
 111187507.793 8  86639603.40646  21158279.468                    21158276.4494
        50.700          40.3004
 132538996.781 6 103277140.48242  25221333.120                    25221331.7084
        38.100          16.9004
 125568249.001 7  97845370.54344  23894849.965                    23894850.7884
        46.100          29.4004
 15  7  9  6  7 15.0000000  0  9G13G15G17G20G24G30G28G18G05
 105684930.291 8  82351878.41947  20111173.367                    20111170.2574
        49.500          42.3004
 112167884.469 8  87403542.25846  21344836.882                    21344833.4494
        49.900          39.5004
 122824779.653 6  95707634.10844  23372774.545                    23372772.4604
        41.900          28.0004
 119287302.081 7  92951131.43145  22699621.385                    22699620.1924
        47.300          32.6004
 127441929.311 6  99305423.31843  24251391.786                    24251394.3954
        37.000          22.0004
 119253875.727 7  92925093.30545  22693261.832                    22693262.7214
        46.800          33.3004
 111210082.660 8  86657194.20646  21162575.195                    21162572.3464
        50.500          40.0004
 132507237.337 6 103252392.85742  25215289.440                    25215287.1664
        38.100          17.8004
 125617771.430 7  97883959.39744  23904274.527                    23904274.3744
        46.200          29.6004
 15  7  9  6  7 30.0000000  0  9G13G15G17G20G24G30G28G18G05
 105685504.031 7  82352325.49047  20111282.517                    20111279.6404
        47.900          42.4004
 112140401.078 8  87382126.60746  21339607.152                    21339603.1134
        50.300          39.8004
 122782321.210 6  95674549.66544  23364695.229                    23364693.4204
        40.600          29.1004
 119308936.805 8  92967989.63545  22703738.246                    22703736.5704
        48.300          31.9004
 127396987.667 6  99270403.90043  24242840.501                    24242841.6404
        38.700          22.8004
 119292960.614 7  92955549.03745  22700699.358                    22700700.5934
        46.000          33.2004
 111232754.039 8  86674860.20546  21166889.349                    21166886.5654
        50.700          39.9004
 132475570.011 6 103227717.00943  25209262.421                    25209260.8424
        38.700          18.3004
 125667322.184 7  97922570.28044  23913703.470                    23913703.7474
        46.000          29.6004
 15  7  9  6  7 45.0000000  0  9G13G15G17G20G24G30G28G18G05
 105686211.638 8  82352876.86947  20111417.279                    20111413.9754
        48.600          42.7004
 112113024.390 8  87360794.10846  21334397.344                    21334394.4704
        50.000          40.3004
 122739923.807 7  95641512.77244  23356626.491                    23356625.5124
        42.000          29.3004
 119330693.420 7  92984942.83345  22707878.276                    22707876.2184
        47.800          30.5004
 127352063.262 6  99235397.90743  24234290.816                    24234292.3814
        40.000          22.6004
 119332081.407 7  92986032.74145  22708143.973                    22708145.0384
        45.600          32.7004
 111255521.767 8  86692601.29446  21171221.974                    21171219.0724
        50.500          40.0004
 132443995.197 6 103203113.27442  25203253.599                    25203252.4114
        37.700          16.9004
 125716901.020 7  97961203.06344  23923138.088                    23923138.2424
        45.700          29.6004
 15  7  9  6  8  0.0000000  0  9G13G15G17G20G24G30G28G18G05
 105687052.550 8  82353532.12147  20111577.191                    20111573.6234
        49.900          42.8004
 112085754.010 8  87339544.47746  21329207.606                    21329206.0474
        49.200          40.1004
 122697587.271 6  95608523.31944  23348569.891                    23348568.9254
        41.300          28.1004
 119352570.995 8  93001990.25645  22712041.328                    22712039.2904
        48.200          31.6004
 127307155.665 6  99200405.06443  24225744.973                    24225746.6074
        39.100          22.0004
 119371237.329 7  93016543.82245  22715594.781                    22715596.2304
        46.100          32.2004
 111278385.010 8  86710416.79846  21175573.149                    21175569.5314
        50.600          40.1004
 132412512.348 6 103178581.11542  25197262.318                    25197261.3554
        36.200          16.9004
 125766506.864 7  97999856.89644  23932577.745                    23932577.9064
        45.600          28.7004
 15  7  9  6  8 15.0000000  0  9G13G15G17G20G24G30G28G18G05
 105688027.229 8  82354291.60847  20111762.830                    20111759.2044
        50.300          43.1004
 112058590.553 8  87318378.20046  21324038.129                    21324036.8754
        49.500          40.4004
 122655312.259 6  95575581.80144  23340525.397                    23340523.9594
        41.700          27.1004
 119374569.565 7  93019131.97845  22716227.353                    22716225.8014
        46.100          30.5004
 127262265.269 6  99165425.54443  24217201.741                    24217204.4224
        38.500          22.5004
 119410428.624 7  93047082.45645  22723053.008                    22723054.1404
        45.200          32.2004
 111301343.879 8  86728306.81246  21179941.578                    21179938.7154
        49.400          39.9004
 132381122.121 5 103154121.25942  25191290.375                    25191287.8154
        35.900          15.6004
 125816139.800 7  98038531.84444  23942023.346                    23942023.0394
        45.300          29.1004
 15  7  9  6  8 30.0000000  0  9G13G15G17G20G24G30G28G18G05
 105689135.174 8  82355154.94047  20111973.709                    20111970.0474
        50.200          42.6004
 112031533.751 8  87297295.00646  21318890.093                    21318887.9184
        50.000          40.9004
 122613098.593 6  95542688.08444  23332491.119                    23332490.6734
        41.300          27.4004
 119396688.326 7  93036367.36844  22720436.424                    22720435.1624
        42.200          29.6004
 127217391.530 6  99130459.07143  24208662.975                    24208665.4644
        39.000          22.2004
 119449654.689 7  93077648.17645  22730517.798                    22730518.5594
        44.000          32.2004
 111324397.574 8  86746270.72146  21184328.870                    21184325.5134
        48.800          40.2004
 132349824.111 6 103129733.19242  25185334.198                    25185332.4014
        37.300          16.9004
 125865798.944 7  98077227.21844  23951472.966                    23951473.2214
        45.800          29.3004
 15  7  9  6  8 45.0000000  0  9G13G15G17G20G24G30G28G18G05
 105690376.534 8  82356122.23147  20112209.821                    20112206.7574
        51.000          42.9004
 112004583.987 8  87276295.19246  21313761.869                    21313758.3654
        50.900          40.8004
 122570946.736 6  95509842.52644  23324470.892                    23324469.8564
        41.300          27.2004
 119418927.143 7  93053696.29144  22724668.381                    22724666.8034
        45.400          28.3004
 127172534.574 6  99095505.65143  24200126.749                    24200129.0024
        37.500          21.1004
 119488915.490 7  93108240.96845  22737988.468                    22737989.7264
        46.000          32.8004
 111347545.929 8  86764308.39046  21188733.860                    21188730.3964
        50.500          39.5004
 132318618.761 6 103105417.32642  25179395.150                    25179394.8864
        38.000          17.4004
 125915483.854 7  98115942.64944  23960927.109                    23960927.7004
        45.100          29.3004
 15  7  9  6  9  0.0000000  0  9G13G15G17G20G24G30G28G18G05
 105691751.812 8  82357193.87447  20112471.720                    20112468.0264
        50.300          42.6004
 111977741.849 8  87255379.23146  21308653.327                    21308650.3954
        49.200          40.1004
 122528857.464 7  95477045.72944  23316461.958                    23316461.3374
        42.400          27.7004
 119441286.104 7  93071118.86344  22728922.425                    22728920.7794
        46.500          28.3004
 127127694.707 6  99060565.51643  24191593.398                    24191595.8564
        38.100          21.5004
 119528211.353 7  93138861.08245  22745466.151                    22745467.4714
        46.400          34.2004
 111370789.249 8  86782420.05946  21193156.658                    21193153.5894
        50.600          39.6004
 132287506.676 6 103081174.14843  25173475.609                    25173475.4524
        38.400          18.3004
 125965194.568 7  98154678.21344  23970387.539                    23970386.7334
        46.000          28.6004
 15  7  9  6  9 15.0000000  0  9G13G15G17G20G24G30G28G18G05
 105693260.799 8  82358369.71347  20112758.703                    20112755.5804
        51.700          43.0004
 111951007.142 8  87234547.02046  21303565.976                    21303563.4284
        48.900          39.9004
 122486830.812 7  95444297.72744  23308463.744                    23308463.3944
        42.300          27.9004
 119463764.697 7  93088634.60044  22733201.066                    22733197.4994
        46.700          28.4004
 127082871.721 6  99025638.57443  24183064.623                    24183066.5854
        40.600          21.5004
 119567541.812 7  93169508.16845  22752950.994                    22752951.5434
        45.800          33.6004
 111394126.770 8  86800605.12846  21197597.588                    21197594.5934
        50.000          39.8004
 132256487.746 6 103057003.54143  25167572.408                    25167572.3134
        39.200          18.3004
 126014930.503 7  98193433.40744  23979851.642                    23979851.9824
        45.800          29.3004
 15  7  9  6  9 30.0000000  0  9G13G15G17G20G24G30G28G18G05
 105694903.694 8  82359649.88247  20113071.395                    20113067.8364
        51.000          42.7004
 111924380.347 8  87213798.90546  21298499.236                    21298496.9954
        49.600          40.2004
 122444867.205 7  95411598.85144  23300479.202                    23300478.5704
        42.200          28.0004
 119486362.639 7  93106243.38244  22737501.195                    22737498.0004
        47.000          26.8004
 127038065.792 6  98990724.94743  24174538.815                    24174539.5854
        40.400          22.3004
 119606906.999 7  93200182.30845  22760441.812                    22760442.2814
        45.700          32.7004
 111417558.517 8  86818863.61346  21202056.726                    21202053.1624
        51.200          40.5004
 132225562.131 6 103032905.71443  25161687.618                    25161687.5344
        39.200          19.6004
 126064691.336 7  98232208.02944  23989320.488                    23989319.9434
        45.600          27.8004
 15  7  9  6  9 45.0000000  0  9G13G15G17G20G24G30G28G18G05
 105696680.674 8  82361034.53847  20113409.566                    20113406.1464
        50.400          42.9004
 111897861.712 8  87193135.05446  21293453.228                    21293450.8914
        49.800          41.2004
 122402967.109 7  95378949.45944  23292505.486                    23292505.2594
        42.000          28.3004
 119509079.681 7  93123944.97544  22741823.681                    22741820.5664
        45.600          25.6004
 126993277.187 6  98955824.77543  24166015.675                    24166017.0384
        40.800          21.5004
 119646306.827 7  93230883.44245  22767939.262                    22767939.9354
        44.900          32.4004
 111441084.254 8  86837195.35046  21206533.996                    21206530.0514
        50.500          40.3004
 132194730.183 6 103008880.83043  25155820.225                    25155819.6024
        39.700          19.3004
 126114476.691 7  98271001.73244  23998794.543                    23998794.9894
        45.700          28.9004
 15  7  9  6 10  0.0000000  0  9G13G15G17G20G24G30G28G18G05
 105698591.406 8  82362523.41947  20113772.977                    20113769.6304
        50.900          43.1004
 111871451.130 8  87172555.37746  21288427.221                    21288425.0114
        50.400          40.6004
 122361130.413 6  95346349.46344  23284544.294                    23284544.0514
        41.300          28.2004
 119531915.433 7  93141739.04744  22746169.884                    22746166.1374
        45.500          27.1004
 126948505.291 6  98920937.63343  24157495.121                    24157497.4004
        39.900          22.2004
 119685740.891 7  93261611.23945  22775443.368                    22775443.9004
        45.900          32.7004
 111464703.447 8  86855599.91046  21211028.155                    21211024.1844
        50.900          40.0004
 132163991.795 6 102984928.87943  25149971.236                    25149970.1894
        39.000          19.6004
 126164285.930 7  98309814.05444  24008272.615                    24008272.7484
        44.900          28.1004
 15  7  9  6 10 15.0000000  0  9G13G15G17G20G24G30G28G18G05
 105700636.318 8  82364116.86147  20114162.152                    20114158.4784
        50.400          42.6004
 111845149.138 8  87152060.32846  21283421.525                    21283418.7314
        49.300          39.8004
 122319357.976 7  95313799.54944  23276595.641                    23276594.9814
        43.100          28.5004
 119554869.763 7  93159625.55944  22750537.338                    22750534.6664
        45.700          26.1004
 126903750.954 6  98886064.15443  24148978.314                    24148980.3144
        38.800          21.3004
 119725209.432 7  93292365.91845  22782953.948                    22782954.5944
        45.900          32.6004
 111488416.136 8  86874077.32746  21215540.662                    21215536.8694
        50.900          39.8004
 132133347.505 6 102961050.20443  25144140.640                    25144137.9204
        39.900          20.6004
 126214119.175 7  98348645.07444  24017756.220                    24017756.2904
        45.100          27.5004
 15  7  9  6 10 30.0000000  0  9G13G15G17G20G24G30G28G18G05
 105702815.627 8  82365815.01747  20114576.776                    20114573.3514
        50.500          43.0004
 111818955.999 8  87131650.11846  21278437.382                    21278434.1304
        48.700          39.5004
 122277650.193 7  95281300.00844  23268658.536                    23268658.0214
        43.700          29.3004
 119577942.654 7  93177604.39444  22754928.075                    22754925.5794
        42.600          26.0004
 126859013.927 6  98851204.17843  24140466.355                    24140466.6424
        39.800          21.8004
 119764712.464 7  93323147.46745  22790471.201                    22790471.8274
        45.700          32.5004
 111512222.085 8  86892627.40146  21220070.732                    21220066.8954
        50.300          39.2004
 132102797.792 6 102937245.28943  25138326.164                    25138324.8084
        39.200          20.9004
 126263976.058 7  98387494.51944  24027243.112                    24027244.1944
        44.700          27.2004
 15  7  9  6 10 45.0000000  0  9G13G15G17G20G24G30G28G18G05
 105705129.459 8  82367617.99747  20115017.481                    20115013.6514
        51.200          43.2004
 111792871.978 8  87111324.92446  21273473.854                    21273471.2024
        50.300          40.0004
 122236007.493 7  95248851.16744  23260734.552                    23260733.6244
        43.300          28.9004
 119601133.694 6  93195675.33544  22759340.802                    22759338.3894
        41.300          27.1004
 126814294.746 6  98816358.05043  24131955.616                    24131957.8094
        37.400          21.1004
 119804249.957 7  93353955.86445  22797994.617                    22797996.1914
        44.900          32.2004
 111536121.159 8  86911250.05646  21224618.457                    21224614.5094
        48.800          39.6004
 132072342.935 6 102913514.26943  25132531.924                    25132529.7454
        41.500          21.3004
 126313856.219 7  98426362.10944  24036735.698                    24036735.4814
        44.100          27.0004
 15  7  9  6 11  0.0000000  0  9G13G15G17G20G24G30G28G18G05
 105707577.545 8  82369525.59847  20115483.096                    20115479.6924
        50.500          42.9004
 111766897.191 8  87091084.83846  21268531.564                    21268528.9594
        50.700          40.4004
 122194429.749 7  95216452.95844  23252822.257                    23252821.2564
        42.100          29.0004
 119624442.276 6  93213837.84244  22763776.938                    22763775.0894
        41.100          28.1004
 126769592.892 6  98781525.49543  24123449.400                    24123451.3814
        38.000          22.6004
 119843821.426 7  93384790.72945  22805524.895                    22805526.1434
        43.900          32.4004
 111560112.800 8  86929944.82946  21229183.982                    21229180.3084
        50.200          39.8004
 132041982.690 7 102889856.97243  25126754.848                    25126753.1674
        42.600          22.0004
 126363758.872 7  98465247.22344  24046231.061                    24046231.5944
        43.600          27.4004
 15  7  9  6 11 15.0000000  0  9G13G15G17G20G24G30G28G18G05
 105710159.456 8  82371537.46647  20115974.367                    20115971.0204
        49.900          42.4004
 111741031.249 8  87070929.56746  21263609.105                    21263606.5894
        50.400          41.2004
 122152916.921 7  95184105.31444  23244922.242                    23244921.6634
        42.200          28.3004
 119647867.828 7  93232091.47544  22768235.321                    22768232.9104
        45.800          29.4004
 126724908.144 6  98746706.24043  24114945.999                    24114948.4704
        38.800          22.2004
 119883426.365 7  93415651.69045  22813061.613                    22813062.7754
        44.200          31.6004
 111584196.313 8  86948711.19246  21233766.815                    21233763.0604
        50.500          39.4004
 132011716.662 6 102866273.10243  25120994.611                    25120993.4734
        41.800          23.0004
 126413683.230 7  98504149.26744  24055731.236                    24055732.2434
        42.600          27.2004
 15  7  9  6 11 30.0000000  0  9G13G15G17G20G24G30G28G18G05
 105712876.481 8  82373654.62247  20116491.414                    20116488.2074
        50.500          42.6004
 111715275.717 8  87050860.34946  21258707.672                    21258706.0744
        49.300          41.2004
 122111470.671 7  95151809.57444  23237035.982                    23237034.7684
        42.800          29.6004
 119671411.056 7  93250436.82645  22772714.933                    22772712.9694
        46.300          30.8004
 126680241.487 6  98711901.13243  24106446.367                    24106449.9204
        38.300          22.0004
 119923065.906 7  93446539.59445  22820604.561                    22820606.0684
        43.300          31.5004
 111608372.744 8  86967549.96946  21238367.159                    21238363.6474
        50.700          39.5004
 131981546.336 6 102842763.78143  25115253.339                    25115252.7924
        41.300          23.0004
 126463630.146 7  98543068.84644  24065236.444                    24065238.1954
        42.400          28.7004
 15  7  9  6 11 45.0000000  0  9G13G15G17G20G24G30G28G18G05
 105715728.372 8  82375876.87747  20117034.131                    20117031.0034
        50.900          43.1004
 111689630.301 8  87030876.93446  21253827.346                    21253825.9514
        49.900          40.4004
 122070090.830 6  95119565.57444  23229161.290                    23229160.5224
        41.300          29.7004
 119695071.416 7  93268873.44844  22777217.688                    22777215.2104
        45.200          29.4004
 126635592.653 6  98677109.88143  24097949.588                    24097953.9674
        38.900          22.5004
 119962739.521 7  93477454.03645  22828153.869                    22828155.9074
        44.700          32.1004
 111632641.404 8  86986460.59546  21242985.423                    21242981.6224
        50.300          39.5004
 131951471.452 6 102819328.85743  25109530.015                    25109529.7014
        41.400          22.3004
 126513598.812 6  98582005.41044  24074745.467                    24074746.0364
        41.800          28.3004
 15  7  9  6 12  0.0000000  0  9G13G15G17G20G24G30G28G18G05
 105718715.173 8  82378204.24947  20117602.502                    20117599.0754
        50.400          43.0004
 111664095.152 8  87010979.42046  21248968.679                    21248965.8244
        50.100          41.0004
 122028777.771 6  95087373.63744  23221299.515                    23221298.5324
        40.900          29.1004
 119718848.534 7  93287401.05445  22781742.217                    22781740.1594
        46.100          31.1004
 126590961.941 6  98642332.77843  24089456.229                    24089460.7524
        38.600          22.6004
 120002447.097 7  93508394.95045  22835710.497                    22835712.4304
        45.500          31.6004
 111657001.866 8  87005442.76746  21247621.441                    21247617.2034
        51.100          39.2004
 131921492.216 6 102795968.42843  25103824.448                    25103823.9824
        41.100          21.5004
 126563588.771 6  98620958.55344  24084258.050                    24084259.1654
        41.300          27.5004
 15  7  9  6 12 15.0000000  0  9G13G15G17G20G24G30G28G18G05
 105721837.015 8  82380636.85247  20118196.516                    20118193.5234
        50.400          42.9004
 111638670.824 8  86991168.26246  21244130.474                    21244127.6144
        49.900          40.9004
 121987531.913 6  95055234.05144  23213450.626                    23213450.0144
        40.800          29.3004
 119742742.219 7  93306019.49645  22786287.884                    22786287.2474
        45.800          31.5004
 126546349.176 6  98607569.65143  24080966.121                    24080971.5194
        38.900          22.5004
 120042188.690 7  93539362.40345  22843273.634                    22843274.5144
        43.900          32.3004
 111681454.176 8  87024496.49846  21252274.284                    21252270.0274
        50.800          39.3004
 131891609.223 6 102772682.96843  25098138.305                    25098137.0834
        41.000          21.3004
 126613599.954 7  98659928.24244  24093775.250                    24093776.1824
        42.100          28.1004
 15  7  9  6 12 30.0000000  0  9G13G15G17G20G24G30G28G18G05
 105725093.810 8  82383174.60747  20118816.175                    20118812.7964
        50.500          42.9004
 111613357.196 8  86971443.38246  21239313.146                    21239310.9804
        50.800          41.0004
 121946353.469 7  95023146.99444  23205614.755                    23205613.3964
        42.000          29.2004
 119766751.956 7  93324728.33445  22790857.530                    22790856.2674
        44.900          30.6004
 126501754.321 6  98572820.52643  24072479.955                    24072485.4284
        38.400          22.6004
 120081963.971 7  93570356.10745  22850842.266                    22850842.5424
        45.200          32.2004
 111705997.847 8  87043621.42546  21256944.834                    21256941.0754
        50.000          39.3004
 131861822.341 6 102749472.39543  25092469.280                    25092469.0554
        40.300          21.7004
 126663631.645 7  98698913.88244  24103295.956                    24103296.8224
        43.300          27.9004
 15  7  9  6 12 45.0000000  0  9G13G15G17G20G24G30G28G18G05
 105728485.145 8  82385817.20547  20119461.733                    20119458.6594
        50.300          42.6004
 111588154.099 8  86951804.61546  21234517.097                    21234515.3774
        49.000          41.0004
 121905242.357 6  94991112.37645  23197792.038                    23197790.4964
        41.700          30.4004
 119790877.084 7  93343527.12345  22795447.937                    22795447.4604
        44.700          30.8004
 126457177.193 6  98538085.18543  24063998.083                    24064002.7364
        38.700          23.3004
 120121772.498 7  93601375.71745  22858417.485                    22858417.6124
        44.900          32.0004
 111730632.162 8  87062816.99646  21261632.905                    21261628.9394
        50.400          39.4004
 131832131.185 6 102726336.43643  25086819.493                    25086818.9004
        39.300          20.4004
 126713683.040 7  98737914.91944  24112820.572                    24112821.2684
        42.500          27.5004
 15  7  9  6 13  0.0000000  0  9G13G15G17G20G24G30G28G18G05
 105732011.736 8  82388565.19647  20120132.891                    20120129.4444
        50.400          42.7004
 111563062.168 8  86932252.48246  21229742.343                    21229740.6624
        49.300          41.0004
 121864199.440 7  94959130.90644  23189981.172                    23189980.0924
        42.100          29.2004
 119815117.976 7  93362416.07545  22800060.961                    22800060.0834
        44.200          30.6004
 126412618.162 6  98503363.92844  24055519.005                    24055522.7324
        39.500          26.2004
 120161614.763 7  93632421.62545  22865999.215                    22865999.6184
        43.300          32.3004
 111755357.539 8  87082083.50246  21266337.749                    21266333.8544
        50.200          39.5004
 131802536.727 6 102703275.84843  25081188.140                    25081187.6604
        37.700          20.6004
 126763754.477 7  98776931.53744  24122348.255                    24122349.4524
        43.100          28.2004
 15  7  9  6 13 15.0000000  0  9G13G15G17G20G24G30G28G18G05
 105735673.553 8  82391418.55347  20120829.586                    20120826.4814
        51.000          42.8004
 111538081.808 8  86912787.28946  21224988.837                    21224986.5104
        49.100          40.6004
 121823224.912 6  94927202.74644  23182183.434                    23182182.3794
        41.300          29.0004
 119839474.142 7  93381394.84545  22804696.338                    22804694.8914
        44.900          31.1004
 126368077.334 6  98468656.85744  24047042.528                    24047047.1504
        39.200          24.7004
 120201490.539 7  93663493.62645  22873587.158                    22873588.3174
        43.200          31.5004
 111780173.536 8  87101420.62846  21271060.397                    21271056.8434
        51.200          39.8004
 131773038.996 6 102680290.61543  25075575.414                    25075574.3654
        38.100          19.3004
 126813845.484 7  98815963.41044  24131880.517                    24131881.9844
        42.800          27.7004
 15  7  9  6 13 30.0000000  0  9G13G15G17G20G24G30G28G18G05
 105739470.459 8  82394377.17147  20121552.127                    20121548.8544
        50.700          43.0004
 111513212.928 8  86893408.93246  21220256.665                    21220253.4064
        49.600          40.7004
 121782319.225 6  94895328.20444  23174400.044                    23174398.4564
        41.600          29.2004
 119863945.111 7  93400463.08945  22809353.175                    22809351.7594
        46.200          31.1004
 126323554.650 6  98433963.93144  24038571.472                    24038575.4724
        39.900          25.8004
 120241399.569 7  93694591.53345  22881181.839                    22881182.7174
        43.700          31.4004
 111805079.834 8  87120828.12646  21275800.145                    21275795.9754
        51.900          39.4004
 131743637.944 6 102657380.73043  25069980.343                    25069979.3214
        40.100          18.3004
 126863955.350 7  98855009.98444  24141416.381                    24141417.5894
        43.200          28.0004
 15  7  9  6 13 45.0000000  0  9G13G15G17G20G24G30G28G18G05
 105743402.187 8  82397440.85047  20122300.241                    20122297.1074
        50.100          43.0004
 111488455.420 8  86874117.36246  21215545.105                    21215542.3294
        49.300          40.5004
 121741482.252 6  94863507.20744  23166628.017                    23166627.8054
        40.600          29.1004
 119888530.413 7  93419620.43945  22814032.056                    22814030.4444
        46.400          31.7004
 126279050.068 6  98399285.12044  24030101.681                    24030106.1604
        40.300          25.1004
 120281341.493 7  93725715.07545  22888782.382                    22888783.4634
        43.600          31.8004
 111830075.730 8  87140305.44546  21280556.398                    21280552.9934
        51.000          39.6004
 131714333.556 6 102634546.13243  25064403.820                    25064401.9944
        39.300          18.6004
 126914083.529 7  98894070.82144  24150955.468                    24150957.1924
        43.200          28.9004
 15  7  9  6 14  0.0000000  0  9G13G15G17G20G24G30G28G18G05
 105747469.522 8  82400610.20647  20123074.111                    20123070.6454
        50.300          42.7004
 111463810.308 8  86854913.38546  21210855.338                    21210853.0574
        49.300          41.0004
 121700715.103 6  94831740.63044  23158871.090                    23158870.5604
        41.600          29.4004
 119913230.522 7  93438867.25745  22818732.222                    22818730.2524
        47.000          32.1004
 126234563.973 6  98364620.67544  24021636.764                    24021640.6544
        41.600          26.0004
 120321316.995 7  93756864.77545  22896389.783                    22896390.8214
        44.300          31.4004
 111855161.886 8  87159853.08746  21285330.209                    21285326.1134
        51.000          39.4004
 131685126.732 6 102611787.66542  25058844.475                    25058844.6964
        38.000          17.8004
 126964230.477 7  98933146.28544  24160498.307                    24160498.9574
        43.400          28.6004
 15  7  9  6 14 15.0000000  0  9G13G15G17G20G24G30G28G18G05
 105751671.955 8  82403884.82147  20123874.064                    20123870.3434
        49.200          42.1004
 111439277.166 8  86835796.65746  21206186.762                    21206184.7934
        48.800          41.0004
 121660017.544 7  94800028.29544  23151126.837                    23151125.8784
        42.600          29.7004
 119938044.405 8  93458202.70345  22823454.275                    22823452.6754
        48.000          31.7004
 126190096.046 6  98329970.41343  24013174.297                    24013178.6504
        41.300          23.9004
 120361325.251 7  93788040.00745  22904003.057                    22904004.6284
        44.300          31.0004
 111880337.262 8  87179470.24846  21290121.068                    21290116.8264
        51.300          39.9004
 131656017.215 6 102589104.85042  25053306.408                    25053306.3374
        38.100          17.8004
 127014395.167 7  98972235.62844  24170045.224                    24170044.8734
        43.100          29.9004
 15  7  9  6 14 30.0000000  0  9G13G15G17G20G24G30G28G18G05
 105756010.288 8  82407265.33847  20124699.792                    20124695.5514
        49.000          42.4004
 111414856.899 8  86816767.89446  21201540.002                    21201537.8694
        48.700          40.8004
 121619390.423 7  94768370.82445  23143394.744                    23143394.7514
        42.600          30.5004
 119962972.317 7  93477627.00944  22828197.516                    22828196.0224
        47.800          29.8004
 126145647.078 6  98295334.89043  24004716.711                    24004719.0664
        41.300          23.9004
 120401366.844 7  93819241.20445  22911622.783                    22911624.0424
        44.600          31.8004
 111905602.396 8  87199157.35946  21294928.874                    21294925.3114
        52.100          40.1004
 131627005.523 6 102566498.38043  25047786.222                    25047785.3714
        38.100          18.6004
 127064577.823 7  99011338.94144  24179594.321                    24179594.1954
        42.100          27.5004
 15  7  9  6 14 45.0000000  0  9G13G15G17G20G24G30G28G18G05
 105760484.445 8  82410751.69147  20125551.241                    20125547.4274
        50.200          42.5004
 111390549.798 8  86797827.30046  21196914.576                    21196912.0874
        50.200          41.5004
 121578834.288 7  94736768.67345  23135678.227                    23135677.2924
        42.000          30.8004
 119988014.116 7  93497140.07444  22832962.599                    22832960.9374
        45.800          29.3004
 126101216.873 6  98260713.99343  23996261.660                    23996263.3794
        40.200          22.8004
 120441441.841 7  93850468.42545  22919249.430                    22919250.4434
        42.500          32.0004
 111930957.004 8  87218914.19046  21299753.717                    21299749.8164
        50.700          40.3004
 131598092.164 6 102543968.49243  25042284.637                    25042283.4624
        39.900          18.6004
 127114778.164 6  99050456.02044  24189146.828                    24189147.2634
        41.800          27.0004
 15  7  9  6 15  0.0000000  0  9G13G15G17G20G24G30G28G18G05
 105765094.386 8  82414343.84547  20126428.292                    20126424.5294
        50.000          42.1004
 111366355.796 8  86778974.82346  21192310.543                    21192307.5894
        50.100          40.6004
 121538349.127 7  94705221.80445  23127973.492                    23127973.1764
        43.700          30.8004
 120013169.194 7  93516741.42744  22837749.949                    22837747.9624
        45.200          29.0004
 126056805.560 6  98226107.78343  23987810.027                    23987811.4614
        39.400          21.7004
 120481549.839 7  93881721.38445  22926881.128                    22926882.9304
        44.400          33.1004
 111956400.692 8  87238740.42646  21304595.177                    21304591.6844
        51.000          40.2004
 131569277.244 6 102521515.28643  25036800.950                    25036799.4434
        40.100          19.0004
 127164995.464 7  99089586.35244  24198702.918                    24198702.7784
        43.000          26.9004
 15  7  9  6 15 15.0000000  0  9G13G15G17G20G24G30G28G18G05
 105769839.653 8  82418041.46047  20127331.454                    20127327.9674
        49.700          42.4004
 111342274.706 8  86760210.34646  21187727.642                    21187725.2424
        49.300          40.5004
 121497934.898 7  94673730.20045  23120283.622                    23120282.8474
        43.000          30.9004
 120038437.016 7  93536430.61244  22842557.312                    22842555.7464
        45.400          27.4004
 126012412.597 6  98191515.90943  23979362.687                    23979363.2364
        39.300          20.4004
 120521690.363 7  93912999.66845  22934518.977                    22934521.4474
        43.400          32.8004
 111981932.749 8  87258635.53046  21309454.065                    21309450.3974
        50.800          39.8004
 131540560.153 6 102499138.39443  25031335.968                    25031334.8364
        39.900          19.9004
 127215229.003 6  99128729.28644  24208262.101                    24208262.9114
        41.700          28.6004
 15  7  9  6 15 30.0000000  0  9G13G15G17G20G24G30G28G18G05
 105774721.112 8  82421845.18647  20128260.348                    20128256.4714
        50.000          42.7004
 111318307.348 8  86741534.50746  21183167.393                    21183164.7794
        49.900          41.2004
 121457592.671 7  94642294.70845  23112606.407                    23112605.4724
        42.700          30.2004
 120063817.980 7  93556207.93244  22847387.554                    22847385.4954
        46.000          27.4004
 125968038.842 6  98156938.99943  23970917.547                    23970917.9374
        39.800          20.6004
 120561863.974 6  93944303.73545  22942164.116                    22942165.6754
        41.800          31.3004
 112007553.659 8  87278599.86246  21314329.640                    21314325.8994
        51.300          39.9004
 131511942.072 6 102476838.55143  25025889.636                    25025887.8034
        40.300          19.0004
 127265478.987 6  99167885.05044  24217824.450                    24217825.1024
        41.900          28.4004
 15  7  9  6 15 45.0000000  0  9G13G15G17G20G24G30G28G18G05
 105779738.109 8  82425754.53447  20129214.886                    20129211.6154
        49.500          42.7004
 111294453.616 8  86722947.18146  21178628.088                    21178625.5914
        50.300          41.8004
 121417322.273 7  94610915.18544  23104943.613                    23104942.2914
        42.300          29.5004
 120089311.200 7  93576072.73744  22852239.065                    22852236.2114
        45.900          27.2004
 125923683.968 6  98122376.79943  23962477.653                    23962477.1724
        39.700          19.9004
 120602070.208 7  93975633.22445  22949815.318                    22949817.1154
        42.800          31.5004
 112033262.656 8  87298632.83946  21319221.913                    21319217.6284
        51.200          40.5004
 131483422.634 6 102454615.61143  25020462.894                    25020461.3364
        39.000          18.6004
 127315744.803 6  99207053.14044  24227389.716                    24227390.3474
        41.500          28.3004
 15  7  9  6 16  0.0000000  0  9G13G15G17G20G24G30G28G18G05
 105784891.447 8  82429770.11847  20130195.782                    20130191.8954
        49.200          43.1004
 111270714.309 8  86704449.01246  21174110.959                    21174108.5894
        49.200          41.8004
 121377124.736 6  94579592.44944  23097293.539                    23097293.1814
        41.600          29.9004
 120114916.883 7  93596025.19344  22857111.375                    22857108.8714
        44.900          26.8004
 125879348.569 6  98087829.78243  23954040.442                    23954040.1274
        37.300          19.6004
 120642309.523 7  94006988.51245  22957472.820                    22957473.5814
        42.300          30.6004
 112059060.046 8  87318734.69346  21324130.931                    21324127.0584
        50.700          39.8004
 131455002.678 6 102432470.16442  25015053.617                    25015053.1244
        36.800          17.8004
 127366026.459 7  99246233.58244  24236957.786                    24236958.1674
        42.900          26.7004
 15  7  9  6 16 15.0000000  0  9G13G15G17G20G24G30G28G18G05
 105790180.709 8  82433891.62247  20131202.235                    20131198.7414
        50.700          42.1004
 111247088.948 8  86686039.65546  21169614.607                    21169612.5654
        49.700          40.9004
 121336999.800 7  94548326.29745  23089658.245                    23089657.0534
        42.600          31.2004
 120140634.142 7  93616064.60344  22862005.171                    22862002.9054
        44.100          26.4004
 125835032.176 6  98053297.60643  23945606.906                    23945607.1794
        39.100          19.0004
 120682581.156 7  94038368.97845  22965136.656                    22965136.7014
        43.700          30.7004
 112084944.923 8  87338904.71746  21329056.667                    21329052.8974
        51.200          39.5004
 131426681.572 6 102410401.78642  25009664.325                    25009663.8014
        36.500          16.9004
 127416323.100 7  99285425.70744  24246529.366                    24246529.9204
        42.700          27.7004
 15  7  9  6 16 30.0000000  0  9G13G15G17G20G24G30G28G18G05
 105795605.972 8  82438119.09347  20132234.781                    20132230.9274
        49.600          42.4004
 111223577.914 8  86667719.37746  21165140.532                    21165138.0084
        48.800          41.2004
 121296947.982 7  94517117.12045  23082036.547                    23082035.9714
        43.200          30.8004
 120166462.906 7  93636190.91844  22866920.635                    22866917.5594
        43.400          27.4004
 125790734.995 6  98018780.41743  23937176.586                    23937178.5594
        36.900          19.3004
 120722885.290 7  94069774.75945  22972806.261                    22972805.9684
        43.400          30.7004
 112110917.305 8  87359142.92346  21333998.867                    21333995.5944
        52.000          39.4004
 131398459.943 6 102388410.87842  25004294.428                    25004293.5344
        37.100          17.4004
 127466634.391 7  99324629.20844  24256103.005                    24256104.2664
        43.000          26.8004
 15  7  9  6 16 45.0000000  0  9G13G15G17G20G24G30G28G18G05
 105801166.240 8  82442451.76947  20133292.299                    20133289.1824
        50.000          43.4004
 111200180.543 8  86649487.66446  21160688.334                    21160685.7064
        50.000          41.2004
 121256968.507 7  94485964.30845  23074428.608                    23074427.9664
        42.600          30.7004
 120192402.054 7  93656403.19944  22871856.054                    22871853.6384
        44.300          27.2004
 125746455.725 6  97984277.17543  23928751.081                    23928753.0314
        39.400          21.7004
 120763220.815 7  94101205.02645  22980481.637                    22980481.8274
        42.700          31.0004
 112136976.074 8  87379448.44746  21338957.953                    21338954.2814
        50.700          39.6004
 131370336.862 6 102366496.77042  24998943.082                    24998942.3404
        39.000          16.9004
 127516959.211 6  99363843.25244  24265679.796                    24265680.6634
        41.700          25.1004
 15  7  9  6 17  0.0000000  0  9G13G15G17G20G24G30G28G18G05
 105806863.120 8  82446890.89347  20134376.980                    20134373.1894
        48.400          43.1004
 111176898.563 8  86631345.86846  21156258.100                    21156255.7084
        48.200          41.3004
 121217063.205 7  94454869.30445  23066834.916                    23066834.8534
        43.600          31.5004
 120218452.521 7  93676702.25044  22876813.287                    22876811.0584
        42.600          27.9004
 125702196.127 6  97949789.26943  23920328.453                    23920331.6284
        39.000          23.0004
 120803589.157 7  94132660.86344  22988163.845                    22988163.8494
        43.400          29.9004
 112163122.421 8  87399822.21746  21343933.288                    21343929.8344
        51.400          39.8004
 131342314.027 6 102344660.77043  24993610.427                    24993609.6024
        38.000          18.3004
 127567298.464 6  99403068.59144  24275258.790                    24275259.7074
        41.500          27.3004
 15  7  9  6 17 15.0000000  0  9G13G15G17G20G24G30G28G18G05
 105812696.447 8  82451436.33947  20135486.794                    20135483.1344
        49.800          43.2004
 111153731.694 8  86613293.77346  21151849.566                    21151847.2654
        50.400          41.7004
 121177232.303 7  94423832.26345  23059256.058                    23059254.7534
        43.900          30.9004
 120244613.857 7  93697087.66944  22881791.668                    22881788.8934
        44.300          26.9004
 125657956.257 6  97915316.68144  23911910.599                    23911913.7524
        40.200          25.6004
 120843989.841 7  94164141.86945  22995851.666                    22995852.5084
        43.200          30.2004
 112189355.578 8  87420263.62946  21348925.366                    21348921.5944
        51.100          40.0004
 131314391.482 6 102322902.89042  24988296.686                    24988295.5984
        37.100          17.4004
 127617651.644 6  99442304.75244  24284840.157                    24284841.8584
        41.200          27.3004
 15  7  9  6 17 30.0000000  0  9G13G15G17G20G24G30G28G18G05
 105818666.296 8  82456088.16947  20136622.707                    20136619.2474
        49.800          43.0004
 111130680.334 8  86595331.67246  21147463.188                    21147460.9424
        51.200          41.5004
 121137476.078 7  94392853.41045  23051690.577                    23051688.7864
        43.200          30.4004
 120270885.625 7  93717559.13344  22886790.770                    22886789.4674
        45.800          28.9004
 125613736.013 7  97880859.41444  23903496.552                    23903499.4804
        42.400          26.9004
 120884422.916 7  94195648.12345  23003545.458                    23003547.0584
        43.900          30.8004
 112215675.389 8  87440772.56146  21353933.695                    21353930.1974
        51.000          40.2004
 131286569.298 6 102301223.29142  24983003.449                    24983000.7754
        36.500          17.4004
 127668018.564 6  99481551.62544  24294425.073                    24294426.5944
        40.400          25.9004
 15  7  9  6 17 45.0000000  0  9G13G15G17G20G24G30G28G18G05
 105824771.574 8  82460845.52747  20137784.331                    20137780.9564
        50.000          42.8004
 111107743.611 8  86577458.90647  21143097.927                    21143095.9814
        50.300          42.0004
 121097793.873 7  94361932.23044  23044139.164                    23044137.6314
        44.600          29.8004
 120297266.478 7  93738115.60044  22891810.933                    22891810.9104
        42.500          28.1004
 125569534.317 7  97846416.58544  23895085.226                    23895088.0144
        42.200          27.2004
 120924887.176 7  94227178.68245  23011246.454                    23011246.8584
        43.300          31.6004
 112242080.525 8  87461347.98346  21358958.649                    21358954.8774
        51.700          40.0004
 131258846.618 6 102279621.19342  24977726.945                    24977725.6674
        39.200          17.8004
 127718397.547 6  99520807.91344  24304011.782                    24304013.0984
        41.100          27.1004
 15  7  9  6 18  0.0000000  0  9G13G15G17G20G24G30G28G18G05
 105831013.415 8  82465709.29747  20138972.164                    20138969.0914
        49.500          43.1004
 111084922.850 8  86559676.51047  21138755.455                    21138753.4914
        49.700          42.3004
 121058187.101 7  94331069.84544  23036602.031                    23036600.3014
        44.400          29.6004
 120323757.426 7  93758757.87944  22896852.183                    22896851.6904
        43.300          29.1004
 125525352.496 7  97811989.26644  23886677.238                    23886680.6504
        43.000          28.5004
 120965383.728 7  94258734.41545  23018952.109                    23018953.8034
        42.900          31.3004
 112268572.129 8  87481990.78146  21363999.651                    21363996.2904
        51.200          39.5004
 131231224.892 6 102258097.78442  24972472.258                    24972469.8104
        41.600          16.9004
 127768789.382 7  99560074.17644  24313601.380                    24313603.3194
        42.100          26.6004
 15  7  9  6 18 15.0000000  0  9G13G15G17G20G24G30G28G18G05
 105837391.736 8  82470679.41047  20140186.054                    20140182.4344
        49.300          42.3004
 111062218.162 8  86541984.55146  21134435.158                    21134432.1784
        49.800          41.8004
 121018655.913 7  94300266.35045  23029079.933                    23029077.9294
        44.200          30.4004
 120350357.987 7  93779485.54744  22901914.462                    22901913.4194
        44.900          28.3004
 125481190.653 7  97777577.49444  23878273.885                    23878276.3634
        43.000          28.0004
 121005912.297 7  94290315.07345  23026664.103                    23026665.8354
        45.300          31.5004
 112295149.547 8  87502700.43946  21369057.334                    21369053.7174
        51.400          39.8004
 131203704.013 6 102236652.92342  24967234.520                    24967232.3804
        40.600          16.9004
 127819193.561 7  99599350.05244  24323193.101                    24323194.4954
        42.200          26.0004
 15  7  9  6 18 30.0000000  0  9G13G15G17G20G24G30G28G18G05
 105843906.477 8  82475755.82747  20141425.643                    20141422.3134
        49.300          42.6004
 111039629.648 8  86524383.11146  21130136.595                    21130134.0804
        48.800          41.2004
 120979200.647 7  94269522.01444  23021571.587                    23021569.5784
        45.200          29.9004
 120377067.745 7  93800298.30844  22906997.535                    22906995.5664
        45.700          28.9004
 125437048.275 7  97743180.88944  23869873.416                    23869876.6164
        42.700          27.2004
 121046472.739 7  94321920.57545  23034382.427                    23034384.6814
        44.100          31.6004
 112321812.626 8  87523476.84946  21374130.931                    21374127.5784
        50.400          39.7004
 131176284.066 6 102215286.72742  24962016.418                    24962014.8064
        39.900          17.8004
 127869609.617 7  99638635.23944  24332786.603                    24332788.0474
        42.600          24.3004
 15  7  9  6 18 45.0000000  0  9G13G15G17G20G24G30G28G18G05
 105850557.571 8  82480938.49047  20142691.619                    20142687.6684
        49.300          42.4004
 111017157.342 8  86506872.22746  21125860.033                    21125857.5924
        49.000          41.0004
 120939821.488 7  94238837.00045  23014077.896                    23014075.8434
        45.300          30.0004
 120403886.176 7  93821195.73045  22912101.355                    22912099.4984
        46.300          30.6004
 125392925.550 7  97708799.60444  23861477.519                    23861480.1044
        42.100          25.8004
 121087064.851 7  94353550.74645  23042107.207                    23042108.7674
        43.500          30.2004
 112348560.857 8  87544319.61846  21379221.137                    21379217.9104
        50.800          40.1004
 131148965.198 6 102193999.32142  24956817.415                    24956815.8034
        39.900          17.4004
 127920037.284 7  99677929.42444  24342383.349                    24342384.5134
        43.600          27.0004
 15  7  9  6 19  0.0000000  0  9G13G15G17G20G24G30G28G18G05
 105857345.775 8  82486227.99847  20143983.289                    20143979.6384
        49.000          42.3004
 110994801.779 8  86489452.31846  21121605.583                    21121604.1984
        49.400          41.7004
 120900519.334 7  94208211.97545  23006598.605                    23006597.0984
        44.000          30.0004
 120430813.423 7  93842177.98044  22917225.265                    22917223.5104
        45.900          29.8004
 125348823.183 6  97674434.18643  23853084.886                    23853087.5134
        41.000          23.5004
 121127689.070 7  94385205.92045  23049837.601                    23049839.0754
        43.900          30.4004
 112375394.537 8  87565228.96546  21384327.545                    21384324.4084
        51.200          40.3004
 131121748.126 6 102172791.22742  24951638.418                    24951636.0084
        40.100          17.4004
 127970476.346 7  99717232.50944  24351981.095                    24351982.0384
        43.300          25.9004
 15  7  9  6 19 15.0000000  0  9G13G15G17G20G24G30G28G18G05
 105864270.670 8  82491624.01747  20145300.981                    20145297.2744
        49.500          42.7004
 110972563.335 8  86472123.66646  21117374.359                    21117372.5304
        49.500          41.8004
 120861294.261 7  94177647.02744  22999133.731                    22999133.0534
        44.800          29.8004
 120457848.981 7  93863244.63844  22922369.587                    22922368.5984
        45.400          29.7004
 125304740.893 6  97640084.40343  23844695.814                    23844698.4084
        40.100          22.6004
 121168345.095 7  94416885.90845  23057573.983                    23057575.2334
        44.100          31.0004
 112402313.219 8  87586204.55346  21389449.705                    21389446.4364
        51.900          39.4004
 131094632.701 6 102151662.33642  24946478.717                    24946476.2164
        41.400          17.4004
 128020926.399 7  99756544.15244  24361581.800                    24361583.3964
        43.400          26.1004
 15  7  9  6 19 30.0000000  0  9G13G15G17G20G24G30G28G18G05
 105871331.979 8  82497126.32847  20146644.667                    20146641.2374
        50.800          42.8004
 110950441.744 8  86454886.07247  21113164.411                    21113162.1044
        49.900          42.0004
 120822146.213 7  94147142.09044  22991684.237                    22991682.8974
        44.700          28.4004
 120484992.220 7  93884395.20244  22927535.032                    22927534.0354
        46.000          29.8004
 125260678.432 6  97605750.07343  23836310.426                    23836312.6464
        38.600          21.3004
 121209032.446 7  94448590.31445  23065317.139                    23065317.3174
        45.200          31.3004
 112429316.328 8  87607245.92546  21394588.298                    21394584.7474
        50.500          39.9004
 131067618.929 7 102130612.65843  24941338.650                    24941335.8164
        42.100          19.0004
 128071386.984 6  99795864.01644  24371183.603                    24371186.1464
        41.800          24.6004
 15  7  9  6 19 45.0000000  0  9G13G15G17G20G24G30G28G18G05
 105878529.214 8  82502734.55747  20148014.575                    20148010.8104
        49.800          42.8004
 110928436.711 8  86437739.29846  21108977.091                    21108974.4974
        50.300          40.8004
 120783075.114 7  94116697.12244  22984248.858                    22984247.5204
        44.800          28.7004
 120512242.497 7  93905629.16544  22932720.005                    22932719.8104
        46.400          29.9004
 125216635.503 6  97571430.99043  23827928.388                    23827930.3334
        36.700          18.3004
 121249750.598 7  94480318.71345  23073065.750                    23073065.8484
        46.600          30.9004
 112456403.008 8  87628352.40746  21399742.505                    21399738.8144
        50.500          39.5004
 131040706.571 6 102109642.01243  24936217.669                    24936213.7404
        41.800          19.6004
 128121856.984 7  99835191.17044  24380788.406                    24380789.6274
        43.500          25.5004
 15  7  9  6 20  0.0000000  0  9G13G15G17G20G24G30G28G18G05
 105885863.665 8  82508449.70847  20149409.760                    20149406.3514
        48.900          42.6004
 110906549.562 8  86420684.37246  21104812.010                    21104809.2144
        48.600          40.7004
 120744082.633 7  94086313.37344  22976829.511                    22976827.5734
        44.300          29.4004
 120539600.483 7  93926947.03444  22937926.134                    22937925.1194
        46.700          28.8004
 125172613.145 6  97537127.89142  23819551.170                    23819552.3944
        36.400          17.4004
 121290500.623 7  94512071.93545  23080820.001                    23080820.4214
        46.800          30.4004
 112483574.153 8  87649524.70946  21404912.978                    21404909.8114
        50.000          39.5004
 131013896.676 7 102088751.18243  24931114.986                    24931112.4214
        42.300          19.6004
 128172337.055 7  99874526.22343  24390394.002                    24390395.0864
        42.300          23.9004
 15  7  9  6 20 15.0000000  0  9G13G15G17G20G24G30G28G18G05
 105893335.452 8  82514271.88147  20150831.987                    20150828.5854
        50.000          42.9004
 110884780.648 8  86403721.59746  21100669.633                    21100667.0214
        49.300          41.0004
 120705168.852 7  94055990.99444  22969424.131                    22969422.8914
        45.100          29.6004
 120567065.673 7  93948348.44144  22943152.595                    22943150.8144
        45.800          28.4004
 125128611.499 6  97502840.95543  23811178.924                    23811178.6424
        37.500          19.0004
 121331282.429 7  94543849.92745  23088580.563                    23088581.0824
        46.400          31.2004
 112510829.678 8  87670762.76046  21410099.469                    21410096.5744
        50.400          39.4004
 130987189.531 6 102067940.44443  24926032.882                    24926031.0864
        40.900          19.9004
 128222827.084 7  99913869.02844  24400002.199                    24400004.2874
        42.100          25.5004
 15  7  9  6 20 30.0000000  0  9G13G15G17G20G24G30G28G18G05
 105900943.943 8  82520200.56647  20152279.565                    20152276.3684
        49.400          42.6004
 110863129.571 8  86386850.64246  21096549.630                    21096547.0874
        49.700          41.2004
 120666333.427 7  94025729.68244  22962033.938                    22962032.6924
        45.400          29.3004
 120594637.632 7  93969833.05144  22948399.626                    22948397.6314
        44.700          28.4004
 125084630.139 6  97468569.84343  23802810.440                    23802809.5214
        39.700          20.4004
 121372095.404 7  94575652.20345  23096347.063                    23096347.9394
        44.600          30.3004
 112538168.766 8  87692065.93346  21415302.257                    21415299.1064
        50.700          39.4004
 130960584.770 6 102047209.46943  24920970.039                    24920968.7124
        40.200          19.9004
 128273325.797 7  99953218.57244  24409612.156                    24409613.7534
        43.400          25.4004
 15  7  9  6 20 45.0000000  0  9G13G15G17G20G24G30G28G18G05
 105908688.837 8  82526235.54247  20153753.453                    20153750.2044
        49.000          42.6004
 110841596.029 8  86370071.25246  21092452.036                    21092449.6274
        49.400          41.5004
 120627576.568 7  93995529.56645  22954659.100                    22954658.1804
        45.700          31.5004
 120622315.576 7  93991400.25744  22953666.857                    22953665.0764
        45.200          28.1004
 125040668.767 7  97434314.28043  23794444.488                    23794445.4134
        42.000          22.3004
 121412939.086 7  94607478.40345  23104118.513                    23104120.2394
        44.200          30.0004
 112565590.674 8  87713433.64946  21420520.176                    21420517.2334
        50.500          39.5004
 130934082.313 6 102026558.19443  24915926.995                    24915926.3644
        40.200          20.6004
 128323833.018 7  99992574.78144  24419223.592                    24419225.1434
        42.900          24.6004
 15  7  9  6 21  0.0000000  0  9G13G15G17G20G24G30G28G18G05
 105916570.384 8  82532376.99547  20155253.297                    20155250.2664
        49.100          42.6004
 110820180.609 8  86353383.92046  21088376.551                    21088374.0724
        50.000          41.4004
 120588898.742 7  93965391.05245  22947298.897                    22947298.1204
        46.000          31.4004
 120650099.353 7  94013049.92044  22958953.749                    22958952.0624
        44.900          27.5004
 124996727.944 7  97400074.70644  23786083.157                    23786084.2524
        43.000          25.0004
 121453813.691 7  94639328.68644  23111897.502                    23111899.0314
        45.100          29.7004
 112593095.545 8  87734866.00046  21425754.000                    21425751.9044
        50.000          38.5004
 130907682.513 6 102005986.91643  24910902.957                    24910903.1894
        41.300          21.8004
 128374348.420 7 100031937.32044  24428836.354                    24428837.8404
        42.300          25.6004
 15  7  9  6 21 15.0000000  0  9G13G15G17G20G24G30G28G18G05
 105924588.946 8  82538625.22247  20156779.086                    20156775.9454
        49.600          42.8004
 110798883.911 8  86336789.10246  21084324.035                    21084321.1604
        49.300          40.8004
 120550300.819 7  93935314.80945  22939953.904                    22939953.5554
        45.800          31.6004
 120677989.138 7  94034782.18144  22964260.488                    22964259.3634
        45.300          28.4004
 124952807.702 7  97365851.17644  23777725.413                    23777727.2364
        44.100          28.1004
 121494719.554 7  94671203.33745  23119681.299                    23119683.4544
        44.600          31.2004
 112620683.509 8  87756363.10146  21431003.567                    21431001.2254
        48.800          38.2004
 130881386.003 7 101985496.13143  24905899.757                    24905898.4574
        42.300          22.2004
 128424871.912 7 100071306.19544  24438451.112                    24438452.2994
        42.500          24.9004
 15  7  9  6 21 30.0000000  0  9G13G15G17G20G24G30G28G18G05
 105932745.034 8  82544980.60847  20158331.151                    20158328.0864
        49.100          42.9004
 110777706.486 8  86320287.22446  21080294.290                    21080291.4854
        49.000          41.5004
 120511783.538 7  93905301.39845  22932624.451                    22932623.8374
        45.800          31.8004
 120705984.851 7  94056596.97444  22969589.001                    22969587.9904
        45.700          29.1004
 124908908.534 7  97331644.07544  23769371.483                    23769373.9274
        44.500          29.7004
 121535656.877 7  94703102.49944  23127471.670                    23127473.0844
        44.300          29.9004
 112648354.550 8  87777924.93246  21436269.406                    21436266.9444
        49.300          37.4004
 130855193.401 7 101965086.32643  24900915.855                    24900914.4784
        42.900          21.5004
 128475403.617 7 100110681.47244  24448067.053                    24448068.7694
        43.400          25.8004
 15  7  9  6 21 45.0000000  0  9G13G15G17G20G24G30G28G18G05
 105941037.614 8  82551442.34547  20159909.489                    20159906.1654
        49.500          42.9004
 110756647.267 8  86303877.44746  21076286.773                    21076284.2884
        49.300          41.5004
 120473345.968 7  93875350.08345  22925310.335                    22925308.9654
        46.500          30.8004
 120734084.986 7  94078493.14844  22974935.848                    22974935.4574
        44.900          27.6004
 124865029.416 7  97297452.60244  23761022.492                    23761024.5744
        44.600          29.6004
 121576624.340 7  94735025.13745  23135268.013                    23135268.4074
        45.600          30.1004
 112676107.157 8  87799550.32546  21441550.849                    21441547.8124
        50.100          38.0004
 130829103.502 7 101944756.51743  24895950.384                    24895948.2934
        42.300          21.5004
 128525941.858 7 100150061.82344  24457683.821                    24457685.0744
        42.400          24.5004
 15  7  9  6 22  0.0000000  0  9G13G15G17G20G24G30G28G18G05
 105949467.146 8  82558010.80947  20161513.526                    20161510.2904
        48.800          42.8004
 110735707.180 8  86287560.50546  21072302.236                    21072299.9864
        49.000          41.5004
 120434989.038 7  93845461.62045  22918010.801                    22918009.6324
        46.600          32.0004
 120762289.838 7  94100470.92044  22980303.540                    22980302.3504
        44.800          28.5004
 124821171.054 7  97263277.30544  23752675.689                    23752677.8944
        43.800          28.1004
 121617622.544 7  94766971.77145  23143069.622                    23143069.7454
        45.100          30.0004
 112703941.810 8  87821239.65546  21446847.166                    21446844.5544
        50.300          38.1004
 130803117.137 7 101924507.41843  24891005.015                    24891003.8034
        42.200          20.6004
 128576486.827 7 100189447.43244  24467302.325                    24467304.3984
        43.200          27.2004
 15  7  9  6 22 15.0000000  0  9G13G15G17G20G24G30G28G18G05
 105958033.844 8  82564686.15047  20163143.691                    20163140.0674
        49.400          42.9004
 110714886.603 8  86271336.69146  21068339.954                    21068337.6044
        48.800          41.2004
 120396713.352 7  93815636.46445  22910726.926                    22910726.4174
        46.000          31.9004
 120790599.353 7  94122530.25244  22985690.457                    22985688.3564
        45.500          28.3004
 124777333.676 7  97229118.37044  23744333.917                    23744336.5074
        44.100          29.3004
 121658651.630 7  94798942.46645  23150877.806                    23150877.5654
        45.300          30.2004
 112731858.543 8  87842992.94846  21452159.484                    21452156.7794
        49.700          38.1004
 130777234.716 7 101904339.29443  24886080.314                    24886078.4404
        42.100          20.9004
 128627038.616 7 100228838.37444  24476922.389                    24476923.4964
        43.000          25.9004
 15  7  9  6 22 30.0000000  0  9G13G15G17G20G24G30G28G18G05
 105966737.219 8  82571467.99247  20164799.649                    20164795.8514
        48.700          42.6004
 110694185.230 8  86255205.75746  21064400.552                    21064397.9034
        48.500          41.3004
 120358518.823 7  93785874.53245  22903458.603                    22903457.8794
        46.100          31.3004
 120819012.739 7  94144670.52044  22991097.340                    22991094.6894
        45.200          27.4004
 124733517.177 7  97194975.69044  23735995.639                    23735997.6334
        43.200          28.6004
 121699711.106 7  94830936.82745  23158690.739                    23158691.5434
        45.100          31.0004
 112759856.644 8  87864809.63446  21457487.346                    21457484.7374
        49.300          38.3004
 130751455.975 7 101884251.97243  24881174.879                    24881173.6524
        42.500          21.1004
 128677596.417 7 100268234.00644  24486542.814                    24486545.2154
        43.200          27.0004
 15  7  9  6 22 45.0000000  0  9G13G15G17G20G24G30G28G18G05
 105975577.947 8  82578356.86847  20166482.116                    20166478.7834
        49.600          42.7004
 110673603.847 8  86239168.32246  21060484.053                    21060481.0764
        49.700          41.3004
 120320406.238 7  93756176.46145  22896206.196                    22896205.1624
        46.400          31.4004
 120847530.112 7  94166891.83344  22996523.990                    22996520.9854
        45.100          28.7004
 124689721.814 6  97160849.48544  23727661.724                    23727663.8394
        41.800          27.2004
 121740801.394 7  94862955.18644  23166509.793                    23166510.3354
        45.500          29.9004
 112787936.404 8  87886689.94746  21462830.805                    21462828.0364
        49.400          38.2004
 130725781.600 7 101864245.94543  24876288.953                    24876287.7044
        43.400          21.1004
 128728160.346 7 100307634.36744  24496165.164                    24496167.3474
        43.000          26.0004
 15  7  9  6 23  0.0000000  0  9G13G15G17G20G24G30G28G18G05
 105984556.174 8  82585352.88147  20168190.586                    20168187.2924
        49.100          42.0004
 110653142.658 8  86223224.54746  21056590.803                    21056587.9264
        49.100          41.3004
 120282375.909 7  93726542.50145  22888969.144                    22888968.0524
        45.700          32.1004
 120876151.226 7  94189193.97544  23001970.398                    23001967.6504
        45.900          27.1004
 124645947.737 6  97126739.88744  23719331.088                    23719333.8324
        39.900          25.8004
 121781922.477 7  94894997.52645  23174334.504                    23174336.1144
        44.700          31.2004
 112816097.579 8  87908633.69846  21468189.874                    21468187.2244
        49.500          37.7004
 130700211.789 7 101844321.41643  24871424.080                    24871421.8124
        42.700          20.9004
 128778730.027 7 100347039.24544  24505787.779                    24505790.4444
        43.000          25.5004
 15  7  9  6 23 15.0000000  0  9G13G15G17G20G24G30G28G18G05
 105993672.026 8  82592456.13447  20169925.280                    20169921.7944
        49.100          42.0004
 110632802.055 8  86207374.72746  21052719.417                    21052717.4374
        49.600          41.5004
 120244428.385 7  93696973.05045  22881748.438                    22881747.1974
        46.700          31.2004
 120904876.012 7  94211576.89544  23007436.343                    23007433.5564
        45.800          27.9004
 124602195.314 6  97092647.18043  23711004.321                    23711008.5504
        38.300          23.8004
 121823074.389 7  94927063.89545  23182165.590                    23182167.6264
        44.400          31.5004
 112844339.983 8  87930640.74746  21473564.692                    21473561.4924
        49.700          38.2004
 130674746.893 7 101824478.64543  24866577.267                    24866576.6394
        42.100          20.4004
 128829305.220 7 100386448.37744  24515412.877                    24515414.1004
        43.100          27.3004
 15  7  9  6 23 30.0000000  0  9G13G15G17G20G24G30G28G18G05
 106002925.045 8  82599666.27446  20171686.081                    20171682.4184
        49.100          41.7004
 110612581.749 8  86191618.65046  21048871.707                    21048869.2404
        49.200          41.2004
 120206563.345 7  93667467.87745  22874542.340                    22874541.5614
        46.000          31.6004
 120933703.531 7  94234039.87544  23012922.337                    23012919.8984
        45.900          27.9004
 124558463.914 6  97058570.81543  23702683.049                    23702686.3064
        36.500          22.3004
 121864256.519 7  94959153.80445  23190002.880                    23190004.5944
        45.000          31.9004
 112872662.873 8  87952710.50846  21478954.358                    21478951.1924
        49.100          37.9004
 130649386.539 6 101804717.35243  24861751.898                    24861750.4694
        41.400          20.4004
 128879885.151 7 100425861.25344  24525036.908                    24525038.7834
        42.600          25.3004
 15  7  9  6 23 45.0000000  0  9G13G15G17G20G24G30G28G18G05
 106012315.125 8  82606983.21346  20173473.045                    20173469.5794
        48.400          41.8004
 110592481.944 8  86175956.46946  21045047.334                    21045044.5814
        48.700          41.4004
 120168781.373 7  93638027.43745  22867352.178                    22867351.6944
        45.600          30.4004
 120962633.541 7  94256582.71644  23018427.379                    23018426.6034
        45.600          29.2004
 124514753.469 6  97024510.80743  23694365.160                    23694367.7994
        38.000          22.2004
 121905468.854 7  94991267.27445  23197845.533                    23197847.6084
        45.200          32.0004
 112901065.985 8  87974842.79446  21484359.188                    21484356.0374
        49.500          38.4004
 130624131.141 6 101785037.85443  24856945.288                    24856944.2704
        40.900          20.4004
 128930469.436 7 100465277.47844  24534663.522                    24534665.2804
        42.600          25.3004
 15  7  9  6 24  0.0000000  0  9G13G15G17G20G24G30G28G18G05
 106021842.164 8  82614406.87347  20175285.596                    20175282.7984
        48.100          42.1004
 110572502.747 7  86160388.26746  21041245.310                    21041242.6234
        47.900          41.6004
 120131082.712 7  93608651.89745  22860178.945                    22860177.5604
        45.900          30.9004
 120991665.573 7  94279205.06044  23023952.502                    23023951.1524
        44.400          29.3004
 124471064.597 6  96990467.57943  23686051.527                    23686054.2504
        39.500          21.8004
 121946711.188 7  95023404.10545  23205693.596                    23205695.3394
        45.200          31.9004
 112929549.012 8  87997037.34546  21489779.411                    21489775.8164
        49.300          38.3004
 130598980.814 6 101765440.19043  24852159.002                    24852158.4114
        41.400          21.1004
 128981057.578 7 100504696.71044  24544290.009                    24544291.9484
        42.400          25.4004
 15  7  9  6 24 15.0000000  0  9G13G15G17G20G24G30G28G18G05
 106031506.368 8  82621937.41846  20177125.036                    20177121.8634
        50.200          41.9004
 110552644.403 8  86144914.24746  21037466.177                    21037463.3044
        49.800          41.5004
 120093467.799 7  93579341.62945  22853021.109                    22853019.7164
        45.600          30.4004
 121020799.563 7  94301906.83144  23029496.647                    23029495.4294
        45.100          28.7004
 124427397.031 6  96956440.91843  23677741.879                    23677744.1324
        41.500          23.4004
 121987983.558 7  95055564.34945  23213546.986                    23213549.2404
        44.600          30.9004
 112958111.760 8  88019294.01546  21495215.072                    21495211.3194
        49.800          37.7004
 130573935.681 7 101745924.51743  24847393.427                    24847392.1234
        42.000          21.7004
 129031649.379 7 100544118.80044  24553917.263                    24553919.1074
        42.100          25.0004
 15  7  9  6 24 30.0000000  0  9G13G15G17G20G24G30G28G18G05
 106041307.967 8  82629575.01047  20178990.359                    20178987.2244
        49.400          42.0004
 110532907.285 8  86129534.68846  21033710.682                    21033707.5204
        49.400          41.5004
 120055936.967 7  93550096.87345  22845879.015                    22845877.6344
        46.300          31.1004
 121050035.220 7  94324687.81744  23035060.011                    23035058.1894
        45.900          29.8004
 124383751.332 7  96922431.32544  23669436.546                    23669438.9024
        42.800          25.3004
 122029286.100 7  95087748.09744  23221406.876                    23221408.8554
        44.600          29.7004
 112986754.359 8  88041612.91146  21500665.645                    21500661.6464
        49.900          37.9004
 130548995.997 7 101726491.00343  24842647.264                    24842646.4904
        42.400          21.7004
 129082244.573 6 100583543.55044  24563545.482                    24563548.2974
        41.500          24.8004
 15  7  9  6 24 45.0000000  0  9G13G15G17G20G24G30G28G18G05
 106051246.736 8  82637319.50547  20180881.505                    20180878.2174
        48.800          42.2004
 110513291.514 8  86114249.66646  21029977.742                    21029975.1764
        49.000          41.9004
 120018490.506 7  93520917.86545  22838752.887                    22838751.1324
        45.800          31.1004
 121079372.033 7  94347547.62544  23040642.538                    23040640.4084
        44.600          28.6004
 124340126.995 7  96888438.35944  23661135.622                    23661137.0644
        44.000          25.6004
 122070618.508 7  95119955.12444  23229271.957                    23229273.7674
        42.600          29.2004
 113015476.297 8  88063993.63746  21506131.289                    21506127.4504
        49.500          38.4004
 130524161.768 7 101707139.68743  24837921.342                    24837920.2994
        42.200          21.1004
 129132842.705 6 100622970.57944  24573174.552                    24573176.8084
        41.800          26.2004
 15  7  9  6 25  0.0000000  0  9G13G15G17G20G24G30G28G18G05
 106061322.807 8  82645170.98047  20182798.907                    20182795.4444
        49.900          42.1004
 110493797.451 8  86099059.49046  21026268.187                    21026265.3454
        49.400          41.2004
 119981128.975 7  93491805.02345  22831643.415                    22831642.1294
        46.400          31.6004
 121108809.839 6  94370486.13544  23046244.461                    23046241.8954
        41.400          28.2004
 124296524.206 7  96854462.18444  23652838.184                    23652840.3574
        44.400          28.5004
 122111980.914 7  95152185.54444  23237142.663                    23237144.6254
        42.000          29.3004
 113044277.373 8  88086436.01146  21511611.714                    21511608.6114
        48.900          38.0004
 130499433.256 6 101687870.73343  24833215.740                    24833214.5544
        41.900          21.3004
 129183443.642 6 100662399.80944  24582802.960                    24582805.8174
        41.800          24.9004
 15  7  9  6 25 15.0000000  0  9G13G15G17G20G24G30G28G18G05
 106071536.517 8  82653129.70347  20184742.051                    20184739.0904
        49.400          43.0004
 110474425.484 8  86083964.45746  21022581.659                    21022579.1254
        49.000          41.1004
 119943852.720 7  93462758.62945  22824550.481                    22824549.1384
        45.800          32.2004
 121138348.624 6  94393503.34744  23051864.877                    23051864.0874
        41.100          27.9004
 124252943.987 7  96820503.60944  23644545.081                    23644547.7394
        43.300          28.5004
 122153373.439 6  95184439.41944  23245019.155                    23245020.9874
        41.700          29.1004
 113073157.564 8  88108940.04346  21517107.632                    21517103.7844
        48.100          38.4004
 130474810.984 6 101668684.55843  24828530.563                    24828528.7464
        41.400          21.7004
 129234047.144 7 100701831.02344  24592432.922                    24592435.5274
        42.900          26.0004
 15  7  9  6 25 30.0000000  0  9G13G15G17G20G24G30G28G18G05
 106081887.728 8  82661195.57347  20186712.332                    20186709.1694
        49.200          43.0004
 110455175.357 8  86068964.37146  21018918.401                    21018916.3244
        49.000          41.9004
 119906661.946 7  93433778.83845  22817473.179                    22817471.7614
        46.600          32.3004
 121167987.663 6  94416598.67344  23057505.322                    23057504.4434
        41.900          29.0004
 124209385.482 7  96786561.96644  23636256.373                    23636258.8644
        43.200          28.3004
 122194795.738 6  95216716.48044  23252901.770                    23252903.8994
        41.700          28.8004
 113102116.424 8  88131505.36646  21522617.778                    21522614.4334
        49.800          38.3004
 130450294.829 6 101649581.07643  24823865.961                    24823864.3254
        40.800          21.3004
 129284652.725 7 100741263.84444  24602062.946                    24602065.3924
        43.700          24.9004
 15  7  9  6 25 45.0000000  0  9G13G15G17G20G24G30G28G18G05
 106092376.557 8  82669368.67747  20188707.987                    20188704.6664
        48.800          42.9004
 110436047.630 8  86054059.65247  21015278.310                    21015275.8564
        49.800          42.1004
 119869557.111 7  93404866.04045  22810412.410                    22810411.1044
        46.800          32.4004
 121197726.856 7  94439772.01544  23063164.284                    23063163.6264
        43.000          26.4004
 124165849.073 7  96752637.55044  23627970.828                    23627974.2214
        42.900          28.5004
 122236247.890 6  95249016.79645  23260790.082                    23260791.9994
        40.800          30.0004
 113131153.906 8  88154131.96246  21528144.081                    21528139.7944
        50.000          38.1004
 130425885.016 6 101630560.47843  24819220.385                    24819219.1704
        41.000          22.2004
 129335260.163 7 100780698.13444  24611693.351                    24611696.3464
        44.100          26.0004
 15  7  9  6 26  0.0000000  0  9G13G15G17G20G24G30G28G18G05
 106103002.804 8  82677648.86147  20190730.327                    20190726.8474
        48.500          42.1004
 110417042.435 8  86039250.40846  21011662.089                    21011658.9704
        48.400          41.2004
 119832538.452 7  93376020.38445  22803367.404                    22803367.2224
        47.300          32.1004
 121227565.714 7  94463023.05544  23068842.388                    23068840.8494
        43.900          27.2004
 124122334.641 6  96718730.24944  23619690.304                    23619693.4334
        41.600          27.4004
 122277729.726 6  95281340.25444  23268683.817                    23268686.7744
        41.400          29.6004
 113160269.604 8  88176819.50646  21533684.456                    21533680.3504
        49.600          38.0004
 130401581.727 6 101611622.84243  24814594.748                    24814594.7904
        39.400          21.7004
 129385868.781 7 100820133.31744  24621323.483                    24621326.6374
        43.400          25.3004
 15  7  9  6 26 15.0000000  0  9G13G15G17G20G24G30G28G18G05
 106113765.979 8  82686035.74747  20192778.387                    20192774.8514
        48.600          42.1004
 110398159.436 8  86024536.38146  21008068.535                    21008065.6854
        48.100          40.9004
 119795605.815 7  93347241.75045  22796339.962                    22796338.6624
        46.700          32.9004
 121257503.566 7  94486351.21144  23074539.506                    23074537.4774
        44.500          27.4004
 124078841.973 6  96684839.94344  23611413.193                    23611417.1144
        40.800          26.6004
 122319240.748 7  95313686.43744  23276584.030                    23276585.7514
        42.300          29.3004
 113189462.729 8  88199567.38846  21539239.815                    21539235.4944
        49.500          37.8004
 130377384.736 6 101592768.06843  24809989.757                    24809990.6904
        38.700          20.4004
 129436478.104 7 100859569.06544  24630954.648                    24630957.0644
        44.500          25.9004
 15  7  9  6 26 30.0000000  0  9G13G15G17G20G24G30G28G18G05
 106124666.813 8  82694529.89746  20194852.619                    20194849.1914
        50.500          41.8004
 110379399.449 8  86009918.22146  21004498.839                    21004496.0894
        50.300          41.1004
 119758760.254 7  93318530.97145  22789328.189                    22789326.9724
        47.200          32.0004
 121287540.732 7  94509756.76444  23080255.446                    23080253.4184
        44.400          27.9004
 124035371.881 6  96650967.21044  23603140.926                    23603144.4634
        39.900          25.3004
 122360781.492 6  95346055.82744  23284488.644                    23284490.6844
        41.700          29.3004
 113218733.807 8  88222376.00846  21544809.819                    21544805.8654
        49.400          37.8004
 130353294.874 6 101573996.73943  24805405.466                    24805406.9414
        36.700          19.6004
 129487088.259 7 100899005.44944  24640585.835                    24640588.1944
        45.100          26.9004
 15  7  9  6 26 45.0000000  0  9G13G15G17G20G24G30G28G18G05
 106135705.263 8  82703131.27847  20196953.264                    20196950.1604
        50.300          42.1004
 110360762.460 8  85995395.90446  21000952.310                    21000949.2184
        50.500          41.6004
 119722002.044 7  93289888.25545  22782333.269                    22782332.2274
        47.000          32.1004
 121317676.624 7  94533239.25844  23085989.984                    23085987.7614
        44.600          27.6004
 123991924.184 6  96617111.93944  23594873.455                    23594876.5874
        39.700          24.0004
 122402351.788 6  95378448.24044  23292398.779                    23292400.9824
        41.000          29.2004
 113248082.508 8  88245245.10846  21550394.578                    21550391.2674
        48.800          37.7004
 130329312.209 6 101555308.99243  24800841.790                    24800842.7194
        36.700          19.0004
 129537698.740 7 100938442.09944  24650216.716                    24650219.2424
        44.600          25.7004
 15  7  9  6 27  0.0000000  0  9G13G15G17G20G24G30G28G18G05
 106146881.257 8  82711839.82847  20199079.910                    20199076.6184
        50.300          42.7004
 110342248.714 8  85980969.60846  20997429.146                    20997426.8314
        50.700          41.8004
 119685331.215 7  93261313.61345  22775355.045                    22775353.9154
        46.700          33.0004
 121347910.995 7  94556798.46544  23091743.496                    23091742.2064
        44.900          28.4004
 123948498.995 6  96583274.19144  23586609.687                    23586612.7764
        38.200          24.9004
 122443951.532 7  95410863.57644  23300315.784                    23300316.8884
        43.500          29.4004
 113277508.402 8  88268174.35846  21555994.269                    21555990.5454
        49.200          37.4004
 130305436.686 6 101536704.74643  24796298.783                    24796298.6324
        37.600          19.6004
 129588309.242 7 100977878.77344  24659847.159                    24659849.1954
        44.400          25.7004
 15  7  9  6 27 15.0000000  0  9G13G15G17G20G24G30G28G18G05
 106158194.361 8  82720655.22447  20201232.619                    20201229.0834
        49.300          42.5004
 110323857.969 8  85966639.16546  20993929.427                    20993927.0534
        49.700          41.7004
 119648747.912 7  93232807.19345  22768392.743                    22768392.1694
        46.400          32.2004
 121378243.005 7  94580433.75944  23097515.316                    23097514.3724
        44.800          27.7004
 123905096.017 6  96549453.75944  23578349.956                    23578353.2094
        40.600          26.6004
 122485580.296 7  95443301.53544  23308236.857                    23308238.5954
        43.100          28.5004
 113307010.636 8  88291163.10646  21561608.267                    21561604.2684
        48.900          37.8004
 130281668.183 6 101518183.84543  24791775.872                    24791776.1534
        39.100          19.6004
 129638918.948 7 101017314.84144  24669478.172                    24669480.0604
        45.000          25.8004
 15  7  9  6 27 30.0000000  0  9G13G15G17G20G24G30G28G18G05
 106169645.270 8  82729577.99747  20203411.770                    20203408.3704
        50.200          42.3004
 110305591.174 8  85952405.29646  20990453.685                    20990451.0414
        49.900          41.9004
 119612253.169 7  93204369.78045  22761448.249                    22761447.3594
        46.600          31.6004
 121408673.052 7  94604145.44344  23103306.315                    23103304.9564
        42.700          28.2004
 123861715.975 7  96515651.17844  23570096.182                    23570098.0584
        42.300          25.9004
 122527238.642 6  95475762.53644  23316164.170                    23316165.9234
        41.800          28.9004
 113336590.101 8  88314212.02546  21567237.029                    21567232.8544
        49.000          38.1004
 130258007.419 6 101499746.89343  24787273.347                    24787273.5884
        39.400          19.3004
 129689528.299 7 101056750.62644  24679108.854                    24679110.8404
        43.900          25.7004
 15  7  9  6 27 45.0000000  0  9G13G15G17G20G24G30G28G18G05
 106181233.600 8  82738607.85747  20205617.364                    20205613.6284
        48.600          42.5004
 110287448.131 8  85938267.87246  20987001.129                    20986998.4244
        49.700          41.4004
 119575846.754 7  93176001.17945  22754520.284                    22754519.2214
        46.700          31.4004
 121439200.391 7  94627932.95244  23109115.568                    23109114.8434
        42.400          28.2004
 123818358.506 7  96481866.19044  23561845.288                    23561847.7264
        42.400          26.2004
 122568926.008 6  95508246.15144  23324097.650                    23324099.0874
        41.400          29.3004
 113366246.015 7  88337320.52246  21572880.301                    21572876.6384
        47.200          38.3004
 130234454.193 6 101481393.76643  24782791.930                    24782790.7754
        40.400          20.1004
 129740136.467 7 101096185.50144  24688738.878                    24688741.4554
        43.700          25.3004
 15  7  9  6 28  0.0000000  0  9G13G15G17G20G24G30G28G18G05
 106192958.260 8  82747743.94747  20207848.157                    20207844.8174
        48.200          42.5004
 110269427.873 8  85924226.12446  20983571.869                    20983568.9584
        48.000          41.7004
 119539528.302 7  93147701.13345  22747608.872                    22747607.5634
        47.200          31.2004
 121469823.584 7  94651795.12844  23114943.210                    23114941.8324
        44.000          28.6004
 123775022.699 7  96448098.06544  23553598.849                    23553600.8894
        42.500          26.0004
 122610641.337 6  95540751.55545  23332035.498                    23332037.8044
        40.900          30.4004
 113395976.994 8  88360487.50746  21578537.885                    21578534.3114
        48.500          37.9004
 130211007.817 6 101463123.87243  24778329.885                    24778329.5214
        40.900          19.9004
 129790742.082 7 101135618.33744  24698368.901                    24698371.7364
        44.800          26.7004
 15  7  9  6 28 15.0000000  0  9G13G15G17G20G24G30G28G18G05
 106204821.647 8  82756988.12947  20210105.822                    20210102.4934
        50.300          42.3004
 110251533.009 8  85910282.07846  20980166.719                    20980163.4134
        50.500          41.3004
 119503300.076 7  93119471.40245  22740715.477                    22740713.9734
        47.100          31.3004
 121500544.773 7  94675733.69444  23120789.958                    23120788.8274
        45.100          28.4004
 123731710.908 7  96414348.65144  23545356.997                    23545358.9674
        42.800          26.8004
 122652386.919 7  95573280.54045  23339979.122                    23339981.5254
        42.200          30.4004
 113425785.078 8  88383714.57846  21584210.148                    21584207.0464
        49.400          37.7004
 130187670.699 6 101444939.13043  24773889.398                    24773888.5784
        41.100          19.9004
 129841347.106 7 101175050.76244  24707999.403                    24708001.3854
        45.100          25.0004
 15  7  9  6 28 30.0000000  0  9G13G15G17G20G24G30G28G18G05
 106216822.312 8  82766339.28847  20212389.279                    20212386.3284
        49.200          42.0004
 110233762.285 8  85896434.75846  20976785.099                    20976781.9974
        49.000          41.5004
 119467160.898 7  93091311.03445  22733838.044                    22733836.5534
        47.200          31.1004
 121531362.099 7  94699747.17044  23126653.678                    23126652.5834
        45.200          28.2004
 123688421.676 7  96380616.81944  23537119.466                    23537121.0754
        42.300          25.2004
 122694161.214 7  95605831.89245  23347928.835                    23347930.7914
        42.200          30.2004
 113455668.588 8  88407000.42146  21589896.498                    21589893.9094
        48.500          37.4004
 130164441.472 6 101426838.45443  24769468.592                    24769467.4514
        40.900          19.6004
 129891949.640 7 101214481.26544  24717628.665                    24717630.7374
        44.700          25.3004
 15  7  9  6 28 45.0000000  0  9G13G15G17G20G24G30G28G18G05
 106228960.388 8  82775797.51847  20214699.201                    20214695.8634
        49.800          42.4004
 110216116.016 8  85882684.42846  20973426.969                    20973423.9214
        49.800          41.5004
 119431111.479 7  93063220.61345  22726978.428                    22726976.6484
        46.700          32.8004
 121562275.438 7  94723835.45944  23132536.007                    23132534.5844
        44.300          27.9004
 123645155.497 7  96346902.94044  23528885.493                    23528887.4864
        42.100          25.8004
 122735964.298 7  95638405.67944  23355883.729                    23355885.0454
        42.400          29.9004
 113485627.635 8  88430345.10646  21595597.659                    21595594.7764
        48.300          38.0004
 130141320.594 6 101408822.21643  24765068.173                    24765068.2994
        40.600          19.0004
 129942549.706 7 101253909.82044  24727257.141                    24727258.9384
        44.000          24.1004
 15  7  9  6 29  0.0000000  0  9G13G15G17G20G24G30G28G18G05
 106241236.214 8  82785363.08747  20217035.309                    20217031.8834
        50.900          42.1004
 110198594.661 8  85869031.43646  20970092.641                    20970090.2174
        50.200          41.8004
 119395152.321 7  93035200.52645  22720135.009                    22720134.5774
        46.300          32.7004
 121593284.769 7  94747998.56444  23138437.384                    23138434.9104
        43.900          28.0004
 123601912.372 6  96313207.05344  23520656.616                    23520658.5434
        41.800          27.4004
 122777796.449 7  95671002.10145  23363844.522                    23363845.6524
        43.700          30.2004
 113515662.209 8  88453748.65246  21601312.610                    21601310.5874
        48.200          37.3004
 130118308.407 6 101390890.69243  24760690.002                    24760688.9354
        41.500          20.1004
 129993147.253 7 101293336.37444  24736885.420                    24736888.1354
        43.700          25.3004
 15  7  9  6 29 15.0000000  0  9G13G15G17G20G24G30G28G18G05
 106253649.519 8  82795035.78547  20219397.581                    20219394.2804
        50.400          42.5004
 110181198.118 8  85855475.69846  20966782.291                    20966779.1384
        50.200          41.5004
 119359283.600 7  93007250.90145  22713309.291                    22713308.7574
        46.100          33.3004
 121624389.436 7  94772235.93544  23144355.705                    23144354.1964
        44.500          27.7004
 123558692.469 6  96279529.24444  23512431.864                    23512433.8264
        41.100          26.9004
 122819657.240 6  95703620.84144  23371810.216                    23371811.9424
        41.900          28.1004
 113545771.626 8  88477210.53146  21607042.472                    21607039.9004
        48.800          38.0004
 130095404.497 7 101373043.50143  24756331.562                    24756330.3124
        42.600          20.4004
 130043741.510 7 101332760.38944  24746513.575                    24746516.0614
        43.900          25.3004
 15  7  9  6 29 30.0000000  0  9G13G15G17G20G24G30G28G18G05
 106266200.331 8  82804815.63947  20221785.821                    20221782.3774
        50.200          42.4004
 110163926.812 8  85842017.53946  20963495.679                    20963492.9244
        49.600          41.7004
 119323505.780 7  92979372.11545  22706501.092                    22706500.4694
        46.500          32.5004
 121655589.187 7  94796547.40744  23150292.800                    23150291.1194
        43.300          27.0004
 123515496.029 6  96245869.75244  23504212.008                    23504214.0324
        41.500          27.2004
 122861546.807 6  95736262.01444  23379780.671                    23379783.3724
        41.100          27.8004
 113575955.772 8  88500730.62546  21612786.350                    21612783.1304
        48.600          37.8004
 130072609.499 6 101355281.16543  24751993.792                    24751991.9634
        41.500          21.3004
 130094332.230 7 101372181.66244  24756140.656                    24756142.7064
        44.300          25.4004
 15  7  9  6 29 45.0000000  0  9G13G15G17G20G24G30G28G18G05
 106278888.789 8  82814702.74147  20224200.707                    20224197.4924
        50.400          42.7004
 110146780.815 8  85828657.02146  20960233.076                    20960230.2254
        49.200          41.3004
 119287819.149 7  92951564.39045  22699710.157                    22699709.1994
        46.600          33.1004
 121686883.732 7  94820932.73244  23156247.700                    23156246.3894
        42.900          26.7004
 123472322.966 6  96212228.45344  23495996.650                    23495998.3454
        41.700          26.5004
 122903465.024 6  95768925.51644  23387756.967                    23387759.7984
        41.100          26.5004
 113606214.431 8  88524308.79446  21618544.151                    21618541.8084
        48.000          37.5004
 130049923.593 6 101337603.80343  24747676.582                    24747675.3694
        40.900          21.7004
 130144919.242 7 101411600.04744  24765767.245                    24765769.3124
        43.900          24.6004
 15  7  9  6 30  0.0000000  0  9G13G15G17G20G24G30G28G18G05
 106291714.491 8  82824696.78347  20226640.917                    20226637.4804
        49.300          42.5004
 110129760.098 8  85815394.12746  20956993.841                    20956991.0394
        49.200          40.8004
 119252223.716 7  92923827.71745  22692936.845                    22692935.6674
        46.800          33.1004
 121718272.412 7  94845391.40344  23162220.888                    23162219.4424
        42.600          26.0004
 123429173.109 7  96178605.25844  23487785.584                    23487787.1974
        42.400          26.4004
 122945411.607 6  95801611.09544  23395740.017                    23395741.6624
        41.900          26.7004
 113636547.046 7  88547944.58046  21624316.504                    21624314.6644
        47.900          37.7004
 130027346.631 6 101320011.40043  24743380.546                    24743379.5774
        39.500          20.6004
 130195501.830 7 101451014.99244  24775392.321                    24775395.5524
        43.400          24.5004
 15  7  9  6 30 15.0000000  0  9G13G15G17G20G24G30G28G18G05
 106304677.466 8  82834797.79947  20229108.009                    20229104.5384
        50.900          42.4004
 110112864.862 8  85802229.02446  20953779.308                    20953776.0574
        50.300          41.3004
 119216720.032 7  92896162.55545  22686181.032                    22686179.0674
        47.400          32.6004
 121749755.014 7  94869923.28044  23168211.910                    23168210.7884
        43.700          27.2004
 123386046.560 6  96145000.19344  23479579.415                    23479580.3884
        41.900          27.8004
 122987386.579 7  95834318.80544  23403727.987                    23403728.8774
        43.600          26.4004
 113666953.579 7  88571637.95346  21630102.962                    21630100.7264
        47.600          37.9004
 130004878.882 6 101302504.07043  24739105.014                    24739104.0664
        40.500          20.4004
 130246079.706 7 101490426.27144  24785017.401                    24785019.2644
        44.300          25.0004
 15  7  9  6 30 30.0000000  0  9G13G15G17G20G24G30G28G18G05
 106317777.900 8  82845005.92447  20231600.705                    20231597.5414
        49.900          42.3004
 110096095.432 8  85789161.94346  20950587.622                    20950585.1404
        49.600          41.0004
 119181308.273 7  92868569.00145  22679442.465                    22679440.1274
        47.900          33.1004
 121781331.372 7  94894528.20244  23174220.854                    23174220.6544
        43.000          28.1004
 123342943.494 7  96111413.43344  23471376.533                    23471378.1404
        42.500          27.9004
 123029389.817 7  95867048.57444  23411720.427                    23411721.8134
        43.700          28.3004
 113697433.801 8  88595388.77146  21635903.078                    21635900.7554
        48.200          38.3004
 129982520.433 7 101285081.92243  24734849.899                    24734849.3854
        42.000          20.1004
 130296652.750 7 101529833.73844  24794640.698                    24794643.1524
        43.200          26.1004
 15  7  9  6 30 45.0000000  0  9G13G15G17G20G24G30G28G18G05
 106331015.322 8  82855320.79547  20234120.123                    20234116.6954
        50.500          42.3004
 110079451.583 8  85776192.71946  20947420.367                    20947417.7364
        50.300          41.5004
 119145988.450 8  92841047.08845  22672720.821                    22672719.5984
        48.300          33.4004
 121813000.683 6  94919205.55144  23180247.969                    23180246.1774
        41.500          27.6004
 123299863.603 7  96077844.72844  23463178.218                    23463180.2534
        42.700          28.7004
 123071420.967 7  95899800.07744  23419719.061                    23419720.0304
        44.100          27.2004
 113727987.050 7  88619196.47646  21641717.277                    21641714.7254
        47.600          37.3004
 129960271.222 7 101267744.87743  24730616.349                    24730615.1534
        42.200          20.1004
 130347220.081 7 101569236.79443  24804263.929                    24804265.4684
        44.200          22.3004
 15  7  9  6 31  0.0000000  0  9G13G15G17G20G24G30G28G18G05
 106344390.272 8  82865742.82446  20236665.124                    20236661.3824
        50.300          41.7004
 110062934.068 8  85763321.93046  20944277.138                    20944275.0204
        49.400          41.8004
 119110761.370 7  92813597.45145  22666017.263                    22666016.1224
        47.800          34.1004
 121844763.053 7  94943955.42944  23186291.778                    23186290.5834
        43.300          27.0004
 123256807.565 7  96044294.60744  23454985.014                    23454986.5064
        42.300          27.0004
 123113480.525 7  95932573.69144  23427723.315                    23427723.8734
        43.500          27.2004
 113758613.686 8  88643061.37846  21647545.323                    21647542.7684
        48.900          37.6004
 129938131.874 6 101250493.45443  24726402.994                    24726402.0624
        41.800          21.1004
 130397781.949 7 101608635.57644  24813885.153                    24813887.6724
        44.300          24.9004
 15  7  9  6 31 15.0000000  0  9G13G15G17G20G24G30G28G18G05
 106357903.948 8  82876272.95546  20239236.373                    20239233.3784
        50.100          41.8004
 110046544.156 8  85750550.57846  20941158.478                    20941155.7084
        50.600          41.8004
 119075628.668 7  92786221.33745  22659332.120                    22659329.8714
        47.600          34.4004
 121876619.332 7  94968778.47144  23192353.417                    23192352.0444
        42.600          25.3004
 123213776.889 7  96010764.26744  23446796.901                    23446798.2284
        42.200          27.3004
 123155569.527 7  95965370.27444  23435732.432                    23435733.0434
        43.000          27.8004
 113789314.501 8  88666984.07646  21653387.566                    21653384.7174
        48.500          37.9004
 129916103.557 7 101233328.56743  24722211.224                    24722210.0004
        42.400          20.4004
 130448339.097 7 101648030.71644  24823505.525                    24823507.8354
        44.600          24.5004
 15  7  9  6 31 30.0000000  0  9G13G15G17G20G24G30G28G18G05
 106371553.889 8  82886909.25147  20241833.969                    20241830.6984
        50.500          42.1004
 110030279.584 8  85737876.89247  20938063.374                    20938060.8424
        50.000          42.0004
 119040588.123 7  92758917.04545  22652663.869                    22652662.6844
        47.300          34.6004
 121908566.755 7  94993672.53044  23198433.161                    23198431.3054
        42.200          26.2004
 123170768.681 7  95977251.42644  23438613.841                    23438614.0864
        42.200          26.4004
 123197685.455 7  95998187.83644  23443746.109                    23443747.4154
        43.700          26.3004
 113820086.824 8  88690962.50046  21659242.938                    21659240.6444
        48.600          37.8004
 129894184.130 7 101216248.52543  24718041.095                    24718038.1184
        42.400          20.4004
 130498888.836 7 101687420.03544  24833125.113                    24833127.3764
        43.600          24.4004
 15  7  9  6 31 45.0000000  0  9G13G15G17G20G24G30G28G18G05
 106385341.644 8  82897652.94846  20244457.850                    20244454.7144
        50.100          41.9004
 110014142.089 8  85725302.21946  20934992.322                    20934990.0974
        50.000          41.8004
 119005641.672 7  92731686.07545  22646013.776                    22646012.7364
        47.900          34.4004
 121940606.599 7  95018638.61544  23204529.532                    23204529.0224
        44.100          26.4004
 123127784.941 7  95943757.64444  23430433.034                    23430433.4824
        42.700          26.5004
 123239829.857 7  96031027.56744  23451767.238                    23451767.9074
        43.200          26.9004
 113850932.005 8  88714997.68346  21665112.932                    21665110.6754
        48.600          37.6004
 129872375.233 7 101199254.61743  24713890.296                    24713887.8954
        42.000          20.6004
 130549432.310 7 101726804.52743  24842743.431                    24842745.0874
        43.200          22.8004
 15  7  9  6 32  0.0000000  0  9G13G15G17G20G24G30G28G18G05
 106399266.682 8  82908503.62246  20247107.569                    20247104.4274
        50.300          41.8004
 109998131.438 8  85712826.38846  20931945.599                    20931943.3704
        49.800          41.7004
 118970789.181 8  92704528.31745  22639381.310                    22639379.9594
        48.000          33.8004
 121972738.022 7  95043676.03744  23210643.841                    23210643.3844
        43.700          27.0004
 123084825.272 7  95910282.60744  23422257.906                    23422258.8974
        42.000          27.2004
 123282002.102 7  96063888.98344  23459792.438                    23459793.5294
        43.400          27.2004
 113881849.413 8  88739089.14946  21670996.500                    21670994.3454
        48.700          37.4004
 129850676.532 7 101182346.55143  24709761.111                    24709758.6794
        42.800          20.4004
 130599968.736 7 101766183.44643  24852360.253                    24852361.8144
        43.500          22.3004
 15  7  9  6 32 15.0000000  0  9G13G15G17G20G24G30G28G18G05
 106413329.205 8  82919461.42647  20249783.409                    20249780.4724
        49.900          42.2004
 109982247.859 8  85700449.58546  20928923.382                    20928920.7334
        50.200          41.7004
 118936030.996 7  92677444.02545  22632767.400                    22632765.4724
        47.600          33.5004
 122004960.677 7  95068784.55344  23216776.277                    23216775.4474
        43.900          26.5004
 123041889.722 6  95876826.35944  23414087.993                    23414088.6414
        41.500          26.9004
 123324202.257 7  96096772.18244  23467821.953                    23467824.0444
        44.100          27.9004
 113912838.725 8  88763236.65046  21676893.952                    21676891.1814
        49.100          38.0004
 129829088.321 7 101165524.56843  24705653.561                    24705650.8814
        44.000          20.6004
 130650497.815 7 101805556.64843  24861975.981                    24861977.3224
        42.600          22.8004
 15  7  9  6 32 30.0000000  0  9G13G15G17G20G24G30G28G18G05
 106427529.137 8  82930526.29847  20252485.512                    20252482.4814
        49.800          42.5004
 109966491.536 8  85688171.93846  20925925.042                    20925921.8544
        49.800          41.4004
 118901367.464 7  92650433.49945  22626171.474                    22626169.3904
        47.600          33.6004
 122037274.255 7  95093963.91444  23222925.468                    23222924.6094
        44.000          26.4004
 122998978.526 6  95843389.10044  23405921.917                    23405923.0384
        40.900          27.2004
 123366430.336 7  96129677.13144  23475857.877                    23475860.0654
        43.700          28.6004
 113943899.898 8  88787440.15346  21682804.644                    21682801.7974
        49.300          38.8004
 129807610.838 7 101148788.87443  24701566.689                    24701564.0024
        44.500          20.6004
 130701019.478 7 101844924.12844  24871589.849                    24871591.2304
        43.000          25.4004
 15  7  9  6 32 45.0000000  0  9G13G15G17G20G24G30G28G18G05
 106441865.815 8  82941697.71847  20255213.830                    20255210.5384
        49.500          42.3004
 109950862.159 8  85675993.19746  20922950.652                    20922948.1494
        50.300          41.6004
 118866798.352 8  92623496.55445  22619593.040                    22619590.8494
        48.700          34.4004
 122069677.846 7  95119213.43844  23229091.384                    23229090.9604
        44.700          27.3004
 122956091.272 7  95809970.50844  23397760.821                    23397762.4884
        42.100          28.9004
 123408685.678 7  96162603.33344  23483898.994                    23483900.7564
        44.100          28.3004
 113975031.944 8  88811698.87746  21688728.688                    21688726.0974
        49.800          38.3004
 129786243.610 7 101132139.05843  24697499.996                    24697497.9124
        44.600          21.8004
 130751532.752 7 101884285.08343  24881201.868                    24881203.6174
        42.100          22.5004
 15  7  9  6 33  0.0000000  0  9G13G15G17G20G24G30G28G18G05
 106456340.160 8  82952976.42147  20257968.359                    20257964.9634
        50.700          42.2004
 109935360.573 8  85663914.03546  20920000.733                    20919998.3314
        50.300          41.9004
 118832324.714 8  92596633.99745  22613032.761                    22613030.8344
        48.400          34.0004
 122102172.111 7  95144533.59544  23235275.854                    23235274.0964
        42.300          27.7004
 122913228.684 6  95776571.12544  23389603.926                    23389605.7944
        41.700          27.8004
 123450969.038 7  96195551.33744  23491945.525                    23491947.0324
        45.100          28.9004
 114006235.530 8  88836013.35146  21694666.432                    21694664.1214
        48.400          38.6004
 129764987.634 7 101115575.97043  24693455.474                    24693453.6754
        44.300          21.3004
 130802037.988 6 101923639.78143  24890812.446                    24890814.5134
        41.800          22.3004
 15  7  9  6 33 15.0000000  0  9G13G15G17G20G24G30G28G18G05
 106470951.988 8  82964362.25947  20260748.937                    20260745.4624
        50.900          42.4004
 109919987.033 8  85651934.66746  20917075.324                    20917072.6254
        49.800          41.5004
 118797946.900 7  92569846.10645  22606490.215                    22606488.8434
        47.600          34.3004
 122134756.555 7  95169924.04444  23241476.451                    23241474.5374
        42.500          27.6004
 122870390.791 6  95743190.98544  23381452.663                    23381453.9244
        41.400          27.9004
 123493280.187 7  96228521.02244  23499996.811                    23499999.3044
        44.900          28.6004
 114037510.382 7  88860383.35546  21700617.822                    21700615.2454
        47.000          38.1004
 129743842.837 7 101099099.50443  24689431.941                    24689430.4254
        43.200          22.2004
 130852534.846 6 101962987.90843  24900422.078                    24900424.2274
        40.500          21.3004
 15  7  9  6 33 30.0000000  0  9G13G15G17G20G24G30G28G18G05
 106485701.543 8  82975855.40347  20263555.609                    20263552.5424
        50.200          42.4004
 109904741.888 8  85640055.33746  20914173.640                    20914171.2894
        50.600          41.6004
 118763665.573 7  92543133.40845  22599966.929                    22599965.3064
        47.900          34.0004
 122167431.046 7  95195384.65844  23247694.489                    23247692.9374
        45.000          28.5004
 122827578.171 6  95709830.54644  23373305.124                    23373306.7724
        41.100          27.8004
 123535619.405 7  96261512.56544  23508053.893                    23508055.7404
        44.100          28.2004
 114068856.569 8  88884808.94746  21706582.883                    21706580.2344
        49.000          38.1004
 129722809.668 7 101082710.03643  24685429.154                    24685427.8864
        42.400          22.2004
 130903023.105 6 102002329.37243  24910029.616                    24910031.3794
        40.200          20.6004
 15  7  9  6 33 45.0000000  0  9G13G15G17G20G24G30G28G18G05
 106500587.807 8  82987455.08247  20266388.557                    20266385.1364
        50.700          42.5004
 109889624.389 8  85628275.46746  20911297.679                    20911295.4594
        50.100          41.7004
 118729480.121 7  92516495.41745  22593461.341                    22593460.4594
        47.600          33.9004
 122200194.266 7  95220914.40644  23253928.619                    23253926.7464
        44.600          27.4004
 122784789.542 6  95676488.81944  23365162.696                    23365163.8194
        41.600          28.7004
 123577985.646 7  96294525.16344  23516115.581                    23516118.0544
        44.300          27.8004
 114100272.654 8  88909289.00146  21712561.441                    21712558.2254
        49.100          37.9004
 129701887.233 7 101066406.82743  24681447.586                    24681445.9704
        43.400          20.4004
 130953501.532 6 102041663.13743  24919635.368                    24919637.3334
        40.100          22.0004
 15  7  9  6 34  0.0000000  0  9G13G15G17G20G24G30G28G18G05
 106515611.519 8  82999161.88047  20269247.148                    20269244.0854
        50.200          42.6004
 109874635.296 8  85616595.67046  20908445.327                    20908442.7074
        49.800          41.5004
 118695391.492 7  92489932.87745  22586975.108                    22586973.5444
        47.800          34.0004
 122233046.704 7  95246513.66344  23260180.493                    23260178.5634
        43.500          26.9004
 122742026.018 6  95643166.64144  23357024.820                    23357026.6434
        41.300          29.1004
 123620379.530 7  96327559.29444  23524183.141                    23524184.4524
        45.200          28.3004
 114131759.257 8  88933824.00546  21718552.805                    21718549.7814
        49.000          38.5004
 129681076.578 7 101050190.71743  24677487.658                    24677485.9974
        43.200          20.6004
 131003970.450 7 102080989.50643  24929239.676                    24929241.8704
        42.400          22.9004
 15  7  9  6 34 15.0000000  0  9G13G15G17G20G24G30G28G18G05
 106530772.094 8  83010975.30447  20272132.768                    20272129.2484
        51.500          42.1004
 109859774.328 8  85605015.68946  20905617.043                    20905614.5684
        49.600          41.5004
 118661399.272 7  92463445.45945  22580506.467                    22580504.8594
        47.800          34.1004
 122265987.352 7  95272181.67844  23266449.273                    23266446.8474
        42.100          27.7004
 122699286.861 7  95609863.46644  23348892.538                    23348893.1844
        42.200          29.3004
 123662800.399 7  96360614.46844  23532255.591                    23532257.5814
        44.700          28.8004
 114163315.383 8  88958413.18146  21724557.757                    21724554.5964
        48.900          38.2004
 129660377.189 7 101034061.31843  24673548.973                    24673546.7704
        44.800          21.8004
 131054429.044 6 102120307.81243  24938841.194                    24938843.6644
        41.400          22.3004
 15  7  9  6 34 30.0000000  0  9G13G15G17G20G24G30G28G18G05
 106546070.044 8  83022895.76847  20275043.387                    20275040.2654
        50.700          42.2004
 109845042.202 8  85593536.11646  20902813.776                    20902810.7934
        50.300          41.3004
 118627504.365 8  92437033.84745  22574056.198                    22574054.7224
        48.800          33.9004
 122299016.351 7  95297918.53044  23272734.108                    23272732.1484
        44.000          27.6004
 122656572.922 6  95576579.91944  23340763.943                    23340764.6094
        41.600          29.0004
 123705248.720 7  96393691.02644  23540334.285                    23540335.0894
        44.900          28.5004
 114194941.450 8  88983056.86246  21730576.308                    21730572.8974
        48.000          37.3004
 129639789.650 7 101018019.08843  24669631.930                    24669629.0464
        45.800          20.6004
 131104877.461 6 102159618.18343  24948441.870                    24948443.3214
        41.000          21.7004
 15  7  9  6 34 45.0000000  0  9G13G15G17G20G24G30G28G18G05
 106561504.751 8  83034922.81447  20277980.357                    20277977.4254
        50.600          42.4004
 109830438.292 8  85582156.44546  20900034.786                    20900031.8224
        49.300          41.5004
 118593706.368 8  92410697.76245  22567624.778                    22567623.1974
        48.000          33.9004
 122332132.410 7  95323723.19944  23279035.828                    23279033.9814
        45.400          26.5004
 122613883.885 6  95543315.76244  23332640.711                    23332640.9404
        41.800          29.7004
 123747723.948 7  96426788.59344  23548415.945                    23548417.8524
        45.600          28.9004
 114226636.466 8  89007754.26746  21736607.455                    21736604.2074
        49.400          37.5004
 129619313.611 7 101002063.71843  24665735.724                    24665732.6144
        45.400          22.2004
 131155314.820 7 102198919.98443  24958040.207                    24958041.4744
        42.400          22.2004
 15  7  9  6 35  0.0000000  0  9G13G15G17G20G24G30G28G18G05
 106577076.797 8  83047056.86746  20280943.326                    20280940.1624
        49.900          41.9004
 109815963.575 8  85570877.45046  20897280.333                    20897278.5334
        48.200          41.3004
 118560006.291 8  92384437.98145  22561212.156                    22561210.0604
        48.000          33.7004
 122365336.298 7  95349596.34044  23285354.253                    23285352.7524
        43.000          27.3004
 122571220.117 7  95510071.29244  23324521.851                    23324522.1484
        42.100          29.1004
 123790226.506 7  96459907.44444  23556504.473                    23556505.8774
        45.400          28.7004
 114258400.993 8  89032505.83946  21742652.034                    21742648.6034
        48.000          38.1004
 129598949.836 7 100986195.83143  24661859.969                    24661857.5534
        45.500          22.2004
 131205741.443 7 102238213.42843  24967635.537                    24967636.6804
        42.000          22.9004
 15  7  9  6 35 15.0000000  0  9G13G15G17G20G24G30G28G18G05
 106592785.822 8  83059297.65847  20283932.841                    20283930.3534
        49.800          42.5004
 109801618.034 8  85559699.10647  20894550.246                    20894547.9194
        49.500          42.1004
 118526404.424 8  92358254.72345  22554817.744                    22554815.7094
        48.000          33.3004
 122398627.519 7  95375537.53544  23291689.189                    23291688.5014
        44.600          27.4004
 122528581.560 6  95476846.48544  23316407.724                    23316408.1934
        41.700          29.2004
 123832756.182 7  96493047.41244  23564597.136                    23564598.5944
        44.600          26.9004
 114290234.672 7  89057311.28946  21748709.454                    21748706.5224
        47.600          37.6004
 129578698.233 7 100970415.35443  24658006.521                    24658004.6044
        44.300          22.3004
 131256156.688 6 102277497.95143  24977229.189                    24977231.5714
        41.900          21.7004
 15  7  9  6 35 30.0000000  0  9G13G15G17G20G24G30G28G18G05
 106608632.067 8  83071645.36447  20286948.391                    20286945.6184
        50.700          42.2004
 109787402.043 8  85548621.71746  20891845.075                    20891843.1894
        49.100          41.8004
 118492901.238 8  92332148.36945  22548441.960                    22548439.7454
        48.500          33.8004
 122432005.790 7  95401546.54844  23298040.907                    23298039.9864
        44.100          28.2004
 122485968.468 6  95443641.50544  23308298.826                    23308299.5974
        41.700          28.4004
 123875312.990 7  96526208.50744  23572695.820                    23572697.3144
        43.900          26.9004
 114322137.359 7  89082170.49846  21754780.427                    21754777.2384
        46.700          37.3004
 129558559.103 7 100954722.54343  24654173.444                    24654172.4904
        43.800          22.3004
 131306560.487 6 102316773.60843  24986820.325                    24986823.1504
        41.600          21.8004
 15  7  9  6 35 45.0000000  0  9G13G15G17G20G24G30G28G18G05
 106624615.411 8  83084099.91146  20289990.115                    20289987.0934
        49.900          41.9004
 109773315.664 8  85537645.31746  20889164.560                    20889162.6884
        49.800          41.8004
 118459496.929 8  92306119.06345  22542085.663                    22542083.9464
        48.300          34.4004
 122465470.598 6  95427623.01244  23304409.080                    23304408.7504
        41.700          26.8004
 122443380.838 7  95410456.36144  23300194.761                    23300195.0634
        42.200          29.3004
 123917896.929 7  96559390.75544  23580798.773                    23580800.1284
        43.800          27.2004
 114354108.731 7  89107083.24446  21760864.664                    21760861.5064
        46.600          37.0004
 129538532.459 7 100939117.35443  24650362.037                    24650361.0624
        43.200          22.3004
 131356952.472 6 102356040.04343  24996410.409                    24996412.2324
        41.700          22.5004
 15  7  9  6 36  0.0000000  0  9G13G15G17G20G24G30G28G18G05
 106640736.086 8  83096661.46846  20293057.594                    20293054.0964
        49.800          41.6004
 109759359.096 8  85526770.06747  20886508.868                    20886506.6644
        49.300          42.1004
 118426191.899 7  92280167.10645  22535748.192                    22535745.6624
        47.800          34.0004
 122499021.784 7  95453766.76644  23310793.050                    23310792.5544
        43.400          26.9004
 122400819.129 6  95377291.42344  23292095.697                    23292096.3364
        41.100          27.5004
 123960508.106 7  96592594.23144  23588906.810                    23588908.8164
        42.800          26.5004
 114386148.641 8  89132049.39846  21766961.403                    21766958.0144
        48.100          36.7004
 129518618.650 7 100923600.10443  24646572.759                    24646571.8044
        42.600          22.6004
 131407332.416 6 102395297.08643  25005997.357                    25006000.1694
        41.700          22.0004
 15  7  9  6 36 15.0000000  0  9G13G15G17G20G24G30G28G18G05
 106656993.715 8  83109329.73546  20296151.130                    20296148.1754
        50.200          41.7004
 109745532.267 8  85515995.92247  20883877.489                    20883875.1594
        48.900          42.1004
 118392986.246 7  92254292.58645  22529428.988                    22529426.8864
        47.600          34.1004
 122532658.523 6  95479977.17644  23317193.710                    23317193.8574
        41.300          26.7004
 122358282.664 6  95344146.17544  23284000.506                    23284002.1454
        41.500          29.0004
 124003146.104 7  96625818.56244  23597021.433                    23597022.4114
        43.400          26.8004
 114418256.529 7  89157068.52846  21773071.631                    21773068.0974
        47.300          36.5004
 129498817.647 7 100908170.75643  24642804.881                    24642802.6674
        42.400          21.8004
 131457699.781 6 102434544.37043  25015581.454                    25015584.7324
        41.900          22.8004
 15  7  9  6 36 30.0000000  0  9G13G15G17G20G24G30G28G18G05
 106673388.021 8  83122104.50546  20299270.996                    20299267.9664
        49.100          41.5004
 109731835.061 8  85505322.77647  20881270.920                    20881268.2934
        49.000          42.8004
 118359879.984 8  92228495.51845  22523129.015                    22523127.3804
        48.200          34.2004
 122566380.332 6  95506253.87044  23323611.431                    23323610.8744
        41.700          25.8004
 122315771.872 6  95311020.90744  23275911.268                    23275912.1044
        41.300          29.4004
 124045810.541 7  96659063.53744  23605140.697                    23605142.1334
        43.900          27.3004
 114450431.903 7  89182140.24746  21779194.057                    21779190.9784
        47.900          36.5004
 129479129.195 7 100892829.09843  24639058.737                    24639056.1194
        43.900          20.1004
 131508053.775 7 102473781.17743  25025164.337                    25025166.6064
        42.500          22.9004
 15  7  9  6 36 45.0000000  0  9G13G15G17G20G24G30G28G18G05
 106689919.419 8  83134986.10247  20302417.044                    20302413.8284
        49.200          42.4004
 109718268.181 8  85494751.18547  20878689.192                    20878686.6844
        49.000          42.2004
 118326873.936 7  92202776.53345  22516848.110                    22516846.8234
        46.500          35.1004
 122600187.374 7  95532596.97144  23330044.824                    23330044.2034
        42.100          26.0004
 122273287.207 6  95277916.01744  23267826.143                    23267827.8534
        40.800          28.6004
 124088501.910 7  96692329.50044  23613264.483                    23613266.5664
        43.400          28.1004
 114482675.040 7  89207264.76646  21785329.969                    21785326.7594
        47.300          36.0004
 129459553.980 7 100877575.69843  24635333.431                    24635331.3864
        43.900          21.1004
 131558394.635 7 102513007.79744  25034743.774                    25034745.5544
        43.400          25.8004
 15  7  9  6 37  0.0000000  0  9G13G15G17G20G24G30G28G18G05
 106706587.339 7  83147974.08047  20305588.848                    20305585.9064
        47.900          42.4004
 109704831.264 8  85484280.85547  20876132.728                    20876130.0044
        48.800          42.5004
 118293967.773 7  92177135.39945  22510586.565                    22510584.3724
        47.800          35.2004
 122634078.884 6  95559005.92744  23336493.608                    23336493.1314
        40.800          25.5004
 122230828.116 6  95244831.04344  23259746.579                    23259747.5974
        40.900          29.9004
 124131219.664 7  96725616.02344  23621393.388                    23621396.0994
        44.100          28.4004
 114514985.267 7  89232441.55546  21791478.022                    21791475.2394
        46.800          36.0004
 129440091.627 7 100862410.19343  24631630.041                    24631627.4354
        44.000          21.1004
 131608721.647 7 102552223.58843  25044320.526                    25044322.2964
        42.700          23.6004
 15  7  9  6 37 15.0000000  0  9G13G15G17G20G24G30G28G18G05
 106723392.010 8  83161068.62447  20308786.436                    20308783.2994
        50.400          42.3004
 109691524.673 8  85473912.08947  20873600.483                    20873597.8254
        48.900          42.8004
 118261162.033 8  92151572.51545  22504343.665                    22504341.5934
        48.200          35.3004
 122668054.848 7  95585480.66544  23342959.400                    23342958.5714
        42.300          25.3004
 122188394.971 6  95211766.28744  23251672.497                    23251673.2784
        41.100          28.6004
 124173963.928 7  96758923.19844  23629527.502                    23629529.6514
        45.600          29.9004
 114547362.498 7  89257670.56446  21797639.390                    21797636.2724
        47.300          36.0004
 129420742.404 7 100847332.87543  24627948.347                    24627946.2984
        43.500          20.6004
 131659034.581 7 102591428.45143  25053895.267                    25053896.6374
        42.600          22.2004
 15  7  9  6 37 30.0000000  0  9G13G15G17G20G24G30G28G18G05
 106740333.530 8  83174269.79946  20312010.418                    20312007.1704
        49.000          41.0004
 109678348.864 8  85463645.22847  20871093.064                    20871090.3414
        49.000          42.7004
 118228457.447 7  92126088.45545  22498119.958                    22498118.0954
        47.800          35.1004
 122702114.853 6  95612020.89844  23349441.040                    23349439.5324
        41.500          25.0004
 122145987.897 6  95178721.83244  23243602.454                    23243604.1744
        40.100          28.8004
 124216734.849 7  96792251.12644  23637666.918                    23637669.3984
        45.000          29.3004
 114579806.637 7  89282951.70145  21803813.329                    21803810.4324
        47.200          35.9004
 129401506.655 7 100832343.96743  24624287.326                    24624286.2464
        42.800          21.3004
 131709333.247 7 102630622.17344  25063466.923                    25063468.5914
        43.400          24.2004
 15  7  9  6 37 45.0000000  0  9G13G15G17G20G24G30G28G18G05
 106757411.665 8  83187577.43047  20315260.477                    20315257.7954
        48.900          42.0004
 109665303.538 8  85453480.04747  20868610.754                    20868608.0744
        49.100          42.7004
 118195853.917 7  92100683.14245  22491915.912                    22491914.4124
        47.300          35.5004
 122736258.387 6  95638626.23444  23355937.902                    23355936.7434
        41.600          25.3004
 122103606.943 6  95145697.74144  23235537.564                    23235539.0614
        40.300          29.1004
 124259532.084 7  96825599.56744  23645811.120                    23645813.3364
        45.700          28.7004
 114612317.262 7  89308284.64445  21809999.981                    21809996.4324
        47.100          35.8004
 129382384.275 7 100817443.43943  24620647.973                    24620647.5654
        42.400          21.5004
 131759617.037 7 102669804.33343  25073035.813                    25073037.3044
        42.600          22.9004
 15  7  9  6 38  0.0000000  0  9G13G15G17G20G24G30G28G18G05
 106774626.317 8  83200991.44147  20318536.142                    20318533.5364
        49.500          42.1004
 109652388.857 8  85443416.65947  20866153.123                    20866150.4874
        48.300          42.1004
 118163351.646 8  92075356.73145  22485731.177                    22485729.2684
        48.100          35.3004
 122770485.058 7  95665296.32344  23362450.878                    23362450.2344
        42.700          25.2004
 122061252.021 6  95112693.93544  23227477.595                    23227479.5224
        39.200          29.2004
 124302355.489 7  96858968.40244  23653959.331                    23653962.0174
        45.200          28.5004
 114644893.978 7  89333669.07846  21816199.561                    21816196.0744
        47.700          36.5004
 129363375.380 7 100802631.28543  24617030.884                    24617030.6574
        42.000          21.8004
 131809885.784 7 102708974.76243  25082600.867                    25082603.6494
        42.300          22.5004
 15  7  9  6 38 15.0000000  0  9G13G15G17G20G24G30G28G18G05
 106791977.859 8  83214512.11447  20321838.420                    20321835.2514
        50.000          42.3004
 109639605.535 8  85433455.63047  20863720.544                    20863718.3574
        48.400          42.3004
 118130951.574 7  92050109.94545  22479565.278                    22479563.2064
        47.900          35.0004
 122804794.991 7  95692031.30644  23368979.690                    23368979.0814
        42.200          24.9004
 122018923.759 6  95079710.90644  23219423.318                    23219424.4784
        39.400          29.4004
 124345205.503 7  96892357.98844  23662113.582                    23662115.4574
        45.400          28.5004
 114677537.003 8  89359105.19146  21822411.102                    21822407.6374
        48.100          36.6004
 129344480.473 7 100787907.97943  24613435.160                    24613435.0184
        42.400          21.3004
 131860139.458 7 102748133.44543  25092163.754                    25092166.4514
        42.600          22.6004
 15  7  9  6 38 30.0000000  0  9G13G15G17G20G24G30G28G18G05
 106809465.886 8  83228139.13047  20325166.077                    20325163.2604
        49.100          42.2004
 109626953.339 8  85423596.78647  20861312.857                    20861310.9354
        48.200          42.7004
 118098653.776 8  92024942.85945  22473419.241                    22473416.7014
        48.500          35.1004
 122839187.386 6  95718830.54544  23375524.011                    23375524.1694
        41.600          25.2004
 121976621.924 6  95046748.47644  23211373.100                    23211375.3244
        39.200          28.5004
 124388081.701 7  96925767.96844  23670273.147                    23670275.0094
        45.800          27.7004
 114710245.794 8  89384592.54846  21828634.572                    21828632.1194
        48.400          36.7004
 129325699.208 7 100773273.20143  24609861.710                    24609860.5574
        42.100          21.1004
 131910377.418 7 102787279.90743  25101724.103                    25101726.7314
        42.600          23.9004
 15  7  9  6 38 45.0000000  0  9G13G15G17G20G24G30G28G18G05
 106827090.315 8  83241872.43947  20328520.055                    20328517.0434
        50.200          42.1004
 109614432.380 8  85413840.19847  20858929.983                    20858927.9914
        49.800          42.5004
 118066458.161 8  91999855.38945  22467292.622                    22467290.2264
        48.400          35.0004
 122873661.824 6  95745693.73144  23382084.795                    23382084.8294
        39.700          25.4004
 121934346.369 6  95013806.53344  23203328.060                    23203329.8714
        39.700          28.2004
 124430984.028 7  96959198.31944  23678436.489                    23678439.3514
        45.800          26.1004
 114743020.021 8  89410130.90046  21834872.133                    21834868.9694
        48.700          36.7004
 129307031.895 7 100758727.25843  24606309.619                    24606307.3734
        42.800          20.1004
 131960599.447 7 102826413.92344  25111280.675                    25111283.2584
        42.900          25.5004
 15  7  9  6 39  0.0000000  0  9G13G15G17G20G24G30G28G18G05
 106844851.438 8  83255712.26746  20331899.531                    20331896.6944
        50.000          41.9004
 109602043.096 8  85404186.22047  20856572.564                    20856570.0644
        49.200          42.7004
 118034365.315 8  91974847.99345  22461185.169                    22461182.5374
        48.300          34.4004
 122908218.318 6  95772620.80544  23388661.312                    23388660.7584
        40.000          26.4004
 121892097.600 6  94980885.45744  23195287.884                    23195290.2754
        40.000          29.3004
 124473912.702 7  96992649.17044  23686605.671                    23686608.0154
        44.200          25.3004
 114775859.772 8  89435720.30346  21841121.370                    21841117.9834
        48.000          37.0004
 129288478.824 7 100744270.31543  24602778.684                    24602776.2994
        42.600          20.1004
 132010805.597 7 102865535.59444  25120835.223                    25120836.7894
        42.000          24.2004
 15  7  9  6 39 15.0000000  0  9G13G15G17G20G24G30G28G18G05
 106862749.146 8  83269658.51447  20335305.655                    20335302.4144
        49.900          42.3004
 109589785.585 8  85394634.91547  20854240.055                    20854237.7934
        49.000          42.2004
 118002375.619 8  91949920.98145  22455097.818                    22455095.8904
        48.200          34.8004
 122942856.502 7  95799611.56344  23395252.918                    23395252.4504
        42.700          26.7004
 121849875.715 6  94947985.33944  23187253.924                    23187255.7124
        40.100          28.5004
 124516867.538 7  97026120.41344  23694779.711                    23694781.2914
        43.200          24.8004
 114808764.896 8  89461360.64946  21847383.093                    21847379.9074
        49.500          36.8004
 129270040.164 7 100729902.55343  24599269.183                    24599268.4484
        42.200          20.4004
 132060995.191 6 102904644.40443  25130385.836                    25130387.8844
        41.900          22.5004
 15  7  9  6 39 30.0000000  0  9G13G15G17G20G24G30G28G18G05
 106880783.120 8  83283710.95646  20338737.095                    20338734.5314
        49.300          41.8004
 109577659.769 8  85385186.23447  20851932.934                    20851929.9784
        49.100          42.6004
 117970489.019 8  91925074.30845  22449030.427                    22449028.5144
        48.400          35.3004
 122977575.755 7  95826665.47744  23401859.734                    23401859.1904
        43.100          26.4004
 121807680.593 6  94915106.07744  23179224.161                    23179226.3514
        40.200          29.8004
 124559848.278 7  97059611.83144  23702958.713                    23702959.8524
        43.800          26.0004
 114841734.787 8  89487051.45146  21853657.059                    21853653.7464
        48.600          36.2004
 129251715.737 6 100715623.78643  24595782.950                    24595782.0344
        41.700          19.6004
 132111167.766 6 102943739.92443  25139933.393                    25139936.2034
        41.800          23.3004
 15  7  9  6 39 45.0000000  0  9G13G15G17G20G24G30G28G18G05
 106898953.379 8  83297869.58646  20342194.646                    20342191.6954
        48.100          41.7004
 109565665.738 8  85375840.24447  20849650.325                    20849647.5984
        50.000          42.3004
 117938705.894 8  91900308.27346  22442982.444                    22442980.2494
        48.300          36.0004
 123012375.635 7  95853782.23844  23408481.794                    23408481.5224
        44.500          27.1004
 121765512.459 6  94882247.82644  23171200.322                    23171202.1964
        40.300          29.3004
 124602854.783 7  97093123.35144  23711143.532                    23711144.6014
        44.800          26.5004
 114874769.064 7  89512792.43646  21859943.096                    21859940.5994
        47.000          37.2004
 129233505.578 6 100701434.05943  24592317.373                    24592317.3384
        41.400          21.3004
 132161322.783 7 102982821.72244  25149477.917                    25149480.3964
        42.200          24.7004
 15  7  9  6 40  0.0000000  0  9G13G15G17G20G24G30G28G18G05
 106917260.221 8  83312134.64146  20345678.365                    20345675.9604
        49.000          41.5004
 109553804.041 8  85366597.36847  20847392.899                    20847389.9104
        50.200          42.5004
 117907027.069 7  91875623.51446  22436953.843                    22436952.2174
        47.700          36.3004
 123047256.128 7  95880961.81744  23415119.171                    23415119.3064
        43.800          27.7004
 121723371.491 6  94849410.73644  23163180.803                    23163183.0624
        39.500          28.2004
 124645887.497 7  97126655.28944  23719332.449                    23719332.9484
        44.000          26.4004
 114907867.925 8  89538583.74346  21866241.550                    21866239.1924
        48.400          37.2004
 129215410.359 6 100687333.90243  24588873.827                    24588874.4414
        41.300          21.3004
 132211460.563 7 103021890.12643  25159018.463                    25159021.4154
        42.400          22.5004
 15  7  9  6 40 15.0000000  0  9G13G15G17G20G24G30G28G18G05
 106935703.004 8  83326505.62946  20349188.069                    20349185.2094
        48.600          41.3004
 109542074.221 8  85357457.25347  20845160.696                    20845157.8804
        49.100          42.2004
 117875452.187 7  91851019.74745  22430945.323                    22430943.9054
        47.800          35.9004
 123082216.540 7  95908203.65244  23421771.843                    23421772.1724
        42.600          26.5004
 121681257.440 6  94816594.62544  23155166.682                    23155168.6094
        39.200          27.8004
 124688945.776 7  97160207.16044  23727525.971                    23727526.8014
        45.800          27.2004
 114941030.515 8  89564424.70846  21872552.181                    21872549.3924
        48.300          37.3004
 129197429.740 7 100673323.01343  24585452.523                    24585452.5494
        42.100          21.5004
 132261580.288 6 103060944.44743  25168555.674                    25168558.5844
        41.000          23.3004
 15  7  9  6 40 30.0000000  0  9G13G15G17G20G24G30G28G18G05
 106954281.676 8  83340982.50746  20352723.349                    20352720.7154
        48.800          41.6004
 109530476.584 8  85348420.13747  20842953.747                    20842951.0234
        48.200          42.3004
 117843981.518 8  91826497.19446  22424956.685                    22424955.4504
        48.300          36.2004
 123117256.440 7  95935507.43944  23428439.622                    23428439.8934
        43.000          26.6004
 121639170.454 6  94783799.61244  23147157.314                    23147159.5534
        39.200          27.9004
 124732029.492 7  97193778.84244  23735724.779                    23735726.1984
        45.400          27.8004
 114974256.753 8  89590315.26246  21878875.501                    21878872.2294
        48.800          37.2004
 129179563.671 6 100659401.40543  24582052.262                    24582052.1654
        41.300          19.9004
 132311681.453 6 103099984.36043  25178088.986                    25178092.3894
        40.200          22.0004
 15  7  9  6 40 45.0000000  0  9G13G15G17G20G24G30G28G18G05
 106972996.385 8  83355565.38447  20356284.842                    20356281.8014
        48.400          42.5004
 109519011.531 8  85339486.32446  20840771.947                    20840769.7244
        49.500          41.8004
 117812615.637 7  91802056.27746  22418987.938                    22418986.1934
        47.600          36.0004
 123152375.720 7  95962873.05844  23435123.206                    23435122.8224
        43.900          26.8004
 121597110.681 6  94751025.77344  23139154.147                    23139155.8694
        39.400          26.7004
 124775138.788 7  97227370.44644  23743927.752                    23743929.5954
        44.900          28.4004
 115007546.766 7  89616255.51946  21885209.926                    21885207.5814
        47.600          37.8004
 129161812.310 6 100645569.17143  24578674.975                    24578674.0884
        41.400          20.4004
 132361763.909 6 103139009.61843  25187619.601                    25187622.8534
        39.900          22.6004
 15  7  9  6 41  0.0000000  0  9G13G15G17G20G24G30G28G18G05
 106991847.770 8  83370254.75747  20359872.423                    20359869.6424
        48.700          42.2004
 109507679.711 8  85330656.33946  20838616.011                    20838613.3424
        48.400          41.9004
 117781355.520 8  91777697.77146  22413039.367                    22413037.5034
        48.500          36.8004
 123187574.651 7  95990300.77144  23441820.932                    23441820.6114
        43.600          25.6004
 121555078.818 6  94718273.69144  23131155.302                    23131157.4044
        38.800          27.0004
 124818274.285 7  97260982.45744  23752136.463                    23752138.0984
        44.000          27.2004
 115040900.731 8  89642245.61446  21891557.225                    21891554.3334
        48.200          38.3004
 129144176.591 6 100631827.07643  24575319.488                    24575317.9494
        41.600          19.9004
 132411828.074 6 103178020.65243  25197146.845                    25197149.5754
        39.700          22.6004
 15  7  9  6 41 15.0000000  0  9G13G15G17G20G24G30G28G18G05
 107010835.372 8  83385050.28747  20363485.545                    20363482.8214
        50.800          42.5004
 109496481.036 8  85321930.10946  20836484.958                    20836482.4434
        48.400          41.9004
 117750201.112 8  91753421.63146  22407110.830                    22407108.6704
        48.200          36.5004
 123222852.392 7  96017789.86844  23448533.947                    23448533.4654
        44.100          26.0004
 121513074.729 6  94685543.27344  23123161.835                    23123164.1084
        39.600          27.7004
 124861435.663 7  97294614.65344  23760349.607                    23760351.3674
        43.100          26.4004
 115074318.063 8  89668285.07146  21897916.621                    21897913.9394
        48.600          38.0004
 129126656.373 6 100618174.98643  24571984.635                    24571983.6584
        40.900          20.1004
 132461873.375 6 103217017.00843  25206670.644                    25206672.4524
        38.600          22.2004
 15  7  9  6 41 30.0000000  0  9G13G15G17G20G24G30G28G18G05
 107029958.125 8  83399951.11947  20367124.464                    20367121.8074
        50.200          42.5004
 109485414.581 8  85313306.90747  20834378.867                    20834376.5024
        49.300          42.1004
 117719151.730 8  91729227.31945  22401202.483                    22401200.4084
        48.300          35.6004
 123258207.760 7  96045339.46244  23455262.549                    23455261.6504
        44.500          27.6004
 121471097.595 6  94652833.85744  23115174.442                    23115176.0044
        39.400          27.3004
 124904621.820 7  97328266.11744  23768567.599                    23768570.1144
        43.400          28.1004
 115107797.572 8  89694372.98346  21904287.056                    21904284.2674
        48.200          38.0004
 129109250.852 6 100604612.26943  24568671.721                    24568671.1494
        39.100          20.4004
 132511898.439 6 103255997.56843  25216189.723                    25216192.2334
        37.800          21.3004
 15  7  9  6 41 45.0000000  0  9G13G15G17G20G24G30G28G18G05
 107049216.732 8  83414957.80947  20370789.276                    20370786.7644
        48.800          42.2004
 109474481.155 8  85304787.35447  20832298.264                    20832295.8034
        49.000          42.7004
 117688208.455 8  91705115.71945  22395313.756                    22395311.8984
        48.100          35.9004
 123293641.071 7  96072949.79844  23462005.382                    23462003.8424
        44.200          27.3004
 121429148.123 6  94620145.98844  23107192.031                    23107192.9804
        40.900          27.1004
 124947833.413 7  97361937.42044  23776790.128                    23776792.9104
        43.900          27.5004
 115141339.818 7  89720509.78046  21910669.891                    21910667.4224
        47.600          37.7004
 129091960.751 6 100591139.46543  24565382.258                    24565381.8204
        38.600          19.6004
 132561903.732 6 103294962.74043  25225704.874                    25225708.1554
        37.500          22.2004
 15  7  9  6 42  0.0000000  0  9G13G15G17G20G24G30G28G18G05
 107068611.136 8  83430070.32046  20374479.707                    20374476.9614
        50.200          41.8004
 109463680.872 8  85296371.54347  20830243.006                    20830240.1324
        48.200          42.2004
 117657371.202 7  91681086.71545  22389445.096                    22389444.0834
        47.400          35.6004
 123329151.896 7  96100620.54844  23468763.197                    23468762.2684
        44.700          27.0004
 121387226.457 6  94587479.79844  23099213.972                    23099214.9804
        40.500          28.1004
 124991070.289 7  97395628.43444  23785018.293                    23785021.5764
        43.400          29.0004
 115174944.343 8  89746695.10946  21917064.951                    21917061.8094
        48.000          38.0004
 129074786.053 6 100577756.61043  24562113.110                    24562113.2704
        38.400          19.9004
 132611888.649 6 103333912.04344  25235216.351                    25235220.3834
        37.700          24.8004
 15  7  9  6 42 15.0000000  0  9G13G15G17G20G24G30G28G18G05
 107088141.666 8  83445288.89546  20378196.384                    20378193.5694
        49.700          41.8004
 109453014.361 8  85288059.97947  20828213.194                    20828210.8004
        48.400          42.6004
 117626640.811 7  91657140.99945  22383597.562                    22383595.9894
        47.200          35.6004
 123364740.204 7  96128351.65944  23475534.918                    23475533.6334
        43.700          26.9004
 121345332.951 6  94554835.54344  23091242.421                    23091242.9344
        41.000          29.4004
 125034332.847 7  97429339.42944  23793251.191                    23793253.6754
        43.900          27.3004
 115208611.519 8  89772929.26446  21923471.991                    21923469.0904
        48.400          38.0004
 129057727.289 6 100564464.07343  24558867.725                    24558866.8464
        39.700          19.6004
 132661853.267 6 103372845.55743  25244725.115                    25244728.7204
        37.500          22.2004
 15  7  9  6 42 30.0000000  0  9G13G15G17G20G24G30G28G18G05
 107107807.626 8  83460613.01646  20381938.500                    20381935.5704
        48.600          41.7004
 109442481.067 8  85279852.22346  20826208.331                    20826206.4864
        48.200          41.9004
 117596017.047 7  91633278.36745  22377770.118                    22377768.7594
        47.500          35.9004
 123400405.198 7  96156142.51544  23482322.214                    23482321.1824
        43.700          27.4004
 121303467.119 6  94522212.85044  23083275.494                    23083275.8474
        40.900          29.2004
 125077620.369 7  97463069.88544  23801488.606                    23801491.7144
        44.700          27.2004
 115242340.217 8  89799211.35246  21929890.110                    21929886.7814
        48.400          37.6004
 129040783.945 6 100551261.48843  24555643.888                    24555641.9784
        40.200          19.9004
 132711796.900 6 103411762.64843  25254229.013                    25254232.7194
        37.800          22.3004
 15  7  9  6 42 45.0000000  0  9G13G15G17G20G24G30G28G18G05
 107127608.748 8  83476042.44546  20385706.524                    20385704.0084
        50.300          41.6004
 109432080.969 8  85271748.24846  20824229.753                    20824226.8004
        49.100          41.9004
 117565499.819 7  91609498.75446  22371963.158                    22371961.3584
        47.800          36.7004
 123436146.259 7  96183992.64444  23489123.524                    23489122.2024
        42.700          25.6004
 121261629.073 6  94489611.81244  23075314.287                    23075313.8264
        41.100          28.1004
 125120932.572 7  97496819.58744  23809729.848                    23809732.6824
        44.300          25.6004
 115276130.147 8  89825541.15746  21936320.260                    21936316.7624
        48.600          38.2004
 129023955.894 6 100538148.73143  24552441.511                    24552440.1164
        41.700          21.3004
 132761719.022 6 103450663.04843  25263729.325                    25263731.6204
        37.600          21.7004
 15  7  9  6 43  0.0000000  0  9G13G15G17G20G24G30G28G18G05
 107147545.479 8  83491577.55346  20389500.208                    20389497.6814
        48.600          41.4004
 109421814.704 8  85263748.55347  20822276.160                    20822273.8454
        48.000          42.0004
 117535090.201 8  91585802.98146  22366176.041                    22366174.5114
        48.300          37.4004
 123471963.641 6  96211902.29344  23495939.175                    23495938.1974
        40.500          26.2004
 121219819.465 6  94457032.93544  23067357.960                    23067357.8834
        41.800          29.1004
 125164270.056 7  97530588.97244  23817976.744                    23817979.5374
        43.200          24.6004
 115309981.694 8  89851918.97846  21942761.535                    21942758.4954
        48.400          37.7004
 129007243.766 7 100525126.26243  24549260.807                    24549260.0324
        42.000          22.0004
 132811619.805 6 103489546.80743  25273224.456                    25273227.7444
        37.500          21.3004
 15  7  9  6 43 15.0000000  0  9G13G15G17G20G24G30G28G18G05
 107167617.655 8  83507218.18946  20393319.856                    20393317.1754
        49.400          41.2004
 109411682.191 8  85255853.10247  20820348.053                    20820345.4424
        49.000          42.5004
 117504788.218 7  91562191.07346  22360409.696                    22360408.2104
        47.200          36.6004
 123507856.639 6  96239870.82144  23502769.314                    23502768.2764
        38.800          24.0004
 121178038.157 7  94424476.11744  23059407.335                    23059406.8424
        42.000          29.1004
 125207632.519 7  97564377.85943  23826228.901                    23826230.5504
        43.500          23.4004
 115343894.517 8  89878344.53546  21949214.820                    21949211.8894
        48.000          37.7004
 128990647.668 6 100512194.27643  24546102.717                    24546101.6204
        41.700          21.8004
 132861498.770 6 103528413.52943  25282715.789                    25282718.5224
        37.400          19.6004
 15  7  9  6 43 30.0000000  0  9G13G15G17G20G24G30G28G18G05
 107187825.354 8  83522964.43346  20397165.471                    20397162.3584
        49.300          41.7004
 109401683.921 8  85248062.24347  20818445.386                    20818443.0374
        48.800          42.9004
 117474594.564 7  91538663.57246  22354664.319                    22354662.0784
        47.900          36.7004
 123543825.246 6  96267898.25044  23509613.482                    23509612.7504
        40.900          26.0004
 121136285.123 6  94391941.32944  23051462.000                    23051462.0304
        41.600          28.4004
 125251020.097 7  97598186.30244  23834485.553                    23834486.6984
        43.900          25.0004
 115377868.309 8  89904817.59846  21955679.866                    21955676.6574
        49.000          37.2004
 128974167.921 6 100499352.93543  24542967.619                    24542966.2804
        41.200          21.3004
 132911355.978 6 103567263.34243  25292203.771                    25292206.5174
        36.300          19.3004
 15  7  9  6 43 45.0000000  0  9G13G15G17G20G24G30G28G18G05
 107208168.457 8  83538816.18747  20401036.538                    20401033.4704
        49.200          42.0004
 109391819.995 8  85240376.07347  20816568.542                    20816566.3084
        49.300          43.2004
 117444509.149 8  91515220.42246  22348939.407                    22348937.1154
        48.000          36.2004
 123579868.957 6  96295984.22844  23516472.434                    23516472.5104
        41.100          26.9004
 121094560.707 6  94359428.82844  23043522.311                    23043522.6304
        41.600          29.3004
 125294432.672 7  97632014.20844  23842746.591                    23842748.3404
        44.100          25.3004
 115411902.845 7  89931337.99846  21962156.626                    21962153.3504
        47.800          36.9004
 128957804.457 6 100486602.16843  24539852.852                    24539852.4614
        39.700          22.0004
 132961190.730 5 103606095.66243  25301687.296                    25301689.6164
        35.400          20.6004
 15  7  9  6 44  0.0000000  0  9G13G15G17G20G24G30G28G18G05
 107228646.935 8  83554773.43046  20404933.583                    20404930.3194
        50.000          41.0004
 109382090.434 8  85232794.59947  20814717.016                    20814714.3924
        49.000          42.9004
 117414532.415 7  91491861.96346  22343234.510                    22343232.6474
        46.900          36.2004
 123615987.590 6  96324128.57044  23523345.711                    23523345.3734
        41.700          26.8004
 121052865.015 7  94326938.71844  23035587.724                    23035588.5644
        42.200          29.2004
 125337870.247 7  97665861.62244  23851012.569                    23851014.1674
        44.400          25.8004
 115445998.003 8  89957905.63446  21968644.733                    21968641.2834
        49.000          36.4004
 128941557.444 6 100473942.14643  24536761.703                    24536760.6794
        40.200          21.8004
 133011002.843 5 103644910.31043  25311165.588                    25311168.6994
        34.800          19.3004
 15  7  9  6 44 15.0000000  0  9G13G15G17G20G24G30G28G18G05
 107249260.688 8  83570836.08446  20408856.290                    20408853.4194
        50.300          41.0004
 109372495.401 8  85225317.94347  20812891.228                    20812888.4974
        50.300          42.9004
 117384664.689 7  91468588.44346  22337551.243                    22337549.5344
        47.100          36.3004
 123652180.564 6  96352330.85044  23530232.890                    23530232.4414
        40.500          25.3004
 121011197.918 6  94294470.88844  23027658.278                    23027659.4194
        41.400          29.4004
 125381332.750 7  97699728.43744  23859283.409                    23859285.4604
        44.000          26.9004
 115480153.618 8  89984520.38046  21975144.257                    21975140.9004
        48.500          36.8004
 128925426.954 6 100461372.95843  24533691.914                    24533691.5174
        40.100          21.3004
 133060792.066 5 103683707.14743  25320639.400                    25320642.5824
        35.300          20.1004
 15  7  9  6 44 30.0000000  0  9G13G15G17G20G24G30G28G18G05
 107270009.312 8  83587003.82646  20412805.080                    20412801.4824
        49.800          41.4004
 109363034.650 8  85217945.94047  20811090.859                    20811087.7714
        50.000          42.5004
 117354906.062 7  91445399.94046  22331888.187                    22331886.6534
        47.500          36.7004
 123688447.308 6  96380590.59343  23537134.802                    23537133.9084
        40.900          23.9004
 120969559.614 6  94262025.49244  23019734.904                    23019736.5194
        40.700          29.6004
 125424819.753 7  97733614.32344  23867559.005                    23867560.9804
        43.900          27.0004
 115514369.044 8  90011181.73046  21981655.219                    21981651.8894
        48.900          36.7004
 128909412.762 6 100448894.34243  24530645.427                    24530644.0194
        39.600          22.0004
 133110557.650 6 103722485.58043  25330109.571                    25330112.9664
        36.000          20.9004
 15  7  9  6 44 45.0000000  0  9G13G15G17G20G24G30G28G18G05
 107290892.405 8  83603276.35746  20416778.568                    20416775.6294
        50.900          41.9004
 109353708.086 8  85210678.48946  20809315.965                    20809313.3194
        50.300          41.9004
 117325256.169 8  91422296.16846  22326246.016                    22326244.7034
        48.000          36.6004
 123724787.209 6  96408907.32944  23544050.359                    23544049.5934
        40.400          26.6004
 120927949.752 6  94229602.28044  23011816.336                    23011818.3554
        41.300          28.7004
 125468330.917 7  97767519.07044  23875838.960                    23875841.1044
        43.400          27.0004
 115548643.668 8  90037889.22046  21988177.477                    21988174.1814
        48.900          36.2004
 128893514.554 6 100436506.12143  24527619.258                    24527618.7014
        40.900          20.9004
 133160299.061 6 103761245.12643  25339575.763                    25339577.9104
        36.600          19.9004
 15  7  9  6 45  0.0000000  0  9G13G15G17G20G24G30G28G18G05
 107311911.316 8  83619654.71446  20420778.289                    20420775.8394
        50.200          41.4004
 109344517.077 8  85203516.66447  20807567.147                    20807564.4624
        50.200          42.3004
 117295716.711 7  91399278.45346  22320624.665                    22320623.3244
        47.700          36.7004
 123761201.012 6  96437281.70444  23550979.804                    23550979.0584
        40.900          25.3004
 120886369.496 6  94197202.13844  23003903.584                    23003906.5984
        41.700          29.1004
 125511867.546 7  97801443.63844  23884123.699                    23884125.7574
        42.900          26.5004
 115582978.731 8  90064643.79946  21994710.740                    21994707.1914
        48.000          36.0004
 128877734.066 6 100424209.62143  24524616.157                    24524615.1514
        40.400          21.5004
 133210017.365 5 103799986.73043  25349035.161                    25349037.5554
        35.900          20.9004
 15  7  9  6 45 15.0000000  0  9G13G15G17G20G24G30G28G18G05
 107333065.555 8  83636138.52747  20424804.189                    20424800.8924
        50.200          42.0004
 109335461.418 8  85196460.31147  20805843.773                    20805841.2064
        48.700          42.1004
 117266287.500 7  91376346.63546  22315024.482                    22315023.3964
        47.300          36.0004
 123797688.008 6  96465713.07744  23557922.908                    23557921.9444
        40.300          26.4004
 120844818.734 7  94164824.97044  22995996.805                    22995999.5054
        42.400          28.5004
 125555429.071 7  97835387.60444  23892412.719                    23892415.7414
        42.500          24.6004
 115617373.416 8  90091444.83345  22001255.918                    22001253.0084
        48.500          35.3004
 128862070.590 6 100412004.31443  24521634.579                    24521634.1894
        39.400          20.4004
 133259711.564 5 103838709.48843  25358493.259                    25358495.3554
        35.700          19.3004
 15  7  9  6 45 30.0000000  0  9G13G15G17G20G24G30G28G18G05
 107354354.001 8  83652726.91046  20428855.161                    20428852.1824
        50.300          41.9004
 109326540.227 8  85189508.72446  20804146.003                    20804142.9914
        49.900          41.8004
 117236968.066 7  91353500.34945  22309445.059                    22309443.5364
        47.000          35.9004
 123834246.942 6  96494200.52543  23564879.679                    23564877.8554
        39.900          22.8004
 120803296.639 7  94132470.13144  22988095.704                    22988097.6114
        43.100          29.3004
 125599014.518 7  97869350.20344  23900706.537                    23900709.8434
        43.600          26.1004
 115651826.593 8  90118291.43845  22007812.294                    22007809.1944
        48.600          35.4004
 128846523.431 6 100399889.61343  24518676.417                    24518676.0034
        38.100          19.9004
 133309380.611 5 103877412.69643  25367944.673                    25367947.1334
        35.600          20.4004
 15  7  9  6 45 45.0000000  0  9G13G15G17G20G24G30G28G18G05
 107375776.940 8  83669420.10146  20432931.186                    20432928.9184
        49.300          41.7004
 109317754.090 8  85182662.39047  20802474.176                    20802470.9334
        49.200          42.1004
 117207759.077 7  91330740.12046  22303887.108                    22303885.4724
        47.600          36.3004
 123870877.860 6  96522744.07344  23571849.694                    23571848.7784
        40.500          25.9004
 120761803.861 7  94100138.12745  22980200.076                    22980201.2964
        43.700          30.0004
 125642624.238 7  97903331.72444  23909006.136                    23909007.7624
        44.000          25.2004
 115686338.332 8  90145183.68745  22014380.101                    22014376.7684
        48.500          35.9004
 128831093.307 6 100387866.13843  24515740.217                    24515739.2994
        38.700          19.9004
 133359024.544 6 103916096.36943  25377391.916                    25377394.1974
        37.300          18.3004
 15  7  9  6 46  0.0000000  0  9G13G15G17G20G24G30G28G18G05
 107397334.038 8  83686217.82446  20437033.671                    20437031.0734
        50.000          41.7004
 109309102.688 8  85175921.04147  20800827.806                    20800825.0044
        49.800          42.0004
 117178660.366 8  91308065.83446  22298349.830                    22298348.0694
        48.900          36.2004
 123907579.993 6  96551343.09944  23578834.174                    23578833.8164
        41.600          25.4004
 120720339.959 7  94067828.62044  22972310.047                    22972311.2344
        43.200          29.8004
 125686257.799 7  97937331.85044  23917309.744                    23917310.9694
        45.600          24.5004
 115720908.108 8  90172121.16746  22020958.656                    22020955.2874
        48.800          36.4004
 128815779.797 6 100375933.55143  24512826.425                    24512826.1254
        39.800          20.1004
 133408642.810 6 103954759.99943  25386833.482                    25386835.2014
        36.900          19.9004
 15  7  9  6 46 15.0000000  0  9G13G15G17G20G24G30G28G18G05
 107419025.595 8  83703120.32246  20441161.443                    20441158.9044
        50.600          41.5004
 109300586.623 8  85169285.13847  20799207.226                    20799204.6494
        50.600          42.1004
 117149672.624 8  91285478.02146  22292833.487                    22292831.9384
        48.800          36.2004
 123944353.482 6  96579997.71644  23585832.105                    23585832.1304
        40.200          24.8004
 120678905.494 7  94035542.05145  22964425.225                    22964426.4134
        43.400          30.2004
 125729915.579 7  97971350.86144  23925617.241                    23925618.0094
        45.700          24.1004
 115755536.227 8  90199104.09045  22027547.652                    22027545.2774
        48.900          35.5004
 128800583.298 6 100364092.12043  24509935.113                    24509933.9294
        40.200          21.5004
 133458235.327 6 103993403.56443  25396271.388                    25396272.1194
        37.400          19.9004
 15  7  9  6 46 30.0000000  0  8G13G15G17G20G24G30G28G18
 107440851.015 8  83720127.12746  20445315.054                    20445312.1124
        50.200          41.2004
 109292205.480 8  85162754.37947  20797612.267                    20797610.0294
        49.800          42.2004
 117120795.691 8  91262976.54746  22287338.241                    22287336.9864
        49.100          36.8004
 123981197.437 6  96608707.25044  23592842.979                    23592843.2684
        39.600          25.5004
 120637499.855 7  94003277.95945  22956546.162                    22956547.1384
        43.800          30.6004
 125773596.989 7  98005388.28943  23933929.686                    23933931.2744
        45.700          23.4004
 115790221.761 8  90226131.76145  22034148.159                    22034145.0174
        48.600          35.6004
 128785503.457 6 100352341.58043  24507065.273                    24507064.0704
        40.800          21.1004
 15  7  9  6 46 45.0000000  0  8G13G15G17G20G24G30G28G18
 107462812.750 8  83737240.16046  20449493.822                    20449491.0504
        50.400          41.5004
 109283961.941 8  85156330.85247  20796043.593                    20796041.0614
        49.800          42.3004
 117092032.390 8  91240563.62146  22281864.823                    22281863.3174
        48.000          37.0004
 124018114.078 6  96637473.41044  23599868.401                    23599868.0634
        40.300          24.8004
 120596126.086 7  93971038.70045  22948672.630                    22948673.5694
        44.600          31.0004
 125817304.593 7  98039446.10543  23942246.582                    23942247.7254
        46.300          22.9004
 115824967.099 8  90253206.02845  22040760.301                    22040756.8494
        48.400          35.8004
 128770542.947 6 100340684.01443  24504218.390                    24504217.3804
        41.300          21.5004
 15  7  9  6 47  0.0000000  0  8G13G15G17G20G24G30G28G18
 107484908.075 8  83754457.27846  20453698.473                    20453695.5674
        50.000          41.2004
 109275853.527 8  85150012.60547  20794500.437                    20794498.2724
        49.500          42.3004
 117063380.390 8  91218237.42946  22276412.477                    22276411.0554
        48.300          36.8004
 124055100.293 6  96666293.81543  23606906.567                    23606905.7904
        40.500          23.4004
 120554781.293 7  93938822.01845  22940805.048                    22940805.7874
        44.300          31.1004
 125861035.603 7  98073522.17344  23950568.308                    23950570.1214
        45.300          25.6004
 115859769.456 8  90280324.73546  22047383.430                    22047380.1214
        49.700          36.4004
 128755699.245 6 100329117.46243  24501393.124                    24501392.3634
        40.200          20.9004
 15  7  9  6 47 15.0000000  0  8G13G15G17G20G24G30G28G18
 107507136.961 8  83771778.46546  20457928.702                    20457925.7594
        50.700          40.9004
 109267880.564 8  85143799.90346  20792983.588                    20792981.1164
        50.400          41.9004
 117034840.149 7  91195998.31346  22270981.272                    22270979.3844
        47.600          36.2004
 124092155.971 6  96695168.32543  23613957.851                    23613956.9364
        38.900          23.5004
 120513465.737 7  93906628.11245  22932943.348                    22932943.6324
        44.900          30.2004
 125904790.123 7  98107616.54544  23958895.083                    23958897.0044
        44.200          24.6004
 115894628.492 8  90307487.60946  22054016.512                    22054013.8424
        49.100          36.9004
 128740972.486 6 100317642.06443  24498591.022                    24498589.7264
        41.300          20.1004
 15  7  9  6 47 30.0000000  0  9G13G15G17G20G24G30G28G18G12
 107529499.688 8  83789203.95546  20462184.176                    20462180.9744
        50.300          41.2004
 109260043.349 8  85137692.98247  20791491.815                    20791489.5774
        49.300          42.7004
 117006412.137 8  91173846.64646  22265571.488                    22265569.4894
        48.600          36.6004
 124129280.991 6  96724096.83743  23621023.672                    23621022.0824
        38.800          22.6004
 120472180.209 7  93874457.59545  22925086.070                    22925086.9464
        44.600          30.5004
 125948568.465 7  98141729.47144  23967224.762                    23967226.9414
        43.800          24.6004
 115929544.540 8  90334694.90846  22060661.112                    22060657.6234
        49.800          37.3004
 128726363.111 6 100306258.11943  24495810.974                    24495809.8994
        41.500          20.6004
 131497678.35216                  25023176.093
        38.500
 15  7  9  6 47 45.0000000  0  9G13G15G17G20G24G30G28G18G12
 107551996.454 8  83806733.89346  20466465.525                    20466462.2834
        50.600          41.2004
 109252342.294 8  85131692.15947  20790026.599                    20790024.0894
        49.300          42.5004
 116978096.687 8  91151782.69446  22260183.906                    22260181.5024
        48.800          37.0004
 124166475.233 6  96753079.35943  23628100.883                    23628098.6674
        39.500          22.6004
 120430925.108 7  93842310.80745  22917236.060                    22917236.6784
        44.100          30.5004
 125992370.725 7  98175861.01243  23975560.306                    23975562.5964
        42.900          22.3004
 115964517.475 8  90361946.52546  22067316.251                    22067312.7254
        49.200          37.0004
 128711871.534 6 100294965.96143  24493053.733                    24493052.6624
        40.100          21.1004
 131442347.488 6 102422618.54653  25012647.589                    25012649.4484
        40.100          20.6004
 15  7  9  6 48  0.0000000  0  9G13G15G17G20G24G30G28G18G12
 107574626.877 8  83824367.98146  20470771.878                    20470768.7094
        51.600          41.2004
 109244777.173 8  85125797.26647  20788586.951                    20788584.7504
        49.700          42.1004
 116949894.155 8  91129806.73146  22254816.825                    22254814.3184
        48.700          36.2004
 124203738.023 6  96782115.25444  23635191.696                    23635189.8984
        39.700          24.7004
 120389699.671 7  93810187.12445  22909391.386                    22909391.4394
        45.000          30.9004
 126036196.592 7  98210010.95443  23983900.330                    23983901.8684
        42.000          22.5004
 115999546.747 8  90389242.04746  22073982.061                    22073978.9174
        50.400          37.7004
 128697497.434 6 100283765.35643  24490318.951                    24490317.8474
        40.200          20.9004
 131387040.269 6 102379521.96143  25002122.566                    25002124.8814
        39.100          21.1004
 15  7  9  6 48 15.0000000  0  9G13G15G17G20G24G30G28G18G12
 107597391.364 8  83842106.53046  20475103.648                    20475100.6364
        50.200          41.7004
 109237348.551 8  85120008.72347  20787173.701                    20787171.0304
        48.400          42.0004
 116921805.083 8  91107919.18546  22249471.397                    22249469.2464
        48.200          36.8004
 124241069.597 6  96811204.74044  23642296.465                    23642294.5074
        39.900          25.6004
 120348504.842 7  93778087.27245  22901551.732                    22901552.6034
        44.300          31.5004
 126080046.538 7  98244179.67444  23992245.191                    23992246.5124
        43.200          24.3004
 116034632.697 8  90416581.73246  22080658.611                    22080655.5494
        50.700          37.8004
 128683241.367 6 100272656.73943  24487605.216                    24487604.9534
        39.400          19.9004
 131331757.478 6 102336444.39543  24991602.364                    24991605.4324
        37.900          20.6004
 15  7  9  6 48 30.0000000  0  9G13G15G17G20G24G30G28G18G12
 107620289.665 8  83859949.35146  20479460.786                    20479457.8474
        50.700          41.3004
 109230056.422 8  85114326.54247  20785785.714                    20785783.4954
        48.900          42.2004
 116893829.587 8  91086120.12446  22244147.705                    22244145.3484
        48.300          36.5004
 124278469.183 6  96840347.24244  23649412.905                    23649411.7464
        40.400          25.2004
 120307340.531 7  93746011.21545  22893718.289                    22893718.9434
        45.200          30.6004
 126123920.221 7  98278366.87544  24000593.850                    24000595.5904
        43.900          25.5004
 116069774.832 8  90443965.21346  22087345.838                    22087343.2324
        50.900          37.6004
 128669103.258 6 100261640.02343  24484915.279                    24484914.7654
        39.400          20.1004
 131276498.829 6 102293385.75643  24981087.547                    24981089.6524
        38.200          20.1004
 15  7  9  6 48 45.0000000  0  9G13G15G17G20G24G30G28G18G12
 107643321.554 8  83877896.26846  20483843.779                    20483840.8764
        51.100          41.2004
 109222900.904 8  85108750.80947  20784424.009                    20784421.6294
        49.800          42.0004
 116865967.936 8  91064409.78645  22238845.762                    22238843.3054
        48.500          35.7004
 124315936.533 6  96869542.52944  23656542.917                    23656542.0364
        40.900          25.4004
 120266206.721 7  93713958.93145  22885890.567                    22885891.6694
        44.400          31.3004
 126167817.629 7  98312572.56544  24008947.793                    24008949.9394
        44.700          25.3004
 116104972.981 8  90471392.31446  22094044.295                    22094041.7134
        51.300          38.3004
 128655083.183 6 100250715.28643  24482247.226                    24482246.3824
        39.700          21.1004
 131221264.889 6 102250346.33143  24970576.791                    24970579.3454
        36.800          20.1004
 15  7  9  6 49  0.0000000  0  9G13G15G17G20G24G30G28G18G12
 107666486.919 8  83895947.18946  20488252.249                    20488248.6064
        51.300          41.4004
 109215881.932 8  85103281.47847  20783088.370                    20783086.3684
        49.200          42.3004
 116838220.273 8  91042788.27546  22233565.606                    22233563.2504
        48.200          36.4004
 124353471.125 6  96898790.22344  23663685.028                    23663684.4544
        40.400          24.5004
 120225103.629 7  93681930.58445  22878068.526                    22878069.8214
        43.800          30.4004
 126211738.508 7  98346796.56644  24017305.558                    24017307.5754
        44.400          24.1004
 116140226.582 8  90498862.62546  22100752.473                    22100749.7854
        51.200          38.1004
 128641181.146 6 100239882.52943  24479601.066                    24479601.0664
        39.200          20.1004
 131166055.617 6 102207326.14943  24960070.464                    24960073.1344
        36.400          21.5004
 15  7  9  6 49 15.0000000  0  9G13G15G17G20G24G30G28G18G12
 107689785.794 8  83914102.14246  20492685.799                    20492682.4084
        51.000          41.4004
 109208999.764 8  85097918.74547  20781778.654                    20781776.6044
        49.400          42.0004
 116810586.951 8  91021255.82946  22228307.215                    22228304.7164
        48.400          36.5004
 124391072.770 6  96928090.17144  23670839.866                    23670839.7664
        39.600          25.8004
 120184031.372 7  93649926.27345  22870252.931                    22870254.2324
        44.200          30.5004
 126255683.023 7  98381038.98744  24025667.957                    24025670.2244
        45.900          24.2004
 116175535.662 8  90526376.17646  22107471.687                    22107469.2904
        51.600          37.6004
 128627397.420 6 100229141.92243  24476978.823                    24476978.5834
        39.600          20.6004
 131110871.484 6 102164325.61643  24949569.521                    24949571.7374
        39.100          21.3004
 15  7  9  6 49 30.0000000  0  9G13G15G17G20G24G30G28G18G12
 107713218.212 8  83932361.15746  20497144.722                    20497141.5764
        50.900          41.7004
 109202254.669 8  85092662.82547  20780494.910                    20780492.7514
        49.400          42.0004
 116783068.400 8  90999812.84246  22223070.646                    22223068.3694
        48.000          37.2004
 124428741.208 6  96957442.17344  23678008.337                    23678008.0894
        39.500          24.5004
 120142990.135 7  93617946.13045  22862442.773                    22862444.7534
        43.300          30.5004
 126299651.229 7  98415299.86043  24034035.064                    24034037.2614
        44.100          22.6004
 116210900.250 8  90553932.97346  22114201.162                    22114198.6844
        51.000          37.6004
 128613732.034 6 100218493.58043  24474377.581                    24474377.5014
        39.900          20.1004
 131055712.425 6 102121344.37243  24939073.521                    24939074.3434
        39.800          19.9004
 15  7  9  6 49 45.0000000  0  9G13G15G17G20G24G30G28G18G12
 107736783.554 8  83950723.74746  20501628.976                    20501626.2764
        50.500          41.5004
 109195646.280 8  85087513.41747  20779237.680                    20779235.3964
        50.100          42.1004
 116755664.362 8  90978459.07646  22217855.585                    22217853.4594
        48.300          36.8004
 124466475.574 6  96986845.51643  23685188.878                    23685188.2274
        39.100          22.8004
 120101979.529 7  93585989.85645  22854639.285                    22854640.4064
        44.300          30.8004
 126343642.574 7  98449578.80543  24042406.600                    24042407.9364
        44.100          21.7004
 116246319.578 8  90581532.43146  22120941.166                    22120938.8534
        50.700          37.8004
 128600184.700 6 100207937.22343  24471799.935                    24471799.9024
        40.000          19.9004
 131000578.224 6 102078382.54743  24928581.604                    24928582.9474
        39.000          18.6004
 15  7  9  6 50  0.0000000  0  9G13G15G17G20G24G30G28G18G12
 107760482.130 8  83969190.14446  20506138.652                    20506135.9164
        50.400          41.1004
 109189175.089 8  85082470.93847  20778006.571                    20778004.1104
        49.300          42.0004
 116728375.636 8  90957195.17146  22212662.345                    22212661.1084
        48.300          36.1004
 124504275.947 6  97016300.31144  23692381.924                    23692381.9694
        39.700          24.5004
 120061000.164 7  93554057.92745  22846840.970                    22846842.0924
        45.100          31.2004
 126387657.423 7  98483876.04143  24050781.528                    24050783.0074
        43.400          22.2004
 116281793.840 8  90609174.68046  22127691.607                    22127689.3974
        50.400          36.9004
 128586755.976 6 100197473.28643  24469244.905                    24469243.5704
        41.000          20.1004
 130945470.042 6 102035441.34143  24918094.328                    24918096.4674
        40.400          21.3004
 15  7  9  6 50 15.0000000  0  9G13G15G17G20G24G30G28G18G12
 107784313.020 8  83987759.66146  20510673.577                    20510671.0594
        50.500          41.3004
 109182840.280 8  85077534.71547  20776800.890                    20776797.8764
        49.900          42.1004
 116701201.741 8  90936020.73346  22207492.162                    22207489.9614
        48.700          36.9004
 124542141.096 6  97045805.59344  23699587.968                    23699587.7324
        40.800          26.6004
 120020051.486 7  93522149.89645  22839049.365                    22839049.6064
        45.200          31.6004
 126431694.911 7  98518190.91843  24059161.313                    24059162.3804
        42.600          21.3004
 116317321.874 8  90636858.83846  22134452.554                    22134450.1184
        50.700          37.3004
 128573444.918 7 100187101.02443  24466712.048                    24466710.2964
        43.000          20.6004
 130890386.183 6 101992518.81144  24907612.692                    24907614.5114
        41.600          24.4004
 15  7  9  6 50 30.0000000  0  9G13G15G17G20G24G30G28G18G12
 107808277.415 8  84006433.19946  20515234.238                    20515231.0934
        51.700          41.9004
 109176643.443 8  85072706.00846  20775621.434                    20775619.0964
        50.300          41.5004
 116674143.951 8  90914936.77346  22202343.096                    22202341.3794
        48.100          37.0004
 124580071.609 6  97075361.77944  23706805.882                    23706806.0614
        41.100          25.6004
 119979134.530 7  93490266.57645  22831262.493                    22831263.5764
        45.000          31.1004
 126475756.224 7  98552524.34143  24067546.438                    24067548.2594
        42.100          21.5004
 116352904.822 8  90664585.79146  22141223.868                    22141221.4754
        50.500          37.7004
 128560253.070 7 100176821.66243  24464201.419                    24464200.1484
        42.400          20.1004
 130835329.058 6 101949617.14043  24897135.931                    24897137.5074
        41.200          21.7004
 15  7  9  6 50 45.0000000  0  9G13G15G17G20G24G30G28G18G12
 107832374.201 8  84025209.90346  20519819.502                    20519816.4974
        51.900          41.6004
 109170583.686 8  85067984.12046  20774468.171                    20774465.8124
        50.500          41.9004
 116647201.694 8  90893942.83146  22197216.514                    22197214.0554
        48.700          37.1004
 124618066.826 6  97104968.40444  23714036.336                    23714036.3834
        41.800          25.9004
 119938248.764 7  93458407.56845  22823482.729                    22823483.4604
        45.300          31.7004
 126519840.393 7  98586875.55643  24075935.414                    24075938.1674
        42.400          22.8004
 116388541.427 8  90692354.56246  22148005.319                    22148002.6934
        50.500          36.8004
 128547179.498 6 100166634.45443  24461713.493                    24461712.3014
        40.600          20.4004
 130780298.087 6 101906735.95743  24886663.299                    24886665.3284
        40.200          22.0004
 15  7  9  6 51  0.0000000  0  9G13G15G17G20G24G30G28G18G12
 107856603.583 8  84044089.92846  20524430.358                    20524427.3754
        50.800          41.7004
 109164661.376 8  85063369.33147  20773341.532                    20773338.7504
        49.300          42.4004
 116620375.466 8  90873039.30846  22192111.040                    22192109.3604
        49.400          37.0004
 124656126.560 7  97134625.25644  23721278.530                    23721279.5984
        42.600          26.3004
 119897394.234 7  93426572.88545  22815707.674                    22815709.3764
        45.200          31.2004
 126563947.686 7  98621244.77343  24084329.426                    24084331.6204
        42.800          23.9004
 116424231.808 8  90720165.23246  22154796.754                    22154794.6324
        49.600          36.1004
 128534224.588 6 100156539.69243  24459248.548                    24459246.9014
        39.900          20.1004
 130725293.029 6 101863874.83743  24876196.505                    24876197.5204
        37.900          20.4004
 15  7  9  6 51 15.0000000  0  9G13G15G17G20G24G30G28G18G12
 107880965.485 8  84063073.21946  20529066.397                    20529062.6814
        51.600          41.3004
 109158876.410 8  85058861.56647  20772240.735                    20772238.1244
        51.400          42.5004
 116593665.574 7  90852226.43046  22187028.686                    22187026.4494
        47.900          36.0004
 124694250.190 6  97164331.94944  23728533.370                    23728533.9644
        40.800          25.0004
 119856571.212 7  93394762.76945  22807940.034                    22807940.9374
        44.700          31.7004
 126608077.877 7  98655631.87644  24092726.749                    24092729.5734
        42.700          25.2004
 116459975.694 8  90748017.57945  22161597.776                    22161595.9774
        49.100          35.3004
 128521388.311 6 100146537.38043  24456805.748                    24456804.6044
        39.500          20.9004
 130670314.760 6 101821034.86243  24865734.252                    24865734.7424
        39.400          20.4004
 15  7  9  6 51 30.0000000  0  9G13G15G17G20G24G30G28G18G12
 107905460.204 8  84082160.01346  20533727.357                    20533723.8264
        51.700          41.2004
 109153229.429 8  85054461.32347  20771166.228                    20771163.1404
        49.700          42.3004
 116567072.711 7  90831504.74646  22181967.565                    22181965.5174
        47.600          36.4004
 124732437.594 6  97194088.32944  23735800.606                    23735801.0184
        41.300          24.8004
 119815780.148 7  93362977.57045  22800177.382                    22800178.7114
        43.000          32.2004
 126652231.390 7  98690037.11944  24101129.343                    24101130.9934
        43.900          25.2004
 116495773.096 8  90775911.63545  22168410.389                    22168408.2974
        49.000          35.7004
 128508671.183 6 100136627.95343  24454385.856                    24454384.4934
        40.600          22.2004
 130615363.008 6 101778215.33543  24855277.073                    24855278.4144
        38.100          20.6004
 15  7  9  6 51 45.0000000  0  9G13G15G17G20G24G30G28G18G12
 107930086.643 8  84101349.44146  20538413.736                    20538410.4684
        52.000          41.3004
 109147719.320 8  85050167.72647  20770117.378                    20770114.5504
        51.200          42.1004
 116540596.125 8  90810873.65046  22176929.879                    22176927.9964
        48.000          37.0004
 124770687.757 7  97223893.59344  23743079.229                    23743080.1804
        43.200          25.2004
 119775020.491 7  93331216.82645  22792420.581                    22792422.3684
        44.300          31.6004
 126696407.173 7  98724459.72844  24109535.252                    24109538.2364
        43.200          26.1004
 116531622.920 8  90803846.53446  22175232.807                    22175229.9034
        49.300          36.3004
 128496072.333 6 100126810.68543  24451988.587                    24451986.9914
        41.400          22.9004
 130560437.303 6 101735416.07643  24844825.739                    24844826.4384
        39.400          19.9004
 15  7  9  6 52  0.0000000  0  9G13G15G17G20G24G30G28G18G12
 107954845.802 8  84120642.27446  20543124.896                    20543122.2384
        51.300          41.3004
 109142347.661 8  85045982.02247  20769095.405                    20769092.2194
        50.200          42.2004
 116514237.205 8  90790334.24346  22171913.532                    22171911.3474
        48.300          36.4004
 124809001.276 7  97253748.25443  23750369.293                    23750369.4544
        42.300          23.9004
 119734293.145 7  93299481.28345  22784670.618                    22784671.9744
        43.400          32.2004
 126740606.282 7  98758900.52944  24117945.783                    24117948.8754
        43.400          25.4004
 116567526.020 8  90831822.96645  22182064.763                    22182062.1844
        50.000          35.6004
 128483592.891 6 100117086.45443  24449613.323                    24449612.8154
        41.700          21.8004
 130505539.189 6 101692638.36243  24834378.897                    24834379.9754
        38.400          20.6004
 15  7  9  6 52 15.0000000  0  9G13G15G17G20G24G30G28G18G12
 107979737.061 8  84140038.04846  20547861.682                    20547858.8034
        51.100          41.0004
 109137113.936 8  85041903.80247  20768099.769                    20768096.7194
        50.500          42.2004
 116487995.796 7  90769886.41446  22166919.928                    22166917.8954
        47.800          36.5004
 124847377.260 6  97283651.58644  23757672.045                    23757672.7404
        41.700          24.5004
 119693597.766 7  93267770.62745  22776926.494                    22776927.9514
        43.000          31.6004
 126784828.160 7  98793359.07344  24126361.419                    24126364.5634
        43.400          26.4004
 116603481.673 8  90859840.34346  22188906.817                    22188903.9944
        49.800          36.2004
 128471232.253 6 100107454.81243  24447261.799                    24447259.9444
        40.600          21.7004
 130450668.044 6 101649881.58943  24823937.195                    24823938.2074
        40.500          20.6004
 15  7  9  6 52 30.0000000  0  9G13G15G17G20G24G30G28G18G12
 108004760.200 8  84159536.58746  20552623.452                    20552620.5424
        50.500          40.9004
 109132018.160 8  85037933.06647  20767129.983                    20767126.8924
        50.700          42.2004
 116461871.888 8  90749530.14446  22161948.688                    22161947.0594
        48.100          36.4004
 124885815.217 7  97313603.17744  23764986.758                    23764987.1064
        43.300          24.1004
 119652934.466 7  93236084.97145  22769187.824                    22769189.8384
        42.100          31.0004
 126829072.737 7  98827835.27044  24134781.108                    24134784.0544
        42.800          25.8004
 116639489.745 8  90887898.56745  22195758.853                    22195756.6604
        49.300          34.8004
 128458990.705 6 100097915.98743  24444932.452                    24444930.3414
        41.300          20.4004
 130395824.243 6 101607146.17943  24813501.191                    24813501.8484
        40.700          21.1004
 15  7  9  6 52 45.0000000  0  9G13G15G17G20G24G30G28G18G12
 108029915.743 8  84179138.29746  20557410.472                    20557407.6604
        50.800          40.6004
 109127061.117 8  85034070.43847  20766186.384                    20766183.4294
        51.400          42.3004
 116435866.310 8  90729266.06046  22156999.463                    22156998.0194
        48.300          36.9004
 124924315.442 7  97343603.33644  23772313.924                    23772313.0624
        42.500          24.2004
 119612304.091 7  93204424.97745  22761456.391                    22761457.8304
        42.200          30.2004
 126873340.532 6  98862329.56243  24143204.258                    24143208.5664
        40.900          22.5004
 116675550.593 8  90915997.90345  22202621.188                    22202618.1574
        49.100          34.9004
 128446868.737 6 100088470.26943  24442625.869                    24442623.2394
        41.400          19.3004
 130341008.410 6 101564432.44043  24803070.237                    24803070.9304
        40.900          21.1004
 15  7  9  6 53  0.0000000  0  9G13G15G17G20G24G30G28G18G12
 108055203.265 8  84198842.84446  20562222.416                    20562219.8214
        51.200          41.5004
 109122242.461 8  85030315.64347  20765269.748                    20765266.8184
        51.600          43.1004
 116409979.127 7  90709094.25446  22152073.825                    22152071.5894
        47.600          37.3004
 124962877.247 7  97373651.46143  23779651.924                    23779650.4944
        42.200          23.5004
 119571706.248 7  93172790.33244  22753730.522                    22753732.0354
        42.400          29.3004
 126917631.083 6  98896841.61443  24151632.825                    24151636.2464
        40.500          22.2004
 116711663.443 8  90944137.74945  22209493.365                    22209490.3594
        48.900          34.3004
 128434866.092 6 100079117.56143  24440341.198                    24440338.6284
        41.600          20.1004
 130286220.176 6 101521740.09743  24792643.642                    24792645.6244
        39.900          22.0004
 15  7  9  6 53 15.0000000  0  9G13G15G17G20G24G30G28G18G12
 108080622.464 8  84218649.99146  20567059.381                    20567056.7334
        51.700          40.9004
 109117562.039 8  85026668.56247  20764378.895                    20764375.9484
        51.400          42.9004
 116384210.358 8  90689014.68946  22147170.053                    22147168.1944
        48.100          37.5004
 125001500.062 7  97403747.14043  23787000.950                    23787000.3134
        42.200          23.3004
 119531140.834 7  93141180.96044  22746011.081                    22746012.7584
        43.000          29.4004
 126961944.241 6  98931371.22743  24160065.635                    24160068.1044
        41.400          20.4004
 116747827.900 8  90972317.82345  22216374.717                    22216372.1904
        49.300          34.7004
 128422982.706 6 100069857.76543  24438079.424                    24438077.8664
        40.300          20.1004
 130231460.834 6 101479070.71343  24782223.159                    24782224.9334
        39.900          21.1004
 15  7  9  6 53 30.0000000  0  9G13G15G17G20G24G30G28G18G12
 108106172.688 8  84238559.24146  20571921.720                    20571918.9764
        51.600          41.4004
 109113019.446 8  85023128.88447  20763514.529                    20763511.4004
        51.100          42.5004
 116358559.597 8  90669027.10246  22142289.081                    22142287.4814
        48.600          37.3004
 125040182.917 7  97433889.57743  23794362.408                    23794362.0554
        42.300          22.8004
 119490607.499 7  93109596.56945  22738298.318                    22738299.7004
        44.100          30.4004
 127006279.342 6  98965918.01343  24168502.534                    24168504.1294
        40.800          21.5004
 116784043.214 8  91000537.53245  22223266.575                    22223263.5064
        49.100          34.3004
 128411217.958 6 100060690.43543  24435841.171                    24435839.5184
        40.800          20.6004
 130176729.014 6 101436422.78843  24771807.538                    24771809.8464
        40.400          22.6004
 15  7  9  6 53 45.0000000  0  9G13G15G17G20G24G30G28G18G12
 108131853.596 8  84258570.32146  20576808.371                    20576805.9174
        51.100          41.5004
 109108614.798 8  85019696.69347  20762676.580                    20762673.2934
        51.300          42.0004
 116333027.294 8  90649131.84146  22137430.277                    22137428.6484
        48.700          37.8004
 125078925.550 7  97464078.57244  23801735.503                    23801734.4384
        42.300          25.2004
 119450106.359 7  93078037.27945  22730591.627                    22730592.1534
        45.400          30.9004
 127050636.256 6  99000481.79743  24176943.188                    24176944.5954
        41.700          20.4004
 116820309.294 8  91028796.78645  22230167.707                    22230164.9954
        49.400          34.3004
 128399572.133 6 100051615.76843  24433624.895                    24433624.2234
        39.900          21.8004
 130122024.596 6 101393796.03743  24761397.716                    24761399.9424
        40.600          22.6004
 15  7  9  6 54  0.0000000  0  9G13G15G17G20G24G30G28G18G12
 108157666.138 8  84278683.97946  20581720.527                    20581717.5744
        50.400          41.1004
 109104348.879 8  85016372.60247  20761864.449                    20761861.5194
        51.100          42.5004
 116307614.491 8  90629329.66646  22132594.080                    22132592.7624
        48.100          37.7004
 125117728.371 7  97494314.49243  23809119.382                    23809118.0024
        42.400          22.2004
 119409638.288 7  93046503.71845  22722890.712                    22722891.5664
        44.800          31.4004
 127095015.843 7  99035063.26543  24185389.064                    24185390.0194
        43.200          21.1004
 116856626.684 8  91057096.03245  22237079.212                    22237076.0124
        49.900          34.0004
 128388046.066 6 100042634.42043  24431432.040                    24431431.1304
        40.500          21.8004
 130067348.946 6 101351191.63343  24750993.277                    24750994.7584
        39.800          22.6004
 15  7  9  6 54 15.0000000  0  9G13G15G17G20G24G30G28G18G12
 108183609.498 8  84298899.56846  20586657.969                    20586654.0624
        51.500          41.0004
 109100221.043 8  85013156.10447  20761078.864                    20761076.1504
        51.000          42.7004
 116282320.668 8  90609620.23446  22127781.010                    22127778.8504
        48.700          37.6004
 125156590.316 7  97524596.49643  23816514.482                    23816513.6894
        43.000          22.9004
 119369202.515 7  93014995.36645  22715196.275                    22715196.8774
        44.900          31.8004
 127139417.374 6  99069661.82043  24193837.845                    24193839.9914
        41.800          20.6004
 116892994.353 8  91085434.45545  22243999.205                    22243996.1654
        50.000          34.6004
 128376639.040 6 100033745.83243  24429260.273                    24429260.2294
        41.100          21.8004
 130012701.633 6 101308609.41543  24740594.358                    24740596.4954
        39.400          22.6004
 15  7  9  6 54 30.0000000  0  9G13G15G17G20G24G30G28G18G12
 108209684.647 8  84319217.86246  20591619.365                    20591616.3714
        51.400          40.9004
 109096232.811 8  85010048.39947  20760320.300                    20760317.1234
        52.100          42.7004
 116257147.144 8  90590004.50346  22122990.898                    22122988.8174
        48.200          37.3004
 125195512.166 6  97554925.16943  23823920.728                    23823920.2774
        41.800          22.2004
 119328800.605 7  92983513.38345  22707507.454                    22707508.0454
        43.600          31.1004
 127183841.833 7  99104278.21344  24202291.704                    24202294.5214
        43.700          24.1004
 116929413.174 8  91113812.73545  22250930.027                    22250926.4964
        50.100          34.7004
 128365352.244 6 100024950.90243  24427112.828                    24427112.5194
        40.800          20.6004
 129958083.991 6 101266050.33043  24730200.198                    24730202.4404
        41.700          22.9004
 15  7  9  6 54 45.0000000  0  9G13G15G17G20G24G30G28G18G12
 108235890.538 8  84339638.02446  20596606.361                    20596602.4734
        51.600          40.6004
 109092383.155 8  85007048.66647  20759587.465                    20759584.6074
        51.800          42.9004
 116232093.429 7  90570482.14946  22118223.155                    22118221.1684
        47.900          37.0004
 125234492.654 7  97585299.51243  23831339.212                    23831337.7804
        43.000          22.2004
 119288431.774 7  92952057.18744  22699826.007                    22699826.2074
        44.900          29.8004
 127228288.391 7  99138911.82744  24210750.145                    24210752.6524
        43.800          24.7004
 116965882.156 8  91142230.09645  22257870.412                    22257866.7194
        50.300          35.5004
 128354184.668 6 100016248.88343  24424988.272                    24424986.9844
        40.100          20.9004
 129903495.183 7 101223513.66243  24719813.244                    24719814.3624
        42.000          22.8004
 15  7  9  6 55  0.0000000  0  9G13G15G17G20G24G30G28G18G12
 108262226.579 8  84360159.59946  20601617.893                    20601614.6774
        51.300          40.3004
 109088671.625 8  85004156.55947  20758881.305                    20758877.9294
        52.900          42.7004
 116207159.142 7  90551052.85246  22113477.946                    22113475.7594
        47.300          36.9004
 125273530.956 6  97615718.90843  23838767.608                    23838766.4844
        41.700          21.8004
 119248095.542 7  92920626.38045  22692149.095                    22692150.0794
        42.100          31.2004
 127272756.338 7  99173562.09544  24219212.114                    24219214.6014
        43.400          25.4004
 117002400.585 8  91170686.00145  22264819.180                    22264815.7294
        49.500          35.3004
 128343136.089 6 100007639.58643  24422885.584                    24422884.8434
        39.500          22.0004
 129848935.079 6 101180999.36443  24709430.099                    24709431.8474
        41.300          22.5004
 15  7  9  6 55 15.0000000  0  9G13G15G17G20G24G30G28G18G12
 108288693.649 8  84380783.27746  20606654.380                    20606651.3074
        51.900          40.3004
 109085099.334 8  85001372.96147  20758201.712                    20758199.0204
        52.000          42.8004
 116182345.551 8  90531717.60346  22108756.219                    22108754.3404
        48.600          37.3004
 125312627.602 6  97646183.80243  23846207.750                    23846205.9154
        41.100          22.8004
 119207792.999 7  92889221.83245  22684480.607                    22684480.9244
        43.400          31.4004
 127317246.770 7  99208229.87244  24227677.838                    24227680.8844
        42.800          25.4004
 117038969.109 8  91199180.92745  22271778.002                    22271774.4144
        49.600          35.5004
 128332207.453 6  99999123.81743  24420806.359                    24420805.3914
        41.100          20.9004
 129794404.636 7 101138508.15244  24699053.695                    24699055.0214
        42.400          25.3004
 15  7  9  6 55 30.0000000  0  9G13G15G17G20G24G30G28G18G12
 108315290.972 8  84401508.44846  20611715.602                    20611712.7434
        51.900          40.1004
 109081665.821 8  84998697.49047  20757548.326                    20757545.2844
        51.200          42.9004
 116157652.355 7  90512476.15646  22104057.438                    22104054.9184
        47.800          37.4004
 125351781.644 6  97676693.40343  23853658.555                    23853656.6104
        41.300          22.9004
 119167523.608 7  92857843.10545  22676817.729                    22676818.2744
        42.500          32.1004
 127361758.917 6  99242914.57744  24236148.677                    24236151.2314
        41.900          24.6004
 117075586.937 8  91227714.28145  22278746.123                    22278742.9104
        50.700          35.1004
 128321398.441 6  99990701.18243  24418749.261                    24418748.8604
        40.400          21.5004
 129739903.647 7 101096039.91844  24688682.655                    24688684.4464
        42.200          26.1004
 15  7  9  6 55 45.0000000  0  9G13G15G17G20G24G30G28G18G12
 108342018.593 8  84422335.15246  20616801.453                    20616799.1744
        51.200          40.5004
 109078371.293 8  84996130.33247  20756921.438                    20756918.7314
        52.100          42.8004
 116133079.800 8  90493328.73046  22099381.615                    22099379.3154
        48.900          37.8004
 125390992.744 6  97707247.48843  23861120.097                    23861118.5824
        41.300          22.3004
 119127287.835 7  92826490.57645  22669161.642                    22669161.7674
        45.500          32.6004
 127406292.909 6  99277616.27543  24244622.984                    24244625.1924
        39.500          22.3004
 117112254.024 8  91256286.02345  22285723.488                    22285720.2664
        50.300          34.6004
 128310709.032 6  99982371.77943  24416714.598                    24416714.1474
        39.900          20.6004
 129685432.201 6 101053594.68743  24678316.361                    24678319.0734
        41.300          22.5004
 15  7  9  6 56  0.0000000  0  9G13G15G17G20G24G30G28G18G12
 108368876.770 8  84443263.57546  20621911.797                    20621909.6464
        50.800          40.5004
 109075216.277 8  84993671.87447  20756321.157                    20756317.8724
        51.500          42.9004
 116108628.816 8  90474276.03846  22094728.744                    22094726.7714
        48.300          37.6004
 125430261.124 6  97737846.17343  23868592.266                    23868591.4224
        41.400          21.7004
 119087085.959 7  92795164.45045  22661511.202                    22661511.7214
        44.100          32.6004
 127450849.144 6  99312335.32143  24253100.724                    24253104.4144
        38.000          21.3004
 117148970.581 8  91284896.30445  22292709.990                    22292707.1164
        49.600          34.8004
 128300139.569 6  99974135.84943  24414703.176                    24414703.1964
        39.200          19.6004
 129630990.913 6 101011172.83444  24667956.715                    24667958.7484
        40.800          25.0004
 15  7  9  6 56 15.0000000  0  9G13G15G17G20G24G30G28G18G12
 108395864.883 8  84464293.25846  20627047.916                    20627045.4504
        51.500          40.8004
 109072200.229 8  84991321.71547  20755747.117                    20755743.7664
        51.600          42.6004
 116084298.808 8  90455317.59546  22090098.589                    22090096.4204
        48.000          37.8004
 125469585.829 6  97768488.74843  23876075.266                    23876074.6284
        41.700          22.6004
 119046917.842 7  92763864.63845  22653867.575                    22653868.1334
        45.500          32.7004
 127495427.014 6  99347071.19843  24261583.609                    24261587.8834
        37.100          20.1004
 117185735.816 8  91313544.51345  22299706.709                    22299703.4314
        49.200          34.9004
 128289689.831 6  99965993.17943  24412714.463                    24412713.9064
        40.600          20.4004
 129576579.839 7 100968774.68344  24657602.690                    24657605.4284
        42.100          25.6004
 15  7  9  6 56 30.0000000  0  9G13G15G17G20G24G30G28G18G12
 108422982.828 8  84485424.11046  20632208.427                    20632206.1484
        50.700          40.7004
 109069323.153 8  84989079.84347  20755199.625                    20755196.0184
        51.600          42.6004
 116060090.119 7  90436453.69646  22085491.719                    22085489.5884
        47.500          37.1004
 125508966.598 7  97799175.01243  23883569.116                    23883568.9814
        42.500          22.3004
 119006783.257 7  92732590.97645  22646230.027                    22646231.3924
        45.200          32.0004
 127540026.408 6  99381823.87343  24270071.409                    24270074.7394
        37.800          19.3004
 117222549.587 8  91342230.55245  22306712.218                    22306709.1204
        49.300          35.4004
 128279359.785 6  99957943.81943  24410749.454                    24410747.8264
        40.800          19.3004
 129522198.846 6 100926399.95543  24647254.965                    24647257.2414
        41.300          23.3004
 15  7  9  6 56 45.0000000  0  9G13G15G17G20G24G30G28G18G12
 108450230.731 8  84506656.23146  20637393.781                    20637390.7844
        51.400          40.7004
 109066585.629 8  84986946.71247  20754678.360                    20754674.6814
        52.500          42.3004
 116036003.424 8  90417684.85146  22080908.454                    22080906.3164
        48.000          37.1004
 125548403.262 7  97829904.83343  23891074.421                    23891073.8504
        43.400          22.9004
 118966682.954 7  92701344.00445  22638598.510                    22638599.9214
        45.400          32.4004
 127584647.663 6  99416593.56343  24278562.658                    24278566.4004
        38.100          19.9004
 117259411.804 8  91370954.33645  22313726.776                    22313723.6164
        48.500          34.8004
 128269149.736 6  99949987.93043  24408806.608                    24408804.7174
        39.900          19.0004
 129467848.801 6 100884049.42643  24636911.901                    24636913.3224
        40.100          22.3004
 15  7  9  6 57  0.0000000  0  9G13G15G17G20G24G30G28G18G12
 108477608.483 8  84527989.52246  20642603.691                    20642600.8364
        51.300          41.0004
 109063987.705 8  84984922.34447  20754184.208                    20754181.1684
        51.200          42.9004
 116012038.880 8  90399011.18846  22076347.859                    22076345.9494
        48.400          37.4004
 125587895.198 7  97860677.71643  23898589.139                    23898588.5794
        42.500          22.5004
 118926616.903 7  92670123.75845  22630974.296                    22630975.5704
        45.100          32.4004
 127629290.630 6  99451380.19343  24287058.780                    24287060.4844
        40.500          20.4004
 117296322.320 8  91399715.75945  22320750.378                    22320747.8074
        48.500          35.2004
 128259059.653 6  99942125.52543  24406885.944                    24406884.2034
        40.400          20.4004
 129413529.296 6 100841722.60243  24626576.110                    24626576.3534
        40.900          22.6004
 15  7  9  6 57 15.0000000  0  9G13G15G17G20G24G30G28G18G12
 108505115.588 8  84549423.61646  20647838.072                    20647835.4974
        51.400          40.8004
 109061528.984 8  84983006.45247  20753716.171                    20753713.2024
        51.400          42.4004
 115988196.367 7  90380432.62146  22071811.219                    22071808.9454
        47.800          37.4004
 125627441.838 7  97891493.26143  23906115.380                    23906114.6554
        42.700          22.9004
 118886584.931 7  92638930.04245  22623356.447                    22623357.4684
        44.600          31.7004
 127673954.927 6  99486183.52943  24295557.848                    24295558.3264
        41.700          20.4004
 117333280.618 8  91428514.40745  22327783.151                    22327780.0974
        48.100          35.5004
 128249089.481 6  99934356.56743  24404988.779                    24404986.2364
        39.900          19.3004
 129359240.499 6 100799419.69143  24616244.466                    24616245.4204
        41.100          22.2004
 15  7  9  6 57 30.0000000  0  9G13G15G17G20G24G30G28G18G12
 108532752.002 8  84570958.46246  20653097.411                    20653094.3874
        51.900          40.8004
 109059209.773 8  84981199.28147  20753274.383                    20753271.8804
        51.300          42.5004
 115964476.149 8  90361949.34646  22067297.499                    22067294.7294
        48.100          37.6004
 125667043.085 7  97922351.31243  23913650.910                    23913650.7534
        43.400          23.0004
 118846587.328 7  92607763.11345  22615745.149                    22615746.1724
        45.600          31.5004
 127718640.663 7  99521003.55843  24304061.665                    24304062.2524
        42.600          21.1004
 117370286.602 7  91457350.21845  22334825.712                    22334822.7434
        47.900          35.5004
 128239239.175 6  99926681.01443  24403114.083                    24403112.1144
        40.100          18.6004
 129304982.805 6 100757140.98943  24605920.244                    24605920.3814
        41.300          22.0004
 15  7  9  6 57 45.0000000  0  9G13G15G17G20G24G30G28G18G12
 108560517.581 8  84592593.97046  20658380.831                    20658378.3384
        51.600          40.5004
 109057030.089 8  84979500.82947  20752859.982                    20752857.0294
        51.500          43.2004
 115940878.649 8  90343561.69646  22062806.795                    22062804.3374
        48.000          37.9004
 125706698.500 7  97953251.58743  23921197.127                    23921197.1084
        42.300          22.6004
 118806623.964 7  92576622.85245  22608140.719                    22608141.6814
        45.600          31.6004
 127763347.660 7  99555840.18543  24312568.973                    24312571.0114
        43.600          21.1004
 117407339.827 7  91486222.84245  22341876.135                    22341873.7854
        47.200          34.6004
 128229508.879 6  99919099.00443  24401262.414                    24401260.3714
        39.700          19.0004
 129250756.232 6 100714886.58943  24595599.912                    24595601.4504
        39.700          22.5004
 15  7  9  6 58  0.0000000  0  9G13G15G17G20G24G30G28G18G12
 108588412.566 8  84614330.30846  20663689.086                    20663685.9304
        50.900          40.6004
 109054990.257 8  84977911.33747  20752472.078                    20752469.1134
        51.200          43.1004
 115917404.267 7  90325269.97946  22058339.503                    22058337.3674
        46.700          37.4004
 125746407.981 7  97984194.02143  23928752.974                    23928753.2734
        42.700          22.3004
 118766695.635 7  92545509.89645  22600541.744                    22600542.9994
        44.300          31.3004
 127808076.330 7  99590693.64043  24321080.588                    24321083.1254
        43.300          20.6004
 117444440.569 7  91515132.48145  22348936.238                    22348933.6724
        46.400          34.4004
 128219898.881 6  99911610.68543  24399433.379                    24399432.4994
        39.800          20.4004
 129196561.238 6 100672656.75443  24585287.022                    24585288.5824
        39.400          22.6004
 15  7  9  6 58 15.0000000  0  9G13G15G17G20G24G30G28G18G12
 108616436.557 8  84636167.16446  20669021.992                    20669019.6384
        51.100          41.2004
 109053090.090 8  84976430.68847  20752109.959                    20752107.6624
        51.500          43.2004
 115894052.972 8  90307074.17446  22053896.377                    22053893.6284
        48.300          37.8004
 125786171.000 7  98015178.12243  23936320.231                    23936319.5594
        42.200          23.2004
 118726801.874 7  92514423.89145  22592950.882                    22592952.1054
        45.200          32.0004
 127852826.279 6  99625563.69243  24329595.989                    24329598.9304
        41.700          21.1004
 117481588.499 7  91544078.89945  22356005.657                    22356002.5704
        47.200          34.2004
 128210409.092 6  99904216.03243  24397628.496                    24397627.1234
        40.900          20.1004
 129142398.012 6 100630451.73843  24574978.899                    24574981.8364
        36.700          21.7004
 15  7  9  6 58 30.0000000  0  9G13G15G17G20G24G30G28G18G12
 108644589.999 8  84658104.89146  20674379.358                    20674376.4884
        50.900          40.6004
 109051330.430 8  84975059.51747  20751775.732                    20751772.9324
        50.900          42.9004
 115870825.606 8  90288974.94246  22049476.158                    22049473.6244
        49.500          37.7004
 125825987.907 6  98046204.23743  23943896.787                    23943896.9994
        41.300          22.8004
 118686943.474 7  92483365.42545  22585365.780                    22585367.1424
        44.500          31.9004
 127897598.132 6  99660450.80043  24338115.931                    24338118.4654
        41.700          20.9004
 117518783.917 7  91573062.31345  22363083.270                    22363080.3104
        47.100          34.3004
 128201039.774 6  99896915.26543  24395845.766                    24395843.1874
        41.100          20.4004
 129088267.291 6 100588272.03443  24564679.450                    24564679.9984
        40.600          22.3004
 15  7  9  6 58 45.0000000  0  9G13G15G17G20G24G30G28G18G12
 108672871.692 8  84680142.54646  20679761.048                    20679758.0814
        50.600          40.6004
 109049710.157 8  84973796.96347  20751467.492                    20751464.7464
        50.900          43.1004
 115847721.342 8  90270971.63946  22045079.293                    22045077.1314
        48.400          38.2004
 125865857.105 6  98077271.09343  23951483.168                    23951483.5714
        41.100          22.6004
 118647119.666 7  92452333.92245  22577787.681                    22577789.1804
        45.200          33.2004
 127942390.745 6  99695354.07343  24346639.844                    24346641.9974
        40.800          20.4004
 117556025.335 7  91602081.57745  22370170.376                    22370167.0254
        47.600          34.4004
 128191790.238 6  99889707.83343  24394085.381                    24394083.9124
        41.600          20.1004
 129034168.096 6 100546116.86843  24554384.407                    24554384.9534
        39.800          22.5004
 15  7  9  6 59  0.0000000  0  9G13G15G17G20G24G30G28G18G12
 108701281.279 8  84702279.87146  20685166.884                    20685164.2324
        50.000          40.4004
 109048228.961 8  84972642.78347  20751185.535                    20751182.9734
        49.600          42.9004
 115824740.178 8  90253064.24546  22040706.322                    22040704.2354
        49.100          38.1004
 125905777.794 6  98108378.06243  23959080.578                    23959080.2144
        40.400          22.5004
 118607330.064 7  92421329.08245  22570216.445                    22570217.1914
        46.300          33.0004
 127987203.693 6  99730273.18343  24355166.168                    24355169.0034
        39.600          20.4004
 117593312.339 8  91631136.36045  22377266.074                    22377262.7844
        48.300          34.8004
 128182660.240 7  99882593.53643  24392347.948                    24392347.1404
        42.400          20.6004
 128980100.348 6 100503986.15843  24544095.641                    24544096.4644
        41.400          22.0004
 15  7  9  6 59 15.0000000  0  9G13G15G17G20G24G30G28G18G12
 108729819.706 8  84724517.59046  20690597.972                    20690594.8604
        50.800          40.4004
 109046888.133 8  84971597.97647  20750930.145                    20750927.5774
        49.900          42.9004
 115801883.347 8  90235253.73246  22036357.469                    22036354.7944
        49.900          38.0004
 125945750.812 6  98139525.81843  23966686.630                    23966686.8904
        41.400          22.3004
 118567576.291 7  92390352.12445  22562651.149                    22562652.6234
        44.900          33.1004
 128032038.169 6  99765209.08943  24363698.604                    24363701.1284
        39.100          20.1004
 117630645.874 8  91660227.40345  22384370.125                    22384367.3444
        48.800          34.9004
 128173650.957 6  99875573.32843  24390633.737                    24390632.1214
        41.300          20.4004
 128926065.480 6 100461881.12643  24533812.850                    24533814.2144
        38.600          22.6004
 15  7  9  6 59 30.0000000  0  9G13G15G17G20G24G30G28G18G12
 108758487.438 8  84746856.06446  20696053.281                    20696050.4154
        50.000          40.3004
 109045688.337 8  84970663.06547  20750701.624                    20750698.7474
        50.200          43.1004
 115779151.845 8  90217540.88946  22032030.845                    22032029.2224
        50.000          38.6004
 125985776.443 6  98170714.60743  23974303.704                    23974303.2944
        41.000          22.3004
 118527858.768 7  92359403.44445  22555093.507                    22555094.1484
        45.600          32.4004
 128076894.668 6  99800162.08343  24372233.715                    24372237.9024
        38.100          19.6004
 117668026.301 7  91689354.98645  22391483.521                    22391480.5234
        47.800          34.1004
 128164762.893 6  99868647.57043  24388942.332                    24388940.5194
        41.400          19.6004
 128872064.261 6 100419802.33343  24523537.275                    24523537.3824
        40.400          22.6004
 15  7  9  6 59 45.0000000  0  9G13G15G17G20G24G30G28G18G12
 108787282.415 8  84769293.69046  20701532.711                    20701529.8874
        49.800          40.5004
 109044627.500 8  84969836.44247  20750499.812                    20750497.1614
        51.400          42.6004
 115756543.864 8  90199924.29946  22027728.638                    22027727.0484
        49.800          38.6004
 126025852.343 6  98201942.52043  23981930.026                    23981930.5964
        40.800          22.0004
 118488175.666 7  92328481.56945  22547541.356                    22547542.2234
        45.200          32.1004
 128121771.132 6  99835130.60443  24380774.226                    24380777.2104
        37.700          20.1004
 117705451.398 8  91718517.36645  22398605.075                    22398601.8084
        49.200          34.1004
 128155994.141 6  99861814.79643  24387273.945                    24387271.2174
        41.700          20.6004
 128818094.662 6 100377748.24043  24513267.394                    24513267.7324
        39.800          22.6004
 15  7  9  7  0  0.0000000  0  9G13G15G17G20G24G30G28G18G12
 108816205.300 8  84791830.98946  20707036.799                    20707033.8754
        49.300          40.3004
 109043706.903 8  84969119.09547  20750324.702                    20750321.5534
        50.000          42.4004
 115734060.562 8  90182404.85146  22023450.340                    22023448.3924
        49.200          38.4004
 126065979.163 7  98233210.13143  23989565.860                    23989565.7424
        42.000          23.2004
 118448528.179 7  92297587.45745  22539996.275                    22539997.7784
        45.300          31.4004
 128166668.538 6  99870115.51743  24389318.760                    24389322.1944
        37.100          21.3004
 117742922.021 8  91747715.23745  22405736.023                    22405732.2034
        49.200          34.2004
 128147345.988 7  99855075.98543  24385628.502                    24385626.1204
        42.200          21.8004
 128764158.014 6 100335719.73843  24503003.441                    24503003.7014
        40.300          23.3004
 15  7  9  7  0 15.0000000  0  9G13G15G17G20G24G30G28G18G12
 108845255.187 8  84814467.23646  20712564.786                    20712561.7284
        49.300          40.6004
 109042925.597 8  84968510.28047  20750176.103                    20750173.0024
        50.500          42.7004
 115711701.307 8  90164982.06146  22019195.481                    22019193.3834
        49.500          38.6004
 126106155.879 7  98264516.61544  23997210.673                    23997211.4804
        42.700          24.3004
 118408915.495 7  92266720.48045  22532458.651                    22532459.5774
        45.400          31.6004
 128211585.884 6  99905115.97943  24397866.128                    24397869.8074
        38.200          22.5004
 117780437.067 8  91776947.72245  22412874.777                    22412870.9874
        48.300          34.7004
 128138817.079 6  99848430.07443  24384005.197                    24384003.2464
        40.900          20.6004
 128710253.575 6 100293716.33243  24492745.520                    24492745.4844
        39.400          22.6004
 15  7  9  7  0 30.0000000  0  9G13G15G17G20G24G30G28G18G12
 108874433.829 8  84837203.81946  20718117.239                    20718114.4574
        50.300          40.6004
 109042285.687 8  84968011.64347  20750054.499                    20750050.8194
        50.900          42.8004
 115689468.207 8  90147657.58146  22014964.603                    22014962.6024
        48.900          37.8004
 126146383.550 7  98295862.79143  24004866.351                    24004866.5254
        42.300          22.9004
 118369339.554 7  92235882.10245  22524927.312                    22524928.4514
        45.200          31.8004
 128256524.982 6  99940133.41443  24406418.195                    24406421.1024
        39.500          22.5004
 117817998.116 7  91806216.05645  22420022.014                    22420019.1944
        47.800          34.4004
 128130409.585 6  99841878.75843  24382405.705                    24382403.0664
        41.100          20.4004
 128656383.271 6 100251739.51344  24482495.060                    24482495.1364
        40.500          26.0004
 15  7  9  7  0 45.0000000  0  9G13G15G17G20G24G30G28G18G12
 108903739.824 8  84860039.64246  20723693.919                    20723691.3984
        50.800          40.9004
 109041785.947 8  84967622.23347  20749959.362                    20749956.0974
        50.600          42.7004
 115667360.221 8  90130430.59146  22010757.850                    22010755.3254
        48.400          37.7004
 126186660.679 7  98327247.50443  24012530.616                    24012530.7054
        42.700          22.9004
 118329799.291 7  92205071.53845  22517403.671                    22517403.9414
        46.300          32.8004
 128301484.617 6  99975166.86343  24414973.315                    24414976.2254
        39.900          22.8004
 117855603.767 7  91835519.13845  22427178.239                    22427175.1634
        47.400          34.4004
 128122122.316 6  99835421.14643  24380827.898                    24380826.1784
        40.100          20.4004
 128602546.366 6 100209788.73544  24472250.187                    24472250.6894
        39.400          24.1004
 15  7  9  7  1  0.0000000  0  9G13G15G17G20G24G30G28G18G12
 108933173.116 8  84882974.64946  20729295.342                    20729292.5894
        50.200          41.2004
 109041426.386 8  84967342.05447  20749890.704                    20749887.8064
        49.300          42.8004
 115645377.717 7  90113301.37046  22006574.376                    22006572.1184
        47.300          37.6004
 126226987.067 7  98358670.60443  24020204.469                    24020204.1734
        42.200          22.9004
 118290294.951 7  92174288.96345  22509886.291                    22509886.7224
        45.500          32.7004
 128346464.842 6 100010216.32443  24423533.413                    24423535.1114
        41.200          22.2004
 117893253.911 7  91864856.89245  22434343.177                    22434340.1794
        47.800          34.3004
 128113955.422 6  99829057.34743  24379274.150                    24379272.4194
        40.900          19.9004
 128548743.091 6 100167864.17643  24462011.451                    24462011.9394
        40.500          23.9004
 15  7  9  7  1 15.0000000  0  9G13G15G17G20G24G30G28G18G12
 108962733.261 8  84906008.50646  20734919.808                    20734917.3824
        50.300          40.7004
 109041206.834 8  84967170.97147  20749849.119                    20749846.1684
        49.500          42.8004
 115623520.627 7  90096269.87846  22002415.078                    22002412.8014
        46.800          37.4004
 126267362.128 6  98390131.63543  24027887.778                    24027887.6454
        40.900          22.5004
 118250826.537 7  92143534.37345  22502375.541                    22502376.0014
        45.500          32.6004
 128391465.325 6 100045281.59643  24432096.486                    24432099.0144
        41.000          23.6004
 117930947.985 7  91894228.87045  22441516.108                    22441513.2584
        46.400          34.8004
 128105908.611 6  99822787.12143  24377742.949                    24377740.8504
        40.900          21.7004
 128494973.383 7 100125965.75543  24451779.069                    24451779.4804
        42.200          23.5004
 15  7  9  7  1 30.0000000  0  9G13G15G17G20G24G30G28G18G12
 108992420.418 8  84929141.34646  20740569.407                    20740566.3354
        50.500          40.5004
 109041127.568 8  84967109.20047  20749834.230                    20749831.1084
        49.600          42.6004
 115601789.416 8  90079336.48446  21998280.126                    21998277.7624
        48.800          37.6004
 126307785.685 6  98421630.45643  24035579.221                    24035580.4674
        39.900          21.8004
 118211394.553 7  92112808.19445  22494871.634                    22494872.4364
        45.000          32.7004
 128436486.235 6 100080362.76643  24440663.846                    24440666.5234
        39.800          22.9004
 117968686.087 7  91923635.16945  22448697.446                    22448694.7654
        46.400          34.3004
 128097982.195 6  99816610.70643  24376234.315                    24376232.7144
        41.300          21.5004
 128441237.629 7 100084093.79944  24441553.773                    24441553.1584
        42.300          25.4004
 15  7  9  7  1 45.0000000  0  9G13G15G17G20G24G30G28G18G12
 109022235.169 8  84952373.60246  20746243.046                    20746240.0694
        49.500          40.6004
 109041189.588 8  84967157.52447  20749845.674                    20749843.1084
        49.700          42.5004
 115580185.086 8  90062501.94546  21994168.744                    21994166.5424
        48.200          37.6004
 126348258.048 6  98453167.30443  24043281.502                    24043281.9734
        41.200          22.8004
 118171999.320 7  92082110.64545  22487375.660                    22487375.8904
        45.300          33.7004
 128481528.221 6 100115460.35943  24449235.477                    24449238.2624
        40.000          23.4004
 118006468.722 7  91953076.16845  22455887.015                    22455884.0454
        46.800          33.1004
 128090176.826 6  99810528.58543  24374749.374                    24374746.8734
        41.400          20.9004
 128387536.689 7 100042249.00143  24431334.736                    24431334.1504
        42.300          22.3004
 15  7  9  7  2  0.0000000  0  9G13G15G17G20G24G30G28G18G12
 109052175.680 8  84975703.84346  20751940.676                    20751937.7604
        48.800          40.7004
 109041391.105 8  84967314.54747  20749884.271                    20749881.5174
        49.900          42.2004
 115558706.436 8  90045765.34946  21990081.817                    21990079.4064
        48.000          38.0004
 126388777.284 7  98484740.70543  24050992.716                    24050993.0814
        42.200          22.5004
 118132639.581 7  92051440.75345  22479885.334                    22479886.0184
        45.100          33.6004
 128526589.754 6 100150573.19143  24457809.865                    24457813.5204
        40.600          22.5004
 118044294.128 7  91982550.48445  22463085.180                    22463082.2874
        47.600          33.3004
 128082491.069 7  99804539.68543  24373287.193                    24373283.6544
        42.200          20.9004
 128333869.273 7 100000430.31243  24421121.723                    24421121.2624
        42.000          22.3004
 15  7  9  7  2 15.0000000  0  9G13G15G17G20G24G30G28G18G12
 109082243.456 8  84999133.26846  20757662.029                    20757659.3404
        49.800          40.5004
 109041733.695 8  84967581.50547  20749949.398                    20749946.8144
        50.500          42.6004
 115537355.160 7  90029127.99546  21986018.514                    21986016.2914
        47.800          37.5004
 126429344.768 7  98516351.66843  24058711.969                    24058712.7824
        42.100          22.0004
 118093317.221 7  92020799.98245  22472402.612                    22472402.9974
        46.200          34.0004
 128571672.256 6 100185702.32443  24466388.876                    24466392.7634
        39.200          22.6004
 118082163.642 7  92012059.18745  22470291.575                    22470288.4014
        47.900          33.2004
 128074926.475 6  99798645.17843  24371846.556                    24371844.1014
        41.000          20.6004
 128280237.114 7  99958639.13643  24410914.911                    24410915.6594
        42.900          22.6004
 15  7  9  7  2 30.0000000  0  9G13G15G17G20G24G30G28G18G12
 109112437.574 8  85022661.13846  20763407.714                    20763405.5854
        49.300          41.2004
 109042216.781 8  84967957.93647  20750041.472                    20750038.5544
        50.500          42.9004
 115516130.388 8  90012589.22546  21981979.532                    21981977.2424
        48.200          37.8004
 126469959.276 7  98547999.27743  24066441.459                    24066441.7574
        43.600          22.6004
 118054031.633 7  91990187.86545  22464927.251                    22464927.8784
        45.700          33.2004
 128616774.988 6 100220847.24343  24474971.550                    24474975.5434
        37.900          21.8004
 118120076.375 8  92041601.56345  22477505.937                    22477502.9284
        48.200          32.6004
 128067482.149 7  99792844.43143  24370430.424                    24370427.2554
        42.200          19.9004
 128226639.604 7  99916874.88743  24400716.377                    24400715.7944
        42.000          23.9004
 15  7  9  7  2 45.0000000  0  9G13G15G17G20G24G30G28G18G12
 109142757.774 8  85046287.25846  20769177.700                    20769175.1824
        48.800          40.8004
 109042840.386 8  84968443.85047  20750160.268                    20750157.3864
        50.400          42.5004
 115495032.346 8  89996149.21046  21977964.556                    21977962.8874
        48.600          38.2004
 126510620.291 7  98579683.11543  24074178.354                    24074179.5154
        42.300          23.0004
 118014782.861 7  91959604.40745  22457457.538                    22457457.9924
        45.800          32.1004
 128661897.763 6 100256007.75943  24483557.733                    24483562.3404
        36.800          19.9004
 118158031.958 8  92071177.32545  22484728.677                    22484725.5604
        48.800          33.0004
 128060158.171 7  99787137.42143  24369037.270                    24369033.6984
        42.800          20.1004
 128173076.866 6  99875137.73843  24390523.681                    24390522.8734
        40.100          22.0004
 15  7  9  7  3  0.0000000  0  9G13G15G17G20G24G30G28G18G12
 109173204.237 8  85070011.75746  20774971.476                    20774969.0604
        48.900          40.3004
 109043604.911 8  84969039.58247  20750305.778                    20750302.7514
        50.400          42.5004
 115474061.720 8  89979808.47146  21973974.060                    21973971.5354
        49.200          37.7004
 126551327.989 7  98611403.33743  24081925.646                    24081925.6194
        42.500          23.4004
 117975571.072 7  91929049.82445  22449995.863                    22449996.7304
        45.200          31.9004
 128707040.936 6 100291184.21743  24492147.880                    24492152.4874
        36.500          18.3004
 118196030.465 8  92100786.53745  22491959.734                    22491956.3764
        49.600          33.6004
 128052955.030 6  99781524.59243  24367665.975                    24367663.1484
        41.300          20.1004
 128119549.454 7  99833428.08443  24380337.690                    24380337.5794
        42.400          22.3004
 15  7  9  7  3 15.0000000  0  9G13G15G17G20G24G30G28G18G12
 109203776.357 8  85093834.16846  20780789.330                    20780787.2804
        49.400          40.8004
 109044509.840 8  84969744.71847  20750477.538                    20750474.7514
        50.700          42.0004
 115453218.336 8  89963566.87346  21970007.920                    21970005.3844
        49.300          38.6004
 126592081.384 7  98643159.16943  24089681.360                    24089680.4284
        42.500          22.0004
 117936396.047 7  91898523.85945  22442540.782                    22442541.6954
        45.500          31.9004
 128752203.940 5 100326376.08543  24500742.474                    24500746.0504
        34.800          18.3004
 118234071.273 8  92130428.71445  22499198.530                    22499195.0154
        49.100          33.6004
 128045872.109 6  99776005.43043  24366317.897                    24366315.6574
        41.700          20.6004
 128066056.936 6  99791745.67843  24370158.186                    24370158.2994
        41.800          23.0004
 15  7  9  7  3 30.0000000  0  9G13G15G17G20G24G30G28G18G12
 109234474.266 8  85117754.59946  20786630.647                    20786628.4194
        48.400          40.5004
 109045555.401 8  84970559.42947  20750677.139                    20750674.0814
        49.200          42.2004
 115432502.538 8  89947424.71046  21966065.615                    21966063.2424
        50.300          38.3004
 126632880.208 7  98674950.39443  24097444.467                    24097444.6104
        42.100          22.3004
 117897258.150 7  91868026.81445  22435093.069                    22435094.3264
        45.500          33.5004
 128797386.952 5 100361583.56043  24509340.266                    24509344.0834
        33.800          18.3004
 118272154.318 8  92160103.80345  22506445.690                    22506442.1424
        49.700          32.3004
 128038909.694 7  99770580.14643  24364993.493                    24364991.2554
        42.700          21.1004
 128012599.772 7  99750090.78244  24359985.936                    24359985.8714
        43.700          24.1004
 15  7  9  7  3 45.0000000  0  9G13G15G17G20G24G30G28G18G12
 109265297.589 8  85141772.75446  20792496.395                    20792493.7734
        49.600          40.5004
 109046741.543 8  84971483.68747  20750902.402                    20750899.4304
        50.300          42.2004
 115411914.368 8  89931381.98146  21962148.048                    21962145.1934
        49.600          38.0004
 126673724.119 7  98706776.79143  24105216.822                    24105216.4044
        42.300          21.5004
 117858157.746 7  91837558.98545  22427652.722                    22427653.7734
        45.400          32.8004
 128842589.726 5 100396806.42642  24517941.937                    24517945.7964
        34.800          17.8004
 118310279.192 8  92189811.47945  22513700.043                    22513697.6544
        48.600          32.6004
 128032067.632 6  99765248.65143  24363691.767                    24363689.8864
        41.400          21.8004
 127959178.113 7  99708463.55543  24349819.726                    24349819.9324
        42.400          23.9004
 15  7  9  7  4  0.0000000  0  9G13G15G17G20G24G30G28G18G12
 109296246.878 8  85165889.06246  20798386.446                    20798383.4754
        49.400          41.2004
 109048069.020 8  84972518.08746  20751155.568                    20751152.1924
        48.700          41.9004
 115391454.681 8  89915439.37046  21958254.483                    21958251.9544
        49.900          37.4004
 126714613.430 6  98738638.54843  24112998.313                    24112997.6194
        41.200          20.9004
 117819095.277 7  91807120.72245  22420219.429                    22420220.7984
        46.200          33.7004
 128887812.907 5 100432045.17642  24526547.871                    24526552.2264
        34.800          17.4004
 118348446.508 8  92219552.22645  22520962.978                    22520960.6594
        48.100          32.4004
 128025346.633 7  99760011.50043  24362413.169                    24362411.0434
        42.000          21.8004
 127905792.882 6  99666864.75843  24339660.784                    24339661.0894
        41.100          22.6004
 15  7  9  7  4 15.0000000  0  9G13G15G17G20G24G30G28G18G12
 109327320.504 8  85190102.27046  20804299.140                    20804296.2624
        49.700          40.8004
 109049536.371 8  84973661.48547  20751434.276                    20751431.0634
        49.300          42.0004
 115371122.318 8  89899595.96746  21954385.783                    21954382.7284
        50.200          38.3004
 126755546.229 6  98770534.11543  24120786.783                    24120787.1534
        40.300          19.9004
 117780069.163 7  91776710.77845  22412792.746                    22412794.5214
        45.300          34.2004
 128933055.089 6 100467298.74543  24535157.604                    24535161.4024
        37.000          18.6004
 118386654.571 8  92249324.70945  22528233.878                    22528231.6614
        48.200          32.4004
 128018745.251 6  99754867.54743  24361156.213                    24361155.1724
        41.400          21.1004
 127852442.802 6  99625293.31843  24329508.612                    24329508.7884
        41.300          22.6004
 15  7  9  7  4 30.0000000  0  9G13G15G17G20G24G30G28G18G12
 109358519.807 8  85214413.40146  20810236.018                    20810233.1744
        48.700          40.5004
 109051145.193 8  84974915.10347  20751740.151                    20751737.1494
        48.600          42.1004
 115350918.938 8  89883853.08646  21950540.482                    21950538.9004
        50.000          38.0004
 126796523.589 6  98802464.49743  24128584.945                    24128584.4474
        40.100          21.1004
 117741081.537 7  91746330.85145  22405373.807                    22405374.8174
        45.300          34.0004
 128978317.582 6 100502568.14643  24543771.216                    24543774.5344
        39.600          20.9004
 118424904.652 7  92279129.95545  22535512.979                    22535510.3144
        47.800          32.0004
 128012265.052 6  99749818.04043  24359923.482                    24359921.1934
        41.700          22.0004
 127799129.499 6  99583750.53243  24319363.600                    24319364.4024
        41.200          22.5004
 15  7  9  7  4 45.0000000  0  9G13G15G17G20G24G30G28G18G12
 109389843.386 8  85238821.36846  20816196.599                    20816193.9164
        49.700          40.5004
 109052894.342 8  84976278.05947  20752073.104                    20752069.9014
        50.100          42.1004
 115330843.583 8  89868209.95846  21946720.869                    21946718.6044
        50.200          38.1004
 126837544.045 6  98834428.40943  24136390.904                    24136390.7874
        39.900          20.1004
 117702131.166 7  91715979.95445  22397961.552                    22397963.3344
        45.600          33.8004
 129023599.206 6 100537852.44643  24552388.369                    24552391.7454
        40.100          21.1004
 118463195.301 7  92308966.79945  22542798.945                    22542796.8364
        47.800          32.3004
 128005904.866 6  99744862.03243  24358712.851                    24358711.1434
        41.900          20.6004
 127745852.003 6  99542235.63643  24309224.990                    24309226.2034
        40.200          22.6004
 15  7  9  7  5  0.0000000  0  9G13G15G17G20G24G30G28G18G12
 109421291.979 8  85263326.74646  20822181.046                    20822178.6194
        48.400          40.2004
 109054784.571 8  84977750.96347  20752432.970                    20752430.0384
        48.500          42.2004
 115310897.429 8  89852667.49946  21942925.098                    21942922.6724
        50.400          38.5004
 126878608.117 6  98866426.33043  24144204.995                    24144205.2684
        39.000          21.7004
 117663219.224 7  91685658.97845  22390557.122                    22390558.4764
        47.000          34.5004
 129068900.747 6 100573152.29843  24561009.016                    24561011.8624
        40.800          22.5004
 118501527.187 7  92338835.78845  22550093.562                    22550091.2884
        47.500          32.0004
 127999665.456 6  99740000.15543  24357525.664                    24357523.1824
        41.500          21.5004
 127692611.227 6  99500749.37943  24299094.301                    24299095.0034
        38.600          23.4004
 15  7  9  7  5 15.0000000  0  9G13G15G17G20G24G30G28G18G12
 109452865.985 8  85287929.85246  20828189.375                    20828186.5484
        48.900          40.1004
 109056816.533 8  84979334.30247  20752819.667                    20752816.1864
        49.100          42.4004
 115291081.045 8  89837226.17046  21939154.014                    21939152.1514
        49.600          38.5004
 126919715.922 6  98898458.36243  24152026.998                    24152028.6344
        37.700          20.6004
 117624345.906 7  91655368.09645  22383160.145                    22383160.6664
        46.700          34.2004
 129114222.767 6 100608468.10543  24569633.328                    24569636.8224
        41.700          22.5004
 118539900.709 8  92368737.21345  22557395.492                    22557393.3924
        48.000          31.5004
 127993547.444 6  99735232.85343  24356361.260                    24356358.9474
        41.700          21.1004
 127639407.713 6  99459292.13444  24288969.883                    24288971.1354
        38.600          25.3004
 15  7  9  7  5 30.0000000  0  9G13G15G17G20G24G30G28G18G12
 109484563.214 8  85312628.97646  20834220.999                    20834218.4444
        48.600          39.7004
 109058988.254 8  84981026.54247  20753232.754                    20753229.5744
        48.700          42.1004
 115271392.680 8  89821884.59546  21935407.363                    21935405.3254
        49.100          38.2004
 126960865.087 6  98930522.57443  24159858.183                    24159858.6304
        39.300          20.4004
 117585509.604 7  91625106.06545  22375769.219                    22375770.8134
        47.300          34.1004
 129159563.088 6 100643798.18443  24578260.826                    24578265.1234
        39.800          22.3004
 118578313.693 8  92398669.38345  22564705.942                    22564703.7354
        48.400          32.6004
 127987548.916 6  99730558.68043  24355219.548                    24355217.6874
        41.200          20.6004
 127586240.004 6  99417862.78843  24278852.640                    24278853.6114
        40.500          23.4004
 15  7  9  7  5 45.0000000  0  9G13G15G17G20G24G30G28G18G12
 109516385.414 8  85337425.48346  20840276.537                    20840273.6714
        48.800          40.0004
 109061301.664 8  84982829.19947  20753673.154                    20753670.1994
        48.700          42.3004
 115251834.263 8  89806644.29246  21931685.702                    21931683.2514
        49.900          38.5004
 127002057.098 6  98962620.21043  24167696.675                    24167697.2234
        40.400          20.6004
 117546712.312 7  91594874.43945  22368386.879                    22368387.7074
        47.200          34.0004
 129204923.580 6 100679143.94643  24586892.830                    24586897.4874
        39.100          21.5004
 118616767.757 8  92428633.56345  22572023.635                    22572021.0554
        48.200          33.5004
 127981671.566 6  99725978.92743  24354101.515                    24354099.9174
        41.500          20.4004
 127533110.145 6  99376462.92844  24268742.691                    24268743.3464
        40.800          24.5004
 15  7  9  7  6  0.0000000  0  9G13G15G17G20G24G30G28G18G12
 109548331.574 8  85362318.56746  20846356.237                    20846353.6104
        49.700          39.6004
 109063755.971 8  84984741.63747  20754140.080                    20754137.2474
        48.800          42.2004
 115232405.360 8  89791504.88746  21927988.961                    21927986.1264
        49.700          38.7004
 127043290.827 6  98994750.28343  24175543.879                    24175543.9344
        41.300          20.6004
 117507953.410 7  91564672.72445  22361011.203                    22361011.9524
        46.600          33.9004
 129250303.388 6 100714504.78643  24595528.656                    24595533.1574
        38.200          21.5004
 118655261.769 8  92458628.88445  22579348.651                    22579346.0224
        48.500          33.6004
 127975914.680 6  99721493.01443  24353006.038                    24353003.9124
        41.200          20.6004
 127480017.453 6  99335092.05344  24258638.698                    24258640.0174
        40.900          24.0004
 15  7  9  7  6 15.0000000  0  9G13G15G17G20G24G30G28G18G12
 109580400.970 8  85387307.68146  20852458.772                    20852456.1854
        49.600          39.3004
 109066350.937 8  84986763.68247  20754633.842                    20754630.8504
        49.800          42.3004
 115213105.580 8  89776466.11346  21924316.140                    21924313.7034
        48.900          39.1004
 127084565.390 6  99026912.21143  24183397.901                    24183397.5434
        41.400          21.3004
 117469232.444 7  91534500.56945  22353642.759                    22353643.7104
        46.900          35.1004
 129295701.955 6 100749880.20343  24604168.039                    24604171.6674
        37.400          20.1004
 118693795.135 8  92488654.86045  22586681.264                    22586679.1234
        48.000          33.6004
 127970277.679 7  99717100.53743  24351933.502                    24351931.7164
        43.000          21.5004
 127426961.470 6  99293749.77444  24248542.019                    24248543.8734
        41.000          24.7004
 15  7  9  7  6 30.0000000  0  9G13G15G17G20G24G30G28G18G12
 109612594.159 8  85412393.26346  20858584.799                    20858582.5714
        49.200          40.2004
 109069086.922 8  84988895.60247  20755153.979                    20755151.4594
        48.200          42.5004
 115193935.941 8  89761528.73346  21920667.856                    21920665.3914
        48.800          39.3004
 127125881.153 6  99059106.26243  24191260.344                    24191259.6984
        40.600          21.3004
 117430550.341 7  91504358.68345  22346281.839                    22346282.3774
        47.000          34.2004
 129341119.870 6 100785270.70543  24612810.168                    24612814.2844
        36.800          19.9004
 118732368.228 7  92518711.79245  22594020.946                    22594019.2024
        47.200          34.0004
 127964761.412 6  99712802.14843  24350883.945                    24350881.7174
        40.900          22.0004
 127373943.233 6  99252436.90144  24238453.210                    24238454.2184
        41.100          25.9004
 15  7  9  7  6 45.0000000  0  9G13G15G17G20G24G30G28G18G12
 109644910.821 8  85437575.05546  20864734.417                    20864731.8754
        48.700          39.9004
 109071963.892 7  84991137.38847  20755701.778                    20755699.1654
        47.900          42.9004
 115174896.450 8  89746692.76746  21917044.940                    21917042.2434
        49.000          38.3004
 127167237.743 6  99091332.13343  24199129.895                    24199129.5624
        39.200          21.8004
 117391907.191 8  91474247.16045  22338928.761                    22338928.4314
        48.000          35.1004
 129386557.125 5 100820676.27243  24621456.302                    24621460.3594
        35.400          19.3004
 118770980.680 7  92548799.38345  22601369.049                    22601367.2134
        47.300          33.2004
 127959365.747 7  99708597.73643  24349857.044                    24349854.7764
        42.700          22.0004
 127320962.828 7  99211153.52343  24228372.090                    24228372.4144
        43.600          23.6004
 15  7  9  7  7  0.0000000  0  9G13G15G17G20G24G30G28G18G12
 109677351.232 8  85462853.28546  20870907.685                    20870904.7674
        49.100          40.0004
 109074982.290 7  84993489.38347  20756276.347                    20756273.7564
        47.900          42.6004
 115155987.626 8  89731958.63346  21913446.532                    21913444.4884
        48.700          38.6004
 127208635.012 6  99123589.71343  24207007.461                    24207007.4894
        40.800          21.8004
 117353303.376 7  91444166.28745  22331582.389                    22331582.3434
        46.900          34.6004
 129432013.949 5 100856097.09142  24630106.542                    24630110.4034
        34.800          17.8004
 118809632.924 8  92578917.98445  22608724.403                    22608722.3324
        48.600          34.0004
 127954091.053 6  99704487.59043  24348853.198                    24348851.2814
        41.400          21.5004
 127268020.755 7  99169900.04444  24218297.325                    24218297.4014
        43.600          24.0004
 15  7  9  7  7 15.0000000  0  9G13G15G17G20G24G30G28G18G12
 109709914.713 8  85488227.40646  20877104.343                    20877101.7084
        48.600          39.6004
 109078141.720 7  84995951.26647  20756877.561                    20756874.9414
        47.900          42.5004
 115137209.264 8  89717326.15846  21909873.082                    21909871.2334
        49.000          38.5004
 127250072.076 6  99155878.28743  24214892.312                    24214891.9824
        39.500          21.7004
 117314738.566 7  91414115.80345  22324243.527                    22324243.4064
        47.500          33.8004
 129477489.931 5 100891532.85842  24638760.000                    24638763.9824
        33.700          16.9004
 118848324.168 8  92609066.97445  22616087.326                    22616085.2594
        48.400          34.0004
 127948936.778 7  99700471.26843  24347872.478                    24347869.8514
        42.600          21.1004
 127215116.756 7  99128676.22944  24208229.955                    24208230.0234
        43.400          24.4004
 15  7  9  7  7 30.0000000  0  9G13G15G17G20G24G30G28G18G12
 109742601.338 8  85513697.48646  20883324.312                    20883321.3374
        49.100          39.6004
 109081442.359 8  84998523.18447  20757505.417                    20757503.3684
        48.700          42.3004
 115118561.678 8  89702795.58246  21906324.478                    21906322.6614
        48.500          39.0004
 127291548.758 6  99188197.70543  24222785.553                    24222784.7194
        40.800          21.5004
 117276213.289 7  91384096.13945  22316912.011                    22316912.3104
        47.800          34.3004
 129522985.231 5 100926983.64142  24647418.019                    24647421.7494
        33.600          16.9004
 118887054.419 8  92639246.37445  22623457.662                    22623455.2584
        48.200          33.6004
 127943903.212 7  99696548.99943  24346914.974                    24346911.3614
        43.100          20.6004
 127162251.268 7  99087482.38644  24198169.508                    24198169.4804
        42.200          26.2004
 15  7  9  7  7 45.0000000  0  9G13G15G17G20G24G30G28G18G12
 109775410.692 8  85539263.20146  20889567.587                    20889564.9164
        49.300          39.8004
 109084884.139 8  85001205.08547  20758160.503                    20758158.1534
        48.900          42.3004
 115100044.923 8  89688366.94446  21902801.010                    21902799.2824
        49.100          38.5004
 127333064.640 6  99220547.67543  24230685.443                    24230685.0024
        40.000          21.5004
 117237727.524 7  91354107.25745  22309588.427                    22309589.0884
        46.800          34.1004
 129568499.351 5 100962449.12442  24656079.434                    24656083.2544
        33.700          17.8004
 118925823.292 8  92669455.85845  22630835.296                    22630832.2814
        49.000          33.2004
 127938990.064 7  99692720.57643  24345978.782                    24345976.9224
        42.800          20.1004
 127109424.186 7  99046318.46244  24188116.097                    24188117.5514
        42.000          25.3004
 15  7  9  7  8  0.0000000  0  9G13G15G17G20G24G30G28G18G12
 109808342.962 7  85564924.68446  20895834.748                    20895832.0524
        47.800          39.1004
 109088467.255 8  85003997.11347  20758842.468                    20758839.5934
        48.500          42.3004
 115081659.407 8  89674040.56746  21899302.581                    21899300.5574
        49.000          38.9004
 127374619.538 6  99252928.04343  24238593.029                    24238592.5174
        39.000          19.9004
 117199281.163 7  91324149.08645  22302272.099                    22302273.3214
        47.100          34.1004
 129614032.656 6 100997929.54343  24664744.953                    24664748.7124
        36.900          19.0004
 118964630.852 8  92699695.50445  22638219.931                    22638217.2444
        49.300          34.0004
 127934197.612 7  99688986.19143  24345067.578                    24345065.4164
        42.000          21.1004
 127056635.858 6  99005184.73744  24178071.020                    24178071.4914
        41.200          24.1004
 15  7  9  7  8 15.0000000  0  9G13G15G17G20G24G30G28G18G12
 109841397.269 8  85590681.26146  20902124.587                    20902121.7734
        49.100          39.3004
 109092191.081 8  85006898.79047  20759551.014                    20759548.6604
        49.800          42.7004
 115063404.691 8  89659816.13246  21895828.375                    21895826.5954
        49.600          39.2004
 127416212.275 6  99285337.93043  24246507.333                    24246507.6354
        39.600          19.0004
 117160874.316 7  91294221.70045  22294963.809                    22294964.7824
        47.100          34.8004
 129659584.515 6 101033424.39743  24673413.082                    24673416.8124
        37.900          18.3004
 119003476.181 8  92729964.56545  22645611.924                    22645609.8884
        48.800          34.0004
 127929525.257 6  99685345.40443  24344178.305                    24344175.9594
        41.200          21.7004
 127003886.108 6  98964081.09443  24168032.769                    24168033.0894
        41.400          22.6004
 15  7  9  7  8 30.0000000  0  9G13G15G17G20G24G30G28G18G12
 109874573.989 8  85616533.22646  20908438.064                    20908435.5474
        48.800          39.3004
 109096056.245 8  85009910.59247  20760286.472                    20760283.7454
        49.200          42.1004
 115045281.524 8  89645694.18146  21892379.763                    21892377.7544
        48.900          38.9004
 127457843.417 6  99317777.72543  24254429.642                    24254429.3354
        40.100          20.9004
 117122507.030 7  91264325.14445  22287663.033                    22287663.8074
        46.600          35.5004
 129705155.286 6 101068934.00943  24682083.661                    24682089.2914
        37.400          19.0004
 119042359.653 8  92760263.34245  22653011.256                    22653009.0664
        48.700          34.0004
 127924973.454 6  99681798.55543  24343312.196                    24343310.9544
        41.600          21.5004
 126951175.532 6  98923007.95644  24158002.668                    24158002.9724
        41.500          25.5004
 15  7  9  7  8 45.0000000  0  9G13G15G17G20G24G30G28G18G12
 109907872.838 8  85642480.36046  20914774.638                    20914772.2044
        48.800          39.7004
 109100062.878 8  85013032.63947  20761049.367                    20761046.4314
        49.200          42.0004
 115027290.208 8  89631674.99446  21888955.957                    21888954.2444
        49.400          38.4004
 127499512.605 6  99350247.11843  24262359.624                    24262359.7924
        40.000          20.4004
 117084180.021 7  91234459.96845  22280369.042                    22280369.9034
        46.000          34.7004
 129750745.034 6 101104458.42042  24690759.570                    24690764.6744
        37.300          17.8004
 119081281.035 8  92790591.67145  22660417.484                    22660415.9194
        49.300          34.0004
 127920542.476 7  99678345.84443  24342469.116                    24342467.7634
        42.400          21.1004
 126898504.264 7  98881965.47943  24147979.645                    24147979.7814
        42.500          22.6004
 15  7  9  7  9  0.0000000  0  9G13G15G17G20G24G30G28G18G12
 109941293.727 8  85668522.59946  20921134.086                    20921132.0504
        49.800          39.6004
 109104210.880 8  85016264.84847  20761838.752                    20761835.7554
        49.600          42.4004
 115009430.777 8  89617758.56846  21885557.275                    21885555.3884
        49.500          38.6004
 127541219.171 6  99382745.71143  24270295.945                    24270296.0984
        39.600          19.3004
 117045893.186 7  91204626.10345  22273083.360                    22273084.2634
        46.100          34.8004
 129796353.584 6 101139997.48343  24699439.261                    24699442.8434
        38.300          20.6004
 119120240.071 8  92820949.33545  22667831.540                    22667829.3244
        48.800          33.8004
 127916231.987 7  99674987.01943  24341648.788                    24341646.9834
        43.300          20.9004
 126845872.577 7  98840953.86244  24137963.617                    24137963.3164
        42.500          24.1004
 15  7  9  7  9 15.0000000  0  9G13G15G17G20G24G30G28G18G12
 109974835.310 8  85694658.87546  20927516.814                    20927514.4774
        49.100          39.1004
 109108498.884 8  85019606.14547  20762654.692                    20762651.5694
        48.800          42.1004
 114991702.364 8  89603944.21046  21882183.621                    21882181.5284
        49.300          38.5004
 127582961.610 6  99415272.21143  24278239.548                    24278240.0204
        39.900          20.6004
 117007645.291 7  91174822.58445  22265805.591                    22265806.1944
        47.000          35.3004
 129841979.759 6 101175550.29743  24708121.846                    24708125.4114
        37.700          18.6004
 119159235.383 8  92851335.26345  22675252.099                    22675250.2534
        48.300          32.9004
 127912040.845 7  99671721.17643  24340851.692                    24340849.4564
        42.300          21.8004
 126793279.282 6  98799972.16444  24127955.713                    24127955.4544
        40.700          25.6004
 15  7  9  7  9 30.0000000  0  9G13G15G17G20G24G30G28G18G12
 110008498.689 8  85720890.04546  20933923.122                    20933921.0284
        48.800          39.6004
 109112928.312 8  85023057.65747  20763497.564                    20763494.2864
        48.700          42.9004
 114974106.289 8  89590232.99746  21878835.917                    21878833.7844
        50.000          38.5004
 127624740.938 6  99447827.47443  24286190.074                    24286190.1964
        40.200          20.1004
 116969438.043 7  91145050.71445  22258534.532                    22258534.9174
        47.300          34.7004
 129887624.834 6 101211117.82343  24716807.255                    24716811.3624
        38.800          20.1004
 119198268.210 8  92881750.43745  22682679.676                    22682677.8524
        48.900          32.6004
 127907970.479 7  99668549.48243  24340076.680                    24340074.6924
        43.100          21.5004
 126740726.003 6  98759021.62644  24117955.327                    24117955.6724
        41.400          25.2004
 15  7  9  7  9 45.0000000  0  9G13G15G17G20G24G30G28G18G12
 110042283.619 8  85747215.94046  20940352.137                    20940350.0274
        49.100          39.7004
 109117499.096 8  85026619.29947  20764367.424                    20764364.2814
        49.100          42.9004
 114956642.594 8  89576624.92946  21875511.952                    21875510.1204
        50.000          39.7004
 127666556.458 6  99480410.92143  24294147.572                    24294147.2864
        39.500          20.1004
 116931271.385 7  91115310.49045  22251272.167                    22251271.8774
        47.600          35.0004
 129933288.613 6 101246699.91243  24725497.879                    24725501.0474
        40.300          21.3004
 119237338.162 8  92912194.52745  22690114.512                    22690112.5724
        48.600          33.3004
 127904020.574 7  99665471.64543  24339325.174                    24339323.6514
        42.400          21.3004
 126688212.629 6  98718102.18444  24107961.770                    24107961.8514
        41.300          25.7004
