     2.11           OBSERVATION DATA    G (GPS)             RINEX VERSION / TYPE
teqc  2015Jun23                         20151003 10:05:44UTCPGM / RUN BY / DATE
Linux2.6.32-279.el6.x86_64|x86_64|gcc|Win64-MinGW64|=       COMMENT
BIT 2 OF LLI FLAGS DATA COLLECTED UNDER A/S CONDITION       COMMENT
-Unknown-                                                   MARKER NAME
-Unknown-           -Unknown-                               OBSERVER / AGENCY
-Unknown-           -Unknown-           -Unknown-           REC # / TYPE / VERS
-Unknown-           -Unknown-                               ANT # / TYPE
        0.0000        0.0000        0.0000                  APPROX POSITION XYZ
        0.0000        0.0000        0.0000                  ANTENNA: DELTA H/E/N
     1     1                                                WAVELENGTH FACT L1/2
     7    L1    L2    C1    P1    P2    S1    S2            # / TYPES OF OBSERV
 SNR is mapped to RINEX snr flag value [0-9]                COMMENT
  L1 & L2: min(max(int(snr_dBHz/6), 0), 9)                  COMMENT
  2015     7     8     9     0    0.0000000     GPS         TIME OF FIRST OBS
                                                            END OF HEADER
 15  7  8  9  0  0.0000000  0  9G25G17G12G02G06G15G24G14G13
 125536212.888 7  97820443.96544  23888742.648                    23888746.6234
        42.700          25.3004
 119808478.188 8  93357246.54645  22798796.354                    22798794.5744
        49.300          35.4004
 109747664.206 8  85517679.31546  20884274.611                    20884271.6184
        50.800          39.3004
 129819323.396 5                  24703791.282
        33.700
 124790660.726 7  97239520.58344  23746862.331                    23746865.7824
        42.600          26.4004
 122143532.948 7  95176758.86145  23243151.847                    23243151.9744
        46.200          32.0004
 106387080.454 8  82899038.03447  20244784.767                    20244784.7024
        51.600          43.7004
 127940355.308 7  99693776.88943  24346235.407                    24346234.4314
        43.400          21.7004
 131913963.520 6 102790061.62242  25102411.944                    25102413.6184
        41.100          16.9004
 15  7  8  9  0 15.0000000  0  9G25G17G12G02G06G15G24G14G13
 125491045.479 7  97785248.63244  23880147.479                    23880151.1804
        43.700          27.3004
 119845332.594 8  93385964.23345  22805809.768                    22805808.0984
        49.000          35.3004
 109723321.817 8  85498711.24446  20879642.656                    20879639.8664
        49.900          39.3004
 129776224.477 5                  24695591.327
        34.900
 124755212.197 7  97211898.41344  23740116.432                    23740119.9524
        43.300          27.4004
 122193198.848 7  95215459.50945  23252602.250                    23252602.5974
        46.500          31.2004
 106380728.013 8  82894088.08247  20243575.846                    20243575.6424
        51.300          44.0004
 127897420.277 7  99660321.05543  24338064.419                    24338063.7114
        43.500          21.3004
 131973810.009 6 102836695.18142  25113799.755                    25113801.8424
        40.600          17.4004
 15  7  8  9  0 30.0000000  0  9G25G17G12G02G06G15G24G14G13
 125445910.759 7  97750078.78044  23871558.813                    23871561.8654
        43.200          24.2004
 119882274.701 8  93414750.25745  22812839.585                    22812837.6704
        48.600          35.1004
 109699060.399 8  85479806.26446  20875025.799                    20875023.1864
        49.400          39.2004
 129733124.247 5                  24687388.852
        34.300
 124719843.396 7  97184338.37344  23733385.691                    23733388.9434
        43.200          28.1004
 122242909.824 7  95254195.29145  23262061.786                    23262062.2114
        45.500          31.3004
 106374485.148 8  82889223.51447  20242387.971                    20242387.8704
        52.400          43.6004
 127854564.697 7  99626927.12943  24329910.398                    24329908.4614
        43.000          20.6004
 132033649.329 6 102883323.07742  25125186.299                    25125189.1434
        40.300          16.9004
 15  7  8  9  0 45.0000000  0  9G25G17G12G02G06G15G24G14G13
 125400809.819 6  97714935.23044  23862975.736                    23862978.7694
        41.200          24.7004
 119919305.373 7  93443605.29745  22819885.923                    22819884.6224
        47.800          34.9004
 109674880.999 8  85460965.19146  20870424.629                    20870422.2494
        49.500          39.1004
 129690024.188 5                  24679186.918
        34.100
 124684555.727 7  97156841.54844  23726671.435                    23726673.7074
        42.400          28.3004
 122292666.787 7  95292966.88945  23271530.944                    23271531.0894
        45.500          31.0004
 106368353.204 8  82884445.37647  20241220.877                    20241220.6744
        51.900          43.7004
 127811790.002 7  99593596.22343  24321770.228                    24321768.6544
        43.000          20.9004
 132093482.373 6 102929946.17842  25136572.682                    25136574.6224
        40.800          16.3004
 15  7  8  9  1  0.0000000  0  9G25G17G12G02G06G15G24G14G13
 125355742.382 7  97679817.80144  23854399.663                    23854402.9414
        42.000          26.5004
 119956424.013 7  93472528.88345  22826948.950                    22826947.8514
        47.000          34.6004
 109650783.149 8  85442187.65546  20865838.761                    20865836.5874
        50.500          38.9004
 129646924.277 5                  24670985.647
        35.000
 124649349.100 7  97129407.88244  23719970.888                    23719974.2824
        44.100          28.0004
 122342468.745 7  95331773.55845  23281007.776                    23281007.8774
        46.600          31.4004
 106362331.763 8  82879753.35047  20240074.969                    20240074.7244
        51.800          43.3004
 127769096.080 7  99560328.24143  24313646.047                    24313644.4024
        42.600          19.3004
 132153308.308 6 102976563.73842  25147957.362                    25147959.7354
        41.000          17.4004
 15  7  8  9  1 15.0000000  0  9G25G17G12G02G06G15G24G14G13
 125310707.675 7  97644725.85944  23845830.605                    23845832.8874
        42.700          25.0004
 119993629.449 8  93501520.09845  22834029.413                    22834027.7644
        48.600          34.2004
 109626766.181 8  85423473.15246  20861268.696                    20861266.6394
        50.300          39.3004
 129603823.924 5                  24662783.955
        35.100
 124614223.128 7  97102037.05344  23713287.469                    23713290.2284
        43.900          29.4004
 122392314.648 7  95370614.48045  23290493.428                    23290492.8944
        46.200          31.5004
 106356420.134 8  82875146.88747  20238950.182                    20238949.9854
        51.700          43.4004
 127726482.484 7  99527122.85443  24305536.191                    24305534.1474
        42.500          20.1004
 132213126.097 6 103023174.89242  25159340.071                    25159342.9454
        40.500          15.6004
 15  7  8  9  1 30.0000000  0  9G25G17G12G02G06G15G24G14G13
 125265706.575 7  97609660.11144  23837266.195                    23837269.6434
        43.200          26.1004
 120030922.187 7  93530579.34645  22841126.192                    22841124.1274
        47.400          34.2004
 109602830.819 8  85404822.25146  20856713.637                    20856712.0574
        50.000          39.1004
 129560724.150 5                  24654582.393
        34.800
 124579178.881 7  97074729.90944  23706618.572                    23706621.9334
        43.400          28.2004
 122442204.794 7  95409489.87245  23299986.968                    23299986.7044
        46.100          31.4004
 106350619.470 8  82870626.89047  20237846.475                    20237846.1354
        52.500          43.6004
 127683950.121 7  99493980.76143  24297442.977                    24297439.7674
        42.200          19.0004
 132272936.079 6 103069779.98642  25170721.633                    25170725.0094
        38.300          13.9004
 15  7  8  9  1 45.0000000  0  9G25G17G12G02G06G15G24G14G13
 125220738.863 7  97574620.35743  23828710.226                    23828711.7864
        42.400          23.2004
 120068301.606 7  93559706.14345  22848239.366                    22848237.1344
        47.300          33.9004
 109578976.842 8  85386234.75546  20852174.739                    20852172.4274
        50.200          39.3004
 129517625.057 6                  24646379.835
        36.800
 124544216.583 6  97047486.63044  23699965.211                    23699968.5234
        41.500          29.3004
 122492138.711 7  95448399.36545  23309489.090                    23309489.1104
        46.600          30.4004
 106344929.444 8  82866193.11047  20236763.656                    20236763.4214
        51.500          43.5004
 127641499.126 6  99460902.08043  24289364.445                    24289361.2544
        41.900          19.0004
 132332737.824 6 103116378.63642  25182101.343                    25182104.7884
        38.900          15.6004
 15  7  8  9  2  0.0000000  0  9G25G17G12G02G06G15G24G14G13
 125175803.801 6  97539606.07643  23820158.271                    23820160.9714
        40.900          22.6004
 120105766.777 8  93588899.74845  22855368.751                    22855366.8274
        48.000          34.0004
 109555203.487 8  85367710.07946  20847650.406                    20847648.2524
        50.100          39.4004
 129474526.274 6                  24638178.797
        37.100
 124509335.733 7  97020306.82044  23693327.090                    23693331.2714
        42.600          27.2004
 122542115.181 7  95487342.01345  23318999.222                    23319000.0244
        46.400          30.9004
 106339349.178 8  82861844.85447  20235701.666                    20235701.3474
        51.800          43.4004
 127599129.176 7  99427886.57942  24281301.872                    24281298.2364
        42.200          17.8004
 132392530.165 6 103162969.92742  25193480.171                    25193482.5834
        38.800          14.8004
 15  7  8  9  2 15.0000000  0  9G25G17G12G02G06G15G24G14G13
 125130903.242 6  97504618.73343  23811613.439                    23811616.8044
        39.900          22.5004
 120143319.090 7  93618161.25745  22862514.680                    22862512.8984
        46.300          33.1004
 109531512.545 8  85349249.62346  20843142.322                    20843139.8324
        49.900          39.1004
 129431429.845 6                  24629978.024
        37.500
 124474538.439 7  96993192.12844  23686705.777                    23686709.3434
        42.600          29.3004
 122592135.687 7  95526318.97245  23328517.930                    23328518.2044
        47.100          30.8004
 106333881.027 8  82857583.95847  20234661.261                    20234660.5614
        51.300          43.3004
 127556842.169 6  99394935.70443  24273254.427                    24273252.1984
        41.900          18.6004
 132452314.738 6 103209555.20042  25204856.029                    25204859.2804
        36.700          16.9004
 15  7  8  9  2 30.0000000  0  9G25G17G12G02G06G15G24G14G13
 125086037.511 6  97469658.44043  23803076.824                    23803079.1774
        39.800          22.5004
 120180958.441 8  93647490.59245  22869677.169                    22869675.2934
        48.100          33.0004
 109507904.203 8  85330853.52546  20838649.896                    20838647.0454
        51.700          39.1004
 129388336.411 6                  24621776.994
        38.100
 124439825.355 7  96966143.02144  23680099.604                    23680103.6714
        42.900          28.5004
 122642200.013 7  95565330.08545  23338045.101                    23338045.2704
        46.200          31.4004
 106328525.055 8  82853410.46747  20233642.116                    20233641.8374
        52.700          43.2004
 127514638.657 6  99362049.86243  24265222.873                    24265221.2534
        41.000          19.9004
 132512091.428 5 103256134.34642  25216232.192                    25216234.5154
        35.900          15.6004
 15  7  8  9  2 45.0000000  0  9G25G17G12G02G06G15G24G14G13
 125041204.310 6  97434723.50643  23794544.607                    23794546.6144
        40.600          22.2004
 120218682.152 7  93676885.67045  22876855.619                    22876853.7984
        46.400          32.4004
 109484376.295 8  85312520.10346  20834172.920                    20834169.6504
        50.300          39.4004
 129345243.826 6                  24613577.664
        38.000
 124405194.479 7  96939157.98444  23673509.422                    23673513.3024
        43.000          29.7004
 122692306.160 7  95604373.77245  23347579.850                    23347580.0024
        46.100          31.0004
 106323279.215 8  82849322.81147  20232643.846                    20232643.2654
        51.800          43.6004
 127472516.606 6  99329227.54143  24257207.575                    24257205.9844
        40.600          19.6004
 132571857.415 5 103302705.18042  25227605.618                    25227608.1074
        35.800          14.8004
 15  7  8  9  3  0.0000000  0  9G25G17G12G02G06G15G24G14G13
 124996405.363 6  97399815.29543  23786020.370                    23786020.7924
        41.800          22.5004
 120256491.601 7  93706347.53745  22884050.336                    22884048.4744
        45.700          31.5004
 109460930.332 8  85294250.53246  20829711.438                    20829707.7394
        51.000          40.0004
 129302154.158 5                  24605377.023
        35.600
 124370647.833 7  96912238.57244  23666936.058                    23666939.2874
        42.500          28.8004
 122742454.545 7  95643450.38245  23357122.644                    23357123.2934
        46.200          30.8004
 106318145.196 8  82845322.28547  20231666.821                    20231666.3924
        51.400          43.5004
 127430477.989 6  99296470.19143  24249207.751                    24249205.9844
        40.600          18.3004
 132631614.117 6 103349268.66742  25238976.617                    25238979.7104
        36.500          14.8004
 15  7  8  9  3 15.0000000  0  9G25G17G12G02G06G15G24G14G13
 124951640.526 7  97364933.65244  23777500.851                    23777502.7634
        42.400          24.2004
 120294386.239 7  93735875.79945  22891261.995                    22891260.1644
        45.300          31.5004
 109437566.042 8  85276044.59146  20825265.278                    20825261.7614
        50.800          39.2004
 129259067.324 5                  24597178.759
        35.600
 124336185.508 7  96885384.84944  23660378.162                    23660380.0124
        44.900          28.9004
 122792644.619 7  95682559.46945  23366674.234                    23366674.6654
        46.400          31.3004
 106313122.885 8  82841408.79547  20230711.306                    20230710.6704
        51.700          44.2004
 127388522.955 6  99263778.00042  24241224.349                    24241222.3724
        41.100          17.8004
 132691360.945 5 103395824.66342  25250346.090                    25250349.5154
        35.400          14.8004
 15  7  8  9  3 30.0000000  0  8G25G17G12G02G06G15G24G14
 124906908.531 7  97330077.60944  23768989.594                    23768991.1714
        42.100          24.9004
 120332364.562 7  93765469.26845  22898488.699                    22898487.0244
        45.000          31.6004
 109414282.290 8  85257901.42346  20820834.174                    20820831.2754
        51.100          39.2004
 129215982.426 5                  24588978.948
        33.900
 124301806.550 7  96858596.09644  23653835.903                    23653838.5854
        44.600          29.6004
 122842874.843 7  95721699.85245  23376232.580                    23376232.5724
        46.800          31.1004
 106308211.237 8  82837581.53847  20229776.366                    20229776.4814
        52.300          44.0004
 127346650.424 6  99231150.09243  24233255.650                    24233254.7194
        40.200          18.6004
 15  7  8  9  3 45.0000000  0  8G25G17G12G02G06G15G24G14
 124862211.345 6  97295248.68743  23760483.520                    23760484.8644
        41.600          22.8004
 120370428.112 7  93795129.13945  22905731.363                    22905730.7394
        44.600          31.4004
 109391080.889 8  85239822.42746  20816419.194                    20816415.9294
        51.100          39.0004
 129172901.672 5                  24580781.247
        33.300
 124267513.227 7  96831874.06844  23647309.780                    23647312.6664
        42.400          28.5004
 122893146.970 7  95760872.89945  23385799.066                    23385799.1914
        47.600          31.7004
 106303412.006 8  82833841.87947  20228863.082                    20228862.7794
        50.200          44.2004
 127304862.568 6  99198588.20043  24225303.440                    24225302.9574
        40.900          19.3004
 15  7  8  9  4  0.0000000  0  8G25G17G12G02G06G15G24G14
 124817548.399 6  97260446.44843  23751984.066                    23751986.7444
        40.500          23.6004
 120408576.113 7  93824854.82845  22912990.841                    22912990.4324
        45.000          30.4004
 109367961.326 8  85221807.19846  20812019.441                    20812016.7484
        51.400          39.1004
 129129824.736 5                  24572583.817
        33.300
 124233305.348 7  96805218.63145  23640800.795                    23640803.5334
        42.800          30.2004
 122943460.005 7  95800077.80545  23395373.234                    23395373.4404
        47.300          31.7004
 106298725.062 8  82830189.71447  20227971.290                    20227971.5294
        51.500          43.9004
 127263159.245 6  99166092.13143  24217367.709                    24217367.5254
        40.500          18.6004
 15  7  8  9  4 15.0000000  0  8G25G17G12G02G06G15G24G14
 124772919.242 6  97225670.53743  23743491.336                    23743494.5564
        39.600          23.8004
 120446807.544 7  93854645.51145  22920266.056                    22920265.2204
        44.600          31.5004
 109344922.961 8  85203855.24046  20807635.552                    20807632.7974
        50.800          39.2004
 129086751.605 5                  24564385.454
        31.300
 124199182.656 7  96778629.56644  23634307.537                    23634310.0604
        43.900          28.7004
 122993812.969 7  95839313.84345  23404955.381                    23404955.1914
        47.000          32.0004
 106294149.462 8  82826624.31647  20227100.348                    20227100.1414
        51.200          43.3004
 127221540.047 6  99133661.65343  24209447.396                    24209447.2594
        40.700          19.3004
 15  7  8  9  4 30.0000000  0  8G25G17G12G02G06G15G24G14
 124728324.739 6  97190921.62344  23735005.178                    23735008.8364
        38.400          24.3004
 120485123.003 7  93884501.68245  22927557.284                    22927557.1074
        45.600          31.1004
 109321966.633 8  85185967.20146  20803266.967                    20803264.4414
        50.200          39.2004
 129043683.249 5                  24556189.334
        30.500
 124165146.371 7  96752107.82644  23627830.090                    23627833.4644
        42.500          29.8004
 123044206.423 7  95878581.41445  23414544.752                    23414544.9224
        47.400          30.8004
 106289686.429 8  82823146.62247  20226251.279                    20226251.2894
        51.200          43.5004
 127180006.096 6  99101297.55843  24201544.284                    24201543.6344
        41.100          19.9004
 15  7  8  9  4 45.0000000  0  8G25G17G12G02G06G15G24G14
 124683764.378 6  97156199.29044  23726525.967                    23726529.4394
        40.200          24.8004
 120523521.526 7  93914422.57145  22934864.812                    22934864.0434
        45.100          30.7004
 109299091.733 8  85168142.60546  20798914.249                    20798911.8364
        50.900          39.3004
 129000619.520 5                  24547997.671
        33.000
 124131196.089 6  96725653.11144  23621369.501                    23621372.5404
        41.800          29.4004
 123094639.340 7  95917879.75645  23424141.514                    23424141.7534
        45.900          30.5004
 106285335.449 8  82819756.24947  20225423.179                    20225423.1094
        50.900          43.1004
 127138557.116 6  99068999.69543  24193657.009                    24193656.3324
        40.500          19.9004
 15  7  8  9  5  0.0000000  0  8G25G17G12G02G06G15G24G14
 124639237.980 6  97121503.46244  23718053.205                    23718056.7904
        40.100          25.5004
 120562002.751 7  93944407.92245  22942187.110                    22942186.9504
        45.600          30.9004
 109276298.144 8  85150381.37446  20794576.907                    20794574.1254
        51.700          39.8004
 128957520.33615                  24539800.206
        31.900
 124097332.172 7  96699265.69644  23614924.785                    23614928.7044
        42.200          29.8004
 123145111.322 7  95957208.51544  23433746.174                    23433746.1084
        45.700          29.8004
 106281096.240 8  82816452.96947  20224616.415                    20224616.4654
        51.500          43.6004
 127097193.212 6  99036768.11943  24185785.396                    24185785.2024
        41.600          19.9004
 15  7  8  9  5 15.0000000  0  8G25G17G12G02G06G15G24G14
 124594745.890 6  97086834.37144  23709586.218                    23709590.8144
        41.500          25.8004
 120600566.455 7  93974457.53745  22949525.988                    22949525.3984
        45.700          30.6004
 109253586.155 8  85132683.72846  20790255.098                    20790251.6574
        51.100          40.1004
 128914466.350 5                  24531610.120
        32.800
 124063555.089 6  96672945.95444  23608497.998                    23608501.0074
        41.600          28.5004
 123195622.032 7  95996567.46045  23443358.468                    23443358.2074
        47.400          30.9004
 106276969.269 8  82813237.14447  20223831.122                    20223830.7564
        51.100          43.3004
 127055914.975 6  99004603.29243  24177930.717                    24177930.2724
        41.700          21.5004
 15  7  8  9  5 30.0000000  0  8G25G17G12G02G06G15G24G14
 124550289.258 7  97052192.89844  23701126.299                    23701130.0964
        42.000          26.4004
 120639213.449 7  94004572.05545  22956880.383                    22956879.2504
        44.800          30.6004
 109230956.796 8  85115050.46846  20785948.931                    20785945.3974
        50.900          39.7004
 128871419.108 5                  24523416.535
        31.900
 124029866.355 7  96646695.02944  23602086.731                    23602090.3854
        42.300          28.7004
 123246172.245 7  96035957.17745  23452977.361                    23452978.1724
        47.100          30.2004
 106272955.900 8  82810109.84247  20223067.716                    20223067.2114
        51.400          44.2004
 127014723.708 7  98972506.23143  24170091.362                    24170092.0964
        42.500          22.3004
 15  7  8  9  5 45.0000000  0  8G25G17G12G02G06G15G24G14
 124505867.078 7  97017578.25844  23692673.079                    23692676.2884
        42.000          25.8004
 120677942.395 7  94034750.42244  22964249.768                    22964248.6374
        45.300          29.7004
 109208409.053 8  85097480.80846  20781658.155                    20781655.1774
        51.100          39.1004
 128828377.646 5                  24515227.680
        33.400
 123996265.179 7  96620512.36045  23595693.067                    23595696.2194
        43.300          30.2004
 123296760.615 7  96075376.64045  23462604.587                    23462604.5984
        46.500          30.4004
 106269054.936 8  82807070.12547  20222325.328                    20222324.7344
        51.900          43.8004
 126973618.728 7  98940476.41743  24162270.151                    24162269.9994
        42.200          22.0004
 15  7  8  9  6  0.0000000  0  8G25G17G12G02G06G15G24G14
 124461478.752 6  96982990.00144  23684225.566                    23684229.2484
        41.800          24.7004
 120716752.481 7  94064992.02345  22971635.381                    22971633.8134
        45.600          30.6004
 109185942.289 8  85079974.24946  20777382.453                    20777379.6664
        50.500          38.8004
 128785341.717 5                  24507037.441
        34.400
 123962751.364 7  96594397.73244  23589314.944                    23589318.4804
        43.000          29.8004
 123347386.204 7  96114825.08544  23472237.912                    23472238.5194
        46.700          29.7004
 106265265.928 8  82804117.64947  20221604.036                    20221603.8734
        51.600          43.9004
 126932599.739 7  98908513.61143  24154464.926                    24154464.4054
        43.200          21.8004
 15  7  8  9  6 15.0000000  0  8G25G17G12G02G06G15G24G14
 124417126.372 7  96948429.74244  23675786.642                    23675789.0354
        42.600          26.0004
 120755645.304 7  94095298.10745  22979036.305                    22979035.2394
        45.300          31.0004
 109163558.474 8  85062532.32946  20773122.743                    20773120.1954
        49.900          38.8004
 128742313.762 5                  24498848.568
        34.100
 123929327.226 7  96568352.99845  23582954.943                    23582957.7404
        43.400          30.2004
 123398050.687 7  96154303.85844  23481879.460                    23481879.4854
        46.300          29.7004
 106261591.228 8  82801254.24947  20220904.835                    20220904.5344
        51.000          43.9004
 126891668.997 7  98876619.57643  24146676.392                    24146675.6884
        43.200          23.9004
 15  7  8  9  6 30.0000000  0  8G25G17G12G02G06G15G24G14
 124372808.484 7  96913896.35344  23667352.874                    23667354.3644
        42.300          24.5004
 120794619.085 7  94125667.24545  22986452.912                    22986451.1544
        44.100          30.0004
 109141256.160 8  85045153.91646  20768878.776                    20768876.0344
        50.200          38.6004
 128699292.471 5                  24490664.357
        34.100
 123895991.599 6  96542377.20944  23576611.340                    23576614.2464
        41.800          29.3004
 123448752.085 7  96193811.37244  23491527.272                    23491527.7124
        46.900          29.9004
 106258029.114 8  82798478.57947  20220226.989                    20220226.9404
        50.700          43.5004
 126850825.239 7  98844793.32343  24138903.249                    24138902.7794
        43.200          23.0004
 15  7  8  9  6 45.0000000  0  8G25G17G12G02G06G15G24G14
 124328525.494 7  96879390.18044  23658926.324                    23658927.0394
        42.400          24.1004
 120833673.902 7  94156099.55145  22993884.648                    22993883.5694
        45.400          30.6004
 109119035.673 8  85027839.25446  20764650.780                    20764648.0134
        50.700          38.6004
 128656278.621 5                  24482478.252
        35.100
 123862745.246 7  96516470.99844  23570284.458                    23570288.1124
        43.100          29.5004
 123499490.377 7  96233347.64445  23501182.364                    23501183.7854
        46.300          30.5004
 106254580.438 8  82795791.29647  20219570.465                    20219570.5494
        51.000          44.3004
 126810069.220 7  98813035.40544  24131148.077                    24131147.1674
        43.500          25.1004
 15  7  8  9  7  0.0000000  0  8G25G17G12G02G06G15G24G14
 124284277.618 7  96844911.33544  23650505.987                    23650507.3804
        42.300          25.1004
 120872809.331 7  94186594.66245  23001332.334                    23001330.5044
        45.100          31.6004
 109096897.104 8  85010588.41546  20760438.013                    20760435.4124
        50.600          38.9004
 128613272.646 6                  24474294.259
        36.100
 123829588.501 7  96490634.61944  23563975.071                    23563978.5054
        42.800          29.2004
 123550265.336 7  96272912.47545  23510845.177                    23510845.7904
        46.700          30.6004
 106251245.082 8  82793192.31147  20218936.001                    20218936.2744
        50.700          42.9004
 126769401.231 7  98781346.12143  24123408.772                    24123408.3874
        43.400          23.5004
 15  7  8  9  7 15.0000000  0  8G25G17G12G02G06G15G24G14
 124240064.699 7  96810459.74343  23642092.833                    23642094.1474
        42.200          23.9004
 120912025.084 7  94217152.36545  23008794.916                    23008792.9404
        46.300          30.6004
 109074840.188 8  84993401.21646  20756240.707                    20756238.1384
        50.900          39.5004
 128570274.484 6                  24466112.776
        37.500
 123796521.601 6  96464868.22444  23557682.121                    23557685.7864
        40.900          29.2004
 123601076.429 7  96312505.48045  23520514.086                    23520515.0384
        47.000          30.4004
 106248023.093 8  82790681.67547  20218322.819                    20218322.9884
        51.700          43.3004
 126728821.449 7  98749725.55343  24115687.048                    24115685.9494
        43.200          22.2004
 15  7  8  9  7 30.0000000  0  8G25G17G12G02G06G15G24G14
 124195885.993 6  96776034.79643  23633686.007                    23633687.3034
        40.200          22.6004
 120951320.062 7  94247771.80345  23016272.681                    23016269.6944
        47.200          30.8004
 109052864.391 8  84976277.22146  20752058.797                    20752055.7734
        50.700          39.4004
 128527283.832 6                  24457932.121
        37.300
 123763544.168 6  96439171.55144  23551407.156                    23551410.8994
        41.800          28.6004
 123651922.610 7  96352125.81545  23530190.070                    23530190.4144
        47.100          30.6004
 106244913.798 8  82788258.84447  20217731.709                    20217730.9794
        51.800          43.7004
 126688329.361 7  98718173.29943  24107981.737                    24107980.4944
        43.200          22.5004
 15  7  8  9  7 45.0000000  0  8G25G17G12G02G06G15G24G14
 124151742.827 6  96741637.55643  23625285.693                    23625286.9344
        39.600          22.5004
 120990695.159 7  94278453.67145  23023765.203                    23023762.8164
        47.500          31.0004
 109030970.669 8  84959217.19846  20747892.324                    20747889.2524
        50.500          40.2004
 128484302.212 6                  24449753.136
        36.000
 123730657.602 6  96413545.71844  23545148.352                    23545151.9964
        41.100          28.9004
 123702804.620 7  96391774.07845  23539872.576                    23539873.6754
        47.500          31.3004
 106241918.526 8  82785924.86547  20217161.344                    20217160.9524
        51.400          43.5004
 126647926.399 7  98686690.51343  24100292.818                    24100291.6484
        43.500          22.5004
 15  7  8  9  8  0.0000000  0  8G25G17G12G02G06G15G24G14
 124107634.209 6  96707267.23643  23616890.328                    23616893.4694
        39.500          21.5004
 121030149.151 8  94309197.03045  23031273.143                    23031270.7584
        48.100          31.6004
 109009158.277 8  84942220.54546  20743741.870                    20743738.7864
        50.700          39.8004
 128441329.059 6                  24441575.033
        36.300
 123697861.406 6  96387990.26244  23538907.846                    23538911.2384
        40.900          28.3004
 123753721.339 7  96431449.38445  23549561.824                    23549562.9154
        47.400          30.9004
 106239036.343 8  82783679.00547  20216612.962                    20216612.8644
        52.300          43.3004
 126607612.142 7  98655276.84343  24092621.235                    24092619.5104
        43.800          21.7004
 15  7  8  9  8 15.0000000  0  8G25G17G12G02G06G15G24G14
 124063560.391 6  96672924.08143  23608504.100                    23608507.0654
        40.700          23.5004
 121069681.845 8  94340001.70645  23038796.184                    23038793.3274
        48.100          32.0004
 108987427.314 8  84925287.34246  20739606.187                    20739603.3754
        51.600          39.6004
 128398364.674 5                  24433398.999
        35.500
 123665156.036 7  96362505.59744  23532684.545                    23532688.3864
        42.100          29.1004
 123804672.553 7  96471151.56945  23559257.406                    23559258.5974
        47.500          31.2004
 106236267.396 8  82781521.37747  20216086.022                    20216085.5554
        51.300          44.1004
 126567386.805 7  98623932.42843  24084966.979                    24084964.2644
        43.700          21.8004
 15  7  8  9  8 30.0000000  0  8G25G17G12G02G06G15G24G14
 124019523.846 6  96638609.94844  23600124.473                    23600127.2724
        41.100          25.5004
 121109295.316 8  94370869.32945  23046334.532                    23046332.1604
        48.100          32.2004
 108965780.060 8  84908419.35646  20735487.002                    20735483.9964
        51.400          40.1004
 128355411.804 6                  24425225.465
        36.200
 123632544.213 7  96337093.83644  23526478.441                    23526482.1234
        42.600          29.6004
 123855660.156 8  96510882.11245  23568959.942                    23568961.3544
        48.000          30.6004
 106233614.367 8  82779454.08347  20215581.170                    20215581.0824
        51.900          43.9004
 126527253.198 7  98592659.51543  24077329.616                    24077327.2454
        42.600          20.6004
 15  7  8  9  8 45.0000000  0  8G25G17G12G02G06G15G24G14
 123975522.170 7  96604322.98744  23591751.753                    23591754.0154
        42.000          24.9004
 121148986.832 7  94401797.76545  23053887.196                    23053884.5174
        47.800          32.5004
 108944214.199 8  84891614.79646  20731383.455                    20731379.9924
        51.600          39.8004
 128312468.370 5                  24417053.374
        35.800
 123600023.844 6  96311753.32544  23520289.791                    23520293.7074
        41.900          29.8004
 123906681.246 7  96550638.74545  23578669.617                    23578670.0004
        47.600          30.9004
 106231074.679 8  82777475.10547  20215097.680                    20215097.6644
        50.800          43.9004
 126487209.081 6  98561456.31343  24069708.993                    24069707.1654
        41.900          21.3004
 15  7  8  9  9  0.0000000  0  8G25G17G12G02G06G15G24G14
 123931555.960 7  96570063.62944  23583384.521                    23583388.0564
        42.200          24.7004
 121188756.649 7  94432787.21045  23061455.086                    23061452.9214
        47.600          32.6004
 108922730.183 8  84874874.01046  20727294.816                    20727291.8144
        51.000          39.9004
 128269535.253 6                  24408883.406
        36.500
 123567595.808 7  96286484.74844  23514119.983                    23514122.9364
        42.400          29.4004
 123957736.048 7  96590421.64445  23588384.532                    23588385.7504
        47.600          30.9004
 106228649.105 8  82775585.03947  20214635.863                    20214635.8064
        51.100          43.9004
 126447255.308 6  98530323.56643  24062105.439                    24062104.8484
        41.600          20.1004
 15  7  8  9  9 15.0000000  0  8G25G17G12G02G06G15G24G14
 123887626.202 6  96535832.71344  23575025.215                    23575028.8544
        41.800          25.0004
 121228605.364 8  94463838.14045  23069038.313                    23069035.9654
        48.100          32.5004
 108901329.040 8  84858197.80746  20723222.100                    20723219.4884
        50.600          39.8004
 128226613.608 6                  24400715.388
        36.600
 123535261.412 7  96261289.14545  23507966.833                    23507969.1644
        42.900          30.2004
 124008825.313 7  96630231.40445  23598106.599                    23598107.7484
        46.700          30.1004
 106226338.971 8  82773784.94247  20214196.409                    20214196.1904
        50.900          43.4004
 126407393.097 6  98499262.10843  24054521.127                    24054519.0454
        41.100          19.9004
 15  7  8  9  9 30.0000000  0  8G25G17G12G02G06G15G24G14
 123843731.633 7  96501629.18644  23566671.843                    23566675.6494
        42.100          25.4004
 121268531.315 7  94494949.24045  23076635.685                    23076633.9534
        47.400          32.0004
 108880009.392 8  84841585.10746  20719165.189                    20719162.5874
        50.400          40.1004
 128183702.566 6                  24392549.315
        36.000
 123503019.600 7  96236165.67445  23501831.664                    23501833.9844
        43.400          30.1004
 124059947.230 7  96670066.61645  23607835.069                    23607835.8654
        47.000          30.6004
 106224142.606 8  82772073.48147  20213778.385                    20213778.4354
        51.000          43.9004
 126367621.447 6  98468271.25443  24046952.500                    24046951.5294
        40.200          20.9004
 15  7  8  9  9 45.0000000  0  8G25G17G12G02G06G15G24G14
 123799873.321 7  96467453.92244  23558326.415                    23558329.3634
        42.600          25.6004
 121308535.233 7  94526121.09945  23084248.614                    23084246.2554
        47.000          31.4004
 108858772.211 8  84825036.67346  20715123.976                    20715120.8034
        51.100          40.1004
 128140803.382 6                  24384386.455
        37.600
 123470871.758 7  96211115.43444  23495713.424                    23495715.9574
        43.200          29.3004
 124111102.409 7  96709927.74744  23617569.123                    23617570.3374
        46.600          29.6004
 106222061.160 8  82770451.57147  20213382.475                    20213382.1034
        51.500          43.8004
 126327941.658 6  98437351.94843  24039401.615                    24039400.2504
        39.500          19.6004
 15  7  8  9 10  0.0000000  0  8G25G17G12G02G06G15G24G14
 123756051.397 7  96433306.99544  23549987.673                    23549989.7734
        43.100          26.0004
 121348616.833 7  94557353.47945  23091875.663                    23091873.7514
        47.400          31.4004
 108837617.574 8  84808552.55346  20711098.207                    20711095.5554
        51.700          40.6004
 128097916.407 6                  24376224.910
        36.100
 123438818.227 7  96186138.68344  23489613.690                    23489616.7694
        42.200          29.3004
 124162290.635 7  96749814.60945  23627309.911                    23627311.0954
        47.300          30.3004
 106220095.024 8  82768919.51347  20213008.536                    20213007.7534
        51.400          44.1004
 126288353.906 6  98406504.37743  24031867.918                    24031866.7034
        38.000          19.6004
 15  7  8  9 10 15.0000000  0  8G25G17G12G02G06G15G24G14
 123712263.882 7  96399186.89344  23541655.428                    23541656.7124
        43.400          25.6004
 121388773.743 7  94588644.54745  23099517.567                    23099515.3264
        47.600          32.3004
 108816543.475 8  84792131.18346  20707088.387                    20707085.3434
        51.600          40.6004
 128055040.087 5                  24368064.256
        33.900
 123406857.413 7  96161234.16744  23483531.537                    23483535.0674
        42.100          29.1004
 124213509.561 7  96789725.40945  23637056.833                    23637057.5864
        47.500          30.1004
 106218241.985 8  82767475.58947  20212655.685                    20212655.4754
        51.600          43.8004
 126248856.847 6  98375727.48643  24024350.601                    24024350.5504
        37.400          18.3004
 15  7  8  9 10 30.0000000  0  8G25G17G12G02G06G15G24G14
 123668511.997 7  96365094.54244  23533329.345                    23533330.5164
        44.100          24.2004
 121429007.093 7  94619995.18645  23107173.147                    23107171.0604
        47.600          32.8004
 108795551.100 8  84775773.49846  20703093.562                    20703090.9694
        51.800          40.6004
 128012175.827 5                  24359908.362
        34.700
 123374990.800 7  96136403.08244  23477467.656                    23477471.2024
        43.000          29.7004
 124264759.973 7  96829660.73445  23646809.327                    23646810.2324
        47.400          30.1004
 106216503.595 8  82766121.00247  20212324.859                    20212324.5874
        50.700          43.3004
 126209451.607 6  98345022.14042  24016852.292                    24016851.2394
        37.200          16.9004
 15  7  8  9 10 45.0000000  0  8G25G17G12G02G06G15G24G14
 123624796.879 7  96331030.84244  23525010.683                    23525012.2204
        43.600          25.2004
 121469317.526 7  94651405.89545  23114844.189                    23114842.2214
        47.200          31.9004
 108774641.488 8  84759480.30446  20699114.563                    20699111.6404
        51.200          40.3004
 127969325.045 5                  24351756.107
        35.100
 123343219.794 7  96111646.48844  23471422.004                    23471425.0934
        42.500          29.4004
 124316042.532 7  96869621.11645  23656568.147                    23656569.0244
        47.000          30.1004
 106214880.926 8  82764856.58247  20212016.013                    20212015.9974
        51.200          43.6004
 126170139.646 6  98314389.48442  24009372.699                    24009370.5924
        37.700          17.8004
 15  7  8  9 11  0.0000000  0  8G25G17G12G02G06G15G24G14
 123581117.500 7  96296994.98244  23516698.650                    23516700.6974
        42.700          25.2004
 121509703.596 7  94682875.54045  23122529.310                    23122527.6594
        46.900          32.1004
 108753813.529 8  84743250.73546  20695151.101                    20695148.6754
        50.600          41.0004
 127926486.908 5                  24343602.892
        35.600
 123311543.639 7  96086963.78445  23465394.146                    23465397.1324
        42.900          30.7004
 124367356.016 7  96909605.58444  23666333.045                    23666334.3704
        47.300          29.7004
 106213372.901 8  82763681.49747  20211728.998                    20211729.0134
        51.800          43.5004
 126130920.231 6  98283828.92942  24001908.964                    24001908.2514
        39.200          17.4004
 15  7  8  9 11 15.0000000  0  8G25G17G12G02G06G15G24G14
 123537475.181 6  96262988.02644  23508392.915                    23508395.5404
        41.900          24.6004
 121550166.265 7  94714404.88045  23130229.667                    23130227.7084
        47.000          31.1004
 108733068.603 8  84727085.88346  20691203.536                    20691200.8074
        51.500          40.5004
 127883663.300 5                  24335454.132
        35.400
 123279963.935 7  96062356.24345  23459385.271                    23459387.4614
        42.500          30.7004
 124418701.252 7  96949614.79745  23676103.897                    23676104.9194
        47.000          30.0004
 106211981.030 8  82762596.92247  20211464.330                    20211463.9634
        51.200          43.2004
 126091794.857 6  98253341.67343  23994463.750                    23994463.3114
        40.700          18.6004
 15  7  8  9 11 30.0000000  0  8G25G17G12G02G06G15G24G14
 123493868.324 7  96229008.73644  23500095.287                    23500097.6964
        42.700          25.6004
 121590703.580 7  94745992.36845  23137943.306                    23137941.6384
        46.300          31.1004
 108712404.919 8  84710984.32146  20687271.098                    20687268.5474
        51.700          40.5004
 127840852.306 6                  24327307.934
        37.000
 123248479.326 7  96037822.80045  23453393.190                    23453396.5644
        42.400          30.0004
 124470076.118 7  96989647.09645  23685880.146                    23685881.3634
        47.100          30.9004
 106210703.656 8  82761601.56347  20211221.259                    20211221.0204
        51.000          43.9004
 126052762.105 6  98222926.55543  23987036.678                    23987035.5894
        41.500          19.6004
 15  7  8  9 11 45.0000000  0  8G25G17G12G02G06G15G24G14
 123450298.260 7  96195058.05944  23491804.882                    23491806.6104
        43.400          26.1004
 121631316.426 7  94777638.72145  23145671.561                    23145670.2154
        46.200          31.3004
 108691823.884 8  84694947.17346  20683354.784                    20683351.9284
        50.900          40.6004
 127798055.730 6                  24319163.892
        36.500
 123217091.392 7  96013364.70545  23447420.228                    23447423.7744
        43.900          31.1004
 124521481.539 7  97029703.21744  23695662.340                    23695663.8544
        46.800          29.8004
 106209541.992 8  82760696.37347  20211000.555                    20211000.3044
        51.400          43.3004
 126013823.595 7  98192584.86343  23979627.642                    23979626.2814
        42.800          20.4004
 15  7  8  9 12  0.0000000  0  8G25G17G12G02G06G15G24G14
 123406764.799 7  96161135.93244  23483520.626                    23483522.9304
        43.500          25.4004
 121672004.276 7  94809343.52945  23153414.246                    23153412.4434
        46.100          32.1004
 108671325.128 8  84678974.12246  20679454.010                    20679451.2484
        51.100          40.6004
 127755273.795 6                  24311022.523
        36.900
 123185800.304 7  95988982.07045  23441466.054                    23441469.3334
        43.600          30.5004
 124572916.836 7  97069782.58645  23705449.780                    23705451.2514
        47.200          30.3004
 106208495.924 8  82759881.25547  20210801.284                    20210800.5294
        52.000          43.5004
 125974979.336 7  98162316.65043  23972235.552                    23972234.1494
        42.900          20.9004
 15  7  8  9 12 15.0000000  0  8G25G17G12G02G06G15G24G14
 123363268.005 7  96127242.35844  23475243.008                    23475245.8714
        42.700          27.4004
 121712766.888 7  94841106.56645  23161171.071                    23161169.6664
        46.100          31.7004
 108650908.757 8  84663065.28446  20675568.622                    20675566.3314
        50.700          40.2004
 127712506.689 6                  24302883.331
        36.400
 123154606.332 6  95964675.12445  23435529.514                    23435533.3464
        41.600          30.7004
 124624381.816 7  97109885.10644  23715243.671                    23715244.8294
        46.600          29.8004
 106207565.831 8  82759156.51147  20210624.206                    20210624.2224
        52.000          44.3004
 125936229.705 7  98132122.14743  23964861.446                    23964861.0664
        43.100          21.5004
 15  7  8  9 12 30.0000000  0  8G25G17G12G02G06G15G24G14
 123319807.427 6  96093377.00944  23466972.409                    23466975.5714
        41.500          26.3004
 121753603.345 7  94872927.16045  23168941.523                    23168940.2094
        46.100          30.6004
 108630574.161 8  84647220.15546  20671699.358                    20671696.2854
        51.400          40.1004
 127669754.287 6                  24294749.170
        36.000
 123123509.403 7  95940443.78745  23429612.092                    23429615.5684
        43.200          30.7004
 124675875.590 7  97150010.05845  23725042.699                    23725044.2294
        46.200          30.0004
 106206751.150 8  82758521.69547  20210468.952                    20210468.6384
        52.300          43.9004
 125897574.517 7  98102001.25143  23957506.039                    23957505.2874
        42.700          21.7004
 15  7  8  9 12 45.0000000  0  8G25G17G12G02G06G15G24G14
 123276383.911 6  96059540.56544  23458708.977                    23458713.0174
        40.400          24.9004
 121794514.063 7  94904805.60945  23176726.898                    23176725.2534
        45.600          30.2004
 108610322.154 8  84631439.37746  20667845.520                    20667842.6484
        51.000          40.6004
 127627017.993 5                  24286615.787
        34.600
 123092510.521 7  95916288.84745  23423713.135                    23423716.8114
        42.000          30.3004
 124727398.527 7  97190157.73645  23734846.736                    23734848.1044
        46.800          30.2004
 106206052.706 8  82757977.45247  20210336.302                    20210335.9324
        51.100          43.7004
 125859014.617 7  98071954.62443  23950168.170                    23950167.8704
        43.800          22.8004
 15  7  8  9 13  0.0000000  0  8G25G17G12G02G06G15G24G14
 123232997.162 6  96025732.72943  23450452.431                    23450456.2354
        40.500          23.0004
 121835498.700 7  94936741.66945  23184525.568                    23184524.3774
        45.200          30.0004
 108590152.309 8  84615722.63346  20664007.346                    20664004.0644
        51.000          39.9004
 127584297.482 6                  24278486.993
        36.900
 123061609.777 6  95892210.37844  23417833.018                    23417835.2834
        41.600          29.8004
 124778950.032 7  97230327.67045  23744657.261                    23744657.9864
        47.300          30.2004
 106205470.369 8  82757523.68047  20210225.424                    20210225.0854
        51.100          43.6004
 125820550.164 7  98041982.36243  23942848.729                    23942847.6454
        44.500          22.9004
 15  7  8  9 13 15.0000000  0  8G25G17G12G02G06G15G24G14
 123189647.238 6  95991953.63644  23442203.462                    23442206.5474
        40.900          24.9004
 121876556.764 7  94968734.92145  23192339.222                    23192337.6434
        45.200          30.2004
 108570064.731 8  84600069.98646  20660184.926                    20660181.4744
        51.600          39.7004
 127541593.157 6                  24270359.758
        37.100
 123030807.409 7  95868208.55744  23411971.728                    23411974.1044
        42.200          29.4004
 124830529.598 7  97270519.49845  23754472.290                    23754472.9634
        47.500          30.7004
 106205004.170 8  82757160.40447  20210136.772                    20210136.5504
        51.100          43.3004
 125782181.298 7  98012084.56243  23935547.623                    23935546.6904
        45.300          23.3004
 15  7  8  9 13 30.0000000  0  8G25G17G12G02G06G15G24G14
 123146333.438 6  95958202.68144  23433961.648                    23433964.1124
        41.500          24.3004
 121917687.306 7  95000784.66345  23200166.133                    23200163.8634
        45.400          30.6004
 108550058.599 8  84584480.80646  20656377.603                    20656374.0274
        51.500          40.1004
 127498904.438 6  99349791.47452  24262236.619                    24262233.8634
        37.900          17.8004
 123000103.027 7  95844283.10644  23406129.028                    23406131.4804
        42.600          29.9004
 124882136.239 7  97310732.39644  23764292.872                    23764293.7304
        46.800          29.8004
 106204653.324 8  82756887.01747  20210069.892                    20210069.9844
        50.900          43.5004
 125743907.629 7  97982260.97843  23928264.283                    23928263.4324
        44.800          22.8004
 15  7  8  9 13 45.0000000  0  8G25G17G12G02G06G15G24G14
 123103059.432 6  95924482.70343  23425726.511                    23425727.7724
        41.100          23.0004
 121958893.527 7  95032893.37045  23208008.011                    23208005.8794
        45.800          31.6004
 108530137.513 8  84568957.89646  20652586.864                    20652583.2964
        51.000          40.4004
 127456235.425 6  99316542.92643  24254117.162                    24254114.5034
        36.700          18.6004
 122969500.515 7  95820437.02545  23400305.306                    23400308.4894
        42.600          30.2004
 124933773.168 7  97350968.89844  23774119.293                    23774120.6484
        47.400          29.5004
 106204421.371 8  82756706.27447  20210025.923                    20210025.3694
        51.100          44.2004
 125705732.938 7  97952514.47343  23920999.545                    23920999.2834
        44.700          22.8004
 15  7  8  9 14  0.0000000  0  8G25G17G12G02G06G15G24G14
 123059819.056 6  95890788.93444  23417498.006                    23417498.8664
        41.500          25.8004
 122000168.834 7  95065055.92745  23215862.380                    23215860.1164
        46.200          31.2004
 108510295.380 8  84553496.50746  20648810.986                    20648807.7634
        51.200          40.9004
 127413580.119 6  99283305.06742  24246000.558                    24245997.9694
        37.400          17.8004
 122938993.991 6  95796665.75545  23394499.577                    23394503.3324
        41.700          30.0004
 124985433.816 7  97391223.87944  23783949.722                    23783950.4014
        46.600          29.2004
 106204302.465 8  82756613.61947  20210003.381                    20210003.0934
        51.000          44.4004
 125667651.354 7  97922840.55544  23913753.125                    23913751.8014
        44.100          24.9004
 15  7  8  9 14 15.0000000  0  8G25G17G12G02G06G15G24G14
 123016616.083 7  95857124.33644  23409276.722                    23409277.9434
        42.400          24.0004
 122041516.793 7  95097275.08445  23223730.691                    23223728.5944
        47.900          32.7004
 108490535.795 8  84538099.44546  20645050.768                    20645047.7554
        51.000          40.6004
 127370942.678 6  99250081.12143  24237886.223                    24237882.8384
        37.900          18.3004
 122908587.624 6  95772972.52844  23388713.412                    23388717.2064
        41.300          29.4004
 125037121.582 7  97431500.00144  23793785.624                    23793787.3764
        45.800          29.4004
 106204300.547 8  82756612.12847  20210002.847                    20210002.6764
        51.200          44.0004
 125629666.961 7  97893242.34344  23906524.771                    23906523.9704
        42.900          24.7004
 15  7  8  9 14 30.0000000  0  8G25G17G12G02G06G15G24G14
 122973450.015 7  95823488.47744  23401062.639                    23401064.0154
        43.800          25.0004
 122082936.419 7  95129550.10245  23231612.741                    23231610.1854
        47.600          32.3004
 108470858.196 8  84522766.26346  20641306.250                    20641303.5664
        51.200          40.6004
 127328322.863 6  99216870.90742  24229775.730                    24229773.7294
        38.300          17.4004
 122878281.009 6  95749357.03545  23382946.470                    23382950.2254
        41.800          31.1004
 125088835.584 7  97471796.56044  23803626.729                    23803628.0644
        45.600          29.7004
 106204414.656 8  82756701.04347  20210024.485                    20210024.3094
        51.300          44.5004
 125591779.442 7  97863719.64043  23899314.313                    23899313.7354
        42.500          22.8004
 15  7  8  9 14 45.0000000  0  8G25G17G12G02G06G15G24G14
 122930321.495 7  95789881.88444  23392855.912                    23392856.5174
        44.300          26.6004
 122124428.012 7  95161881.19745  23239508.034                    23239505.6984
        46.700          31.6004
 108451263.182 8  84507497.43646  20637577.323                    20637574.7214
        51.100          40.9004
 127285721.399 6  99183674.98242  24221669.543                    24221666.3754
        37.600          16.9004
 122848075.170 7  95725820.08145  23377198.589                    23377201.9854
        42.200          31.0004
 125140575.933 7  97512113.65544  23813472.381                    23813473.8804
        45.200          29.6004
 106204645.688 8  82756881.06347  20210068.761                    20210068.3664
        51.500          43.7004
 125553989.616 7  97834273.04644  23892123.512                    23892122.2774
        42.200          24.8004
 15  7  8  9 15  0.0000000  0  8G25G17G12G02G06G15G24G14
 122887230.365 7  95756304.43444  23384656.456                    23384657.4794
        44.100          26.9004
 122165990.971 7  95194267.89445  23247416.483                    23247415.2724
        46.000          30.6004
 108431750.637 8  84492292.87146  20633864.359                    20633861.6414
        51.800          41.2004
 127243138.494 6  99150493.57942  24213564.596                    24213564.0354
        36.400          15.6004
 122817970.169 6  95702361.69345  23371469.818                    23371473.2404
        41.200          30.5004
 125192342.182 7  97552450.92844  23823322.705                    23823324.8654
        44.900          28.4004
 106204993.546 8  82757152.12347  20210134.917                    20210134.6014
        51.400          43.5004
 125516297.628 7  97804902.68644  23884950.457                    23884949.4614
        42.400          25.1004
 15  7  8  9 15 15.0000000  0  8G25G17G12G02G06G15G24G14
 122844176.000 7  95722755.62044  23376463.043                    23376464.1884
        43.400          25.5004
 122207624.375 7  95226709.48345  23255339.118                    23255337.8784
        45.800          30.4004
 108412319.672 8  84477151.87446  20630166.945                    20630163.8214
        51.500          41.7004
 127200573.892 6  99117326.39442  24205465.768                    24205463.7814
        36.200          16.9004
 122787965.621 7  95678981.60045  23365759.810                    23365763.4764
        42.700          30.6004
 125244133.220 7  97592807.52444  23833178.756                    23833180.5424
        44.900          29.0004
 106205457.444 8  82757513.60547  20210223.252                    20210223.0464
        51.100          43.7004
 125478703.074 7  97775608.28543  23877797.211                    23877795.7184
        43.000          23.8004
 15  7  8  9 15 30.0000000  0  8G25G17G12G02G06G15G24G14
 122801159.007 7  95689235.93044  23368277.251                    23368278.9724
        43.100          25.1004
 122249328.618 7  95259206.26744  23263275.401                    23263274.2894
        45.700          29.6004
 108392970.988 8  84462074.99746  20626484.865                    20626481.9794
        51.700          41.3004
 127158028.387 5  99084174.10642  24197368.096                    24197367.0864
        34.700          16.3004
 122758062.534 7  95655680.55045  23360069.928                    23360072.8274
        42.300          30.6004
 125295949.333 7  97633183.65144  23843039.218                    23843040.2154
        45.200          27.8004
 106206038.307 8  82757966.22447  20210333.669                    20210333.7114
        51.900          44.0004
 125441206.798 7  97746390.43044  23870661.355                    23870660.6014
        42.800          24.9004
 15  7  8  9 15 45.0000000  0  8G25G17G12G02G06G15G24G14
 122758180.291 7  95655746.08244  23360098.738                    23360100.6054
        42.100          24.5004
 122291104.148 7  95291758.60445  23271225.006                    23271224.1264
        45.800          30.9004
 108373705.351 8  84447062.82646  20622819.181                    20622816.1224
        51.700          41.2004
 127115503.077 6  99051037.54342  24189276.621                    24189274.5654
        36.000          16.9004
 122728261.947 6  95632459.39944  23354398.214                    23354401.7234
        41.300          29.3004
 125347790.911 7  97673579.63244  23852903.770                    23852906.2234
        45.400          28.2004
 106206736.919 8  82758510.59547  20210466.648                    20210466.2624
        52.100          44.2004
 125403809.880 7  97717250.00344  23863545.119                    23863544.5234
        43.000          24.2004
 15  7  8  9 16  0.0000000  0  8G25G17G12G02G06G15G24G14
 122715238.226 6  95622284.78644  23351926.332                    23351929.1574
        41.000          24.8004
 122332948.934 7  95324364.90345  23279187.999                    23279186.9894
        45.700          31.2004
 108354521.193 8  84432114.14846  20619168.017                    20619164.7084
        51.600          41.6004
 127072996.794 6  99017915.81842  24181188.779                    24181185.5124
        36.900          17.4004
 122698562.609 6  95609317.11444  23348746.699                    23348749.6104
        40.900          28.9004
 125399656.027 7  97713993.93444  23862773.878                    23862775.6304
        44.700          29.0004
 106207551.848 8  82759145.60547  20210621.962                    20210621.1884
        51.800          43.7004
 125366510.896 7  97688185.90643  23856447.519                    23856446.5894
        43.600          23.2004
 15  7  8  9 16 15.0000000  0  8G25G17G12G02G06G15G24G14
 122672333.572 6  95588852.64043  23343761.528                    23343764.8204
        40.500          22.6004
 122374863.294 7  95357025.42245  23287164.319                    23287163.6504
        46.800          32.1004
 108335419.219 8  84417229.51146  20615533.439                    20615530.5764
        51.300          41.3004
 127030510.472 6  98984809.63742  24173103.633                    24173100.9174
        38.500          17.4004
 122668965.466 7  95586254.45544  23343114.036                    23343117.1064
        42.000          29.6004
 125451545.018 7  97754426.84444  23872648.218                    23872649.8914
        44.900          28.6004
 106208483.580 8  82759871.62747  20210799.116                    20210798.9044
        52.000          44.0004
 125329310.821 7  97659198.86843  23849368.221                    23849367.4614
        43.300          22.6004
 15  7  8  9 16 30.0000000  0  8G25G17G12G02G06G15G24G14
 122629466.454 6  95555449.75544  23335604.454                    23335607.2764
        41.200          25.2004
 122416847.145 7  95389740.08045  23295153.628                    23295153.1234
        46.400          32.7004
 108316399.295 8  84402408.79246  20611913.498                    20611910.7734
        51.100          41.3004
 126988044.459 6  98951719.25442  24165022.902                    24165020.1244
        38.800          16.9004
 122639470.866 6  95563271.73444  23337501.564                    23337505.0094
        41.100          29.2004
 125503457.508 7  97794878.06644  23882526.494                    23882528.8744
        44.100          27.9004
 106209532.307 8  82760688.81847  20210998.882                    20210998.5304
        51.800          43.8004
 125292210.044 7  97630289.19843  23842308.055                    23842306.8184
        43.700          23.6004
 15  7  8  9 16 45.0000000  0  8G25G17G12G02G06G15G24G14
 122586637.119 6  95522076.29844  23327454.177                    23327457.5764
        40.500          25.6004
 122458900.417 7  95422508.84145  23303156.270                    23303155.8114
        46.800          33.2004
 108297461.655 8  84387652.20646  20608309.811                    20608307.1124
        51.100          40.3004
 126945599.280 6  98918645.11742  24156945.586                    24156942.7484
        39.600          17.4004
 122610079.418 6  95540369.37244  23331908.851                    23331911.6254
        40.200          29.3004
 125555393.450 7  97835347.55844  23892409.266                    23892411.9264
        44.200          27.4004
 106210698.431 8  82761597.48347  20211220.608                    20211220.1874
        51.300          44.1004
 125255209.024 7  97601457.26344  23835266.601                    23835265.9224
        44.000          24.0004
 15  7  8  9 17  0.0000000  0  8G25G17G12G02G06G15G24G14
 122543845.843 6  95488732.50444  23319311.707                    23319314.3764
        41.100          26.2004
 122501022.938 7  95455331.55445  23311171.606                    23311171.8814
        46.300          32.7004
 108278606.616 8  84372959.98146  20604721.833                    20604719.1884
        49.900          40.2004
 126903175.507 6  98885587.68143  24148873.055                    24148870.5024
        36.900          18.3004
 122580791.521 6  95517547.71344  23326334.930                    23326338.8274
        41.100          29.7004
 125607352.675 7  97875835.19444  23902297.411                    23902299.1864
        43.700          26.7004
 106211982.277 8  82762597.87647  20211464.905                    20211464.4684
        51.900          44.3004
 125218308.292 7  97572703.48243  23828245.111                    23828243.5294
        43.300          23.3004
 15  7  8  9 17 15.0000000  0  8G25G17G12G02G06G15G24G14
 122501093.203 7  95455418.79244  23311175.876                    23311178.1784
        42.600          27.1004
 122543214.951 7  95488208.41845  23319200.854                    23319200.3514
        46.500          32.4004
 108259834.581 8  84358332.43946  20601149.338                    20601146.6984
        50.200          40.2004
 126860773.905 6  98852547.56942  24140803.837                    24140801.3324
        37.600          17.4004
 122551608.111 6  95494807.47044  23320781.644                    23320784.7004
        40.400          29.0004
 125659335.308 7  97916341.07944  23912189.521                    23912191.2224
        43.200          28.1004
 106213384.107 8  82763690.20747  20211731.303                    20211731.0694
        51.100          44.2004
 125181508.700 7  97544028.51044  23821241.926                    23821240.7424
        43.100          24.2004
 15  7  8  9 17 30.0000000  0  8G25G17G12G02G06G15G24G14
 122458378.200 7  95422134.41044  23303047.589                    23303049.7514
        42.600          27.5004
 122585475.031 7  95521138.32045  23327242.442                    23327242.7184
        46.600          32.2004
 108241144.480 8  84343768.73746  20597593.106                    20597590.5154
        50.300          40.4004
 126818393.980 5  98819524.25842  24132739.892                    24132736.1774
        34.700          16.9004
 122522528.417 6  95472148.04744  23315247.935                    23315251.5454
        41.000          28.8004
 125711339.875 7  97956864.04844  23922085.823                    23922087.7214
        43.900          27.6004
 106214903.613 8  82764874.24747  20212021.009                    20212020.4354
        51.200          44.1004
 125144809.484 7  97515431.75544  23814258.235                    23814257.2594
        42.900          24.1004
 15  7  8  9 17 45.0000000  0  8G25G17G12G02G06G15G24G14
 122415700.364 6  95388878.98044  23294925.929                    23294927.2854
        41.400          27.2004
 122627802.235 7  95554120.52145  23335296.783                    23335297.2524
        46.700          32.1004
 108222535.877 8  84329268.54346  20594052.100                    20594049.3014
        50.300          40.8004
 126776035.252 5  98786517.51442  24124679.233                    24124676.0864
        34.400          17.8004
 122493552.229 6  95449569.26744  23309734.475                    23309736.8984
        40.500          29.6004
 125763365.641 7  97997403.54844  23931985.467                    23931987.7674
        44.700          27.6004
 106216539.672 8  82766149.09047  20212331.742                    20212331.8744
        51.000          44.1004
 125108210.247 6  97486912.90543  23807293.452                    23807292.8724
        40.600          22.8004
 15  7  8  9 18  0.0000000  0  8G25G17G12G02G06G15G24G14
 122373060.214 7  95355652.91444  23286812.285                    23286813.5354
        42.200          26.6004
 122670196.797 7  95587155.22045  23343364.504                    23343364.4344
        45.700          31.3004
 108204009.531 8  84314832.43746  20590526.382                    20590523.6844
        50.800          40.6004
 126733698.656 5  98753528.01842  24116622.110                    24116619.4724
        33.800          16.9004
 122464680.368 6  95427071.80844  23304240.272                    23304242.8684
        41.200          29.9004
 125815412.667 7  98037959.58344  23941890.353                    23941892.2394
        44.300          27.6004
 106218293.187 8  82767515.46547  20212665.582                    20212665.5244
        51.200          43.7004
 125071711.704 6  97458472.52843  23800347.526                    23800347.0784
        40.200          21.7004
 15  7  8  9 18 15.0000000  0  8G25G17G12G02G06G15G24G14
 122330459.050 6  95322457.24644  23278705.379                    23278706.8004
        40.300          27.3004
 122712659.797 7  95620243.23445  23351444.825                    23351444.5724
        45.500          30.7004
 108185566.256 8  84300461.06946  20587016.803                    20587013.7124
        50.400          40.8004
 126691385.675 5  98720556.93942  24108570.267                    24108568.0814
        34.300          17.4004
 122435914.363 6  95404656.80544  23298766.086                    23298768.3134
        41.000          29.4004
 125867481.787 7  98078532.87644  23951798.568                    23951800.4534
        44.200          27.8004
 106220165.437 8  82768974.35947  20213021.960                    20213021.7214
        51.200          43.8004
 125035315.517 6  97430111.92043  23793420.819                    23793421.6404
        39.200          21.7004
 15  7  8  9 18 30.0000000  0  8G25G17G12G02G06G15G24G14
 122287895.669 6  95289291.01244  23270605.643                    23270608.1174
        40.300          26.9004
 122755189.549 7  95653383.26445  23359537.764                    23359537.7804
        44.900          31.5004
 108167204.855 8  84286153.49846  20583522.677                    20583519.9154
        50.300          41.0004
 126649095.497 5  98687603.54942  24100522.701                    24100520.5264
        33.700          17.4004
 122407253.271 6  95382323.55744  23293311.470                    23293314.4704
        40.100          29.6004
 125919571.453 7  98119122.16244  23961710.856                    23961712.3364
        44.100          27.8004
 106222155.124 8  82770524.75847  20213400.578                    20213400.6114
        51.100          43.9004
 124999020.653 6  97401830.27443  23786514.625                    23786514.4184
        40.200          21.8004
 15  7  8  9 18 45.0000000  0  8G25G17G12G02G06G15G24G14
 122245369.751 6  95256153.98944  23262512.662                    23262515.6844
        37.900          25.6004
 122797785.475 7  95686574.84945  23367643.650                    23367643.4454
        45.600          30.8004
 108148924.896 8  84271909.38046  20580044.211                    20580041.4474
        50.600          40.6004
 126606827.964 5  98654667.91243  24092478.904                    24092477.5334
        35.500          18.3004
 122378696.984 7  95360071.99345  23287877.752                    23287880.3394
        42.200          30.5004
 125971680.855 7  98159726.83044  23971627.686                    23971628.9164
        45.000          28.2004
 106224261.718 8  82772166.26247  20213801.119                    20213800.9734
        50.500          44.2004
 124962826.974 6  97373627.44543  23779627.212                    23779627.3044
        39.800          21.5004
 15  7  8  9 19  0.0000000  0  8G25G17G12G02G06G15G24G14
 122202882.487 6  95223047.08944  23254427.622                    23254431.0674
        37.000          25.3004
 122840448.380 7  95719818.63945  23375762.593                    23375761.6514
        45.400          31.7004
 108130727.749 8  84257729.79946  20576581.841                    20576578.6634
        50.500          40.9004
 126564584.716 6  98621751.14443  24084440.144                    24084438.6014
        37.900          19.6004
 122350247.095 7  95337903.30045  23282463.626                    23282467.0244
        43.100          30.5004
 126023811.072 7  98200347.70344  23981547.203                    23981549.4644
        44.300          28.7004
 106226486.880 8  82773900.14647  20214224.713                    20214224.5044
        51.000          43.5004
 124926736.051 6  97345504.65543  23772759.257                    23772758.9904
        40.000          21.3004
 15  7  8  9 19 15.0000000  0  8G25G17G12G02G06G15G24G14
 122160433.980 6  95189970.41144  23246349.286                    23246353.0064
        36.000          25.8004
 122883177.913 7  95753114.32745  23383893.620                    23383892.9744
        46.000          32.2004
 108112613.471 8  84243614.79546  20573134.395                    20573131.4224
        50.800          40.6004
 126522365.982 6  98588853.50943  24076405.950                    24076405.2954
        36.600          19.0004
 122321903.837 7  95315817.72144  23277069.826                    23277073.0874
        42.500          29.3004
 126075961.636 7  98240984.43944  23991471.329                    23991472.8264
        44.500          27.8004
 106228830.729 8  82775726.52247  20214670.526                    20214670.5104
        50.700          43.6004
 124890748.009 6  97317462.05343  23765910.439                    23765910.6604
        40.400          20.4004
 15  7  8  9 19 30.0000000  0  8G25G17G12G02G06G15G24G14
 122118028.196 6  95156927.02444  23238279.378                    23238283.5664
        38.300          25.4004
 122925977.711 7  95786464.78645  23392038.492                    23392037.3314
        45.600          32.4004
 108094585.612 8  84229567.12546  20569703.526                    20569701.1584
        51.000          40.6004
 126480175.990 5  98555978.25443  24068378.592                    24068376.4334
        35.800          20.1004
 122293671.455 6  95293818.53444  23271697.663                    23271700.8484
        40.900          28.9004
 126128136.035 7  98281639.76344  24001400.011                    24001401.2644
        45.300          28.9004
 106231297.019 8  82777648.30247  20215139.998                    20215139.9654
        51.400          43.5004
 124854867.011 6  97289502.85543  23759082.700                    23759082.9464
        40.200          20.6004
 15  7  8  9 19 45.0000000  0  8G25G17G12G02G06G15G24G14
 122075656.562 6  95123910.19744  23230217.067                    23230219.9774
        38.600          25.7004
 122968838.745 7  95819862.95745  23400194.883                    23400193.5844
        46.000          32.6004
 108076635.582 8  84215580.10546  20566287.956                    20566285.4054
        50.500          40.9004
 126438006.434 6  98523118.93443  24060353.692                    24060351.1654
        38.000          20.1004
 122265541.554 6  95271899.20044  23266344.695                    23266347.4494
        40.600          28.2004
 126180325.187 7  98322306.58444  24011331.453                    24011332.4384
        44.300          28.3004
 106233877.127 8  82779658.77047  20215631.034                    20215631.2334
        51.500          43.9004
 124819084.749 6  97261620.60343  23752274.118                    23752273.9004
        40.200          21.8004
 15  7  8  9 20  0.0000000  0  8G25G17G12G02G06G15G24G14
 122033323.529 6  95090923.47244  23222161.517                    23222163.7744
        40.300          27.2004
 123011765.185 7  95853312.09045  23408363.690                    23408361.5894
        45.700          31.8004
 108058767.930 8  84201657.26246  20562887.923                    20562884.7424
        51.000          41.2004
 126395862.139 5  98490279.26143  24052332.600                    24052330.0614
        35.400          20.1004
 122237518.894 6  95250063.42244  23261011.567                    23261014.4584
        40.200          29.1004
 126232533.247 7  98362988.12244  24021266.184                    24021268.1484
        44.600          29.3004
 106236575.442 8  82781761.35847  20216144.445                    20216144.5234
        51.500          43.5004
 124783405.884 6  97233818.92343  23745484.857                    23745484.2864
        40.200          22.3004
 15  7  8  9 20 15.0000000  0  8G25G17G12G02G06G15G24G14
 121991028.880 6  95057966.64044  23214113.794                    23214115.1034
        40.900          27.5004
 123054756.533 7  95886811.80445  23416544.123                    23416542.5784
        44.200          31.6004
 108040982.417 8  84187798.43246  20559503.320                    20559500.3674
        50.400          40.9004
 126353743.029 5  98457459.22143  24044316.541                    24044315.5164
        35.500          19.6004
 122209603.549 6  95228311.27144  23255699.623                    23255702.0684
        40.100          28.1004
 126284759.603 7  98403683.90744  24031204.743                    24031206.3764
        44.300          29.5004
 106239391.926 8  82783956.02147  20216680.282                    20216680.2154
        51.000          43.8004
 124747830.514 6  97206097.90543  23738714.224                    23738714.4764
        40.700          22.0004
 15  7  8  9 20 30.0000000  0  8G25G17G12G02G06G15G24G14
 121948774.517 7  95025041.21044  23206073.524                    23206074.4854
        42.700          28.4004
 123097814.329 7  95920363.30145  23424737.553                    23424735.9454
        45.300          31.8004
 108023280.923 8  84174005.07946  20556134.641                    20556132.1344
        50.300          40.8004
 126311651.325 6  98424660.55643  24036309.378                    24036307.5614
        36.800          20.4004
 122181797.669 6  95206644.40744  23250408.189                    23250411.0614
        39.800          26.9004
 126337005.962 7  98444395.30144  24041146.882                    24041148.5204
        44.100          28.4004
 106242328.484 8  82786244.24247  20217239.532                    20217238.8344
        51.200          43.5004
 124712360.713 6  97178459.13643  23731964.902                    23731964.7094
        41.500          22.3004
 15  7  8  9 20 45.0000000  0  8G25G17G12G02G06G15G24G14
 121906558.879 7  94992145.95044  23198039.977                    23198040.4174
        42.900          28.3004
 123140936.664 7  95953965.06745  23432943.907                    23432942.2194
        45.000          30.8004
 108005661.478 8  84160275.65746  20552781.952                    20552779.2994
        50.400          40.5004
 126269585.644 6  98391882.21043  24028304.183                    24028302.2914
        36.300          19.9004
 122154099.873 6  95185061.76944  23245137.508                    23245140.4984
        39.000          28.5004
 126389270.082 7  98485120.50644  24051091.938                    24051093.9264
        44.100          27.0004
 106245383.470 8  82788624.75047  20217820.781                    20217820.7394
        50.700          43.6004
 124676995.216 6  97150901.63443  23725235.527                    23725234.6074
        41.300          21.3004
 15  7  8  9 21  0.0000000  0  8G25G17G12G02G06G15G24G14
 121864380.577 7  94959279.77744  23190012.997                    23190015.1354
        42.000          28.9004
 123184121.807 7  95987615.78345  23441161.709                    23441159.9304
        45.300          31.4004
 107988122.843 8  84146609.19746  20549444.499                    20549442.5864
        50.600          41.0004
 126227545.099 6  98359123.42443  24020303.945                    24020301.2024
        36.800          19.6004
 122126509.109 6  95163562.52644  23239887.486                    23239890.1584
        40.500          28.7004
 126441550.272 7  98525858.24344  24061041.032                    24061042.4974
        44.000          28.6004
 106248555.765 8  82791096.66947  20218424.196                    20218424.0094
        50.400          43.3004
 124641732.761 7  97123424.42743  23718525.225                    23718524.4164
        42.400          21.5004
 15  7  8  9 21 15.0000000  0  8G25G17G12G02G06G15G24G14
 121822242.018 6  94926444.54844  23181994.657                    23181995.9754
        41.400          29.0004
 123227371.663 7  96021316.93445  23449391.883                    23449390.3144
        45.100          30.9004
 107970667.251 8  84133007.45046  20546123.026                    20546120.8934
        50.800          41.1004
 126185531.930 6  98326385.92943  24012309.081                    24012305.8264
        38.100          18.3004
 122099028.009 6  95142148.72744  23234658.193                    23234660.7644
        41.500          28.6004
 126493848.409 7  98566609.97544  24070993.170                    24070995.1944
        44.000          27.7004
 106251847.374 8  82793661.56047  20219050.796                    20219050.2124
        50.500          43.8004
 124606575.773 7  97096029.39043  23711835.040                    23711834.3444
        43.200          22.0004
 15  7  8  9 21 30.0000000  0  8G25G17G12G02G06G15G24G14
 121780141.795 6  94893639.18444  23173983.254                    23173984.7674
        40.800          29.1004
 123270684.533 7  96055067.18645  23457634.219                    23457632.4314
        44.300          32.6004
 107953293.377 8  84119469.38546  20542816.816                    20542814.8754
        50.100          41.0004
 126143545.351 6  98293669.21743  24004318.852                    24004317.0194
        36.600          19.0004
 122071655.284 6  95120819.38344  23229448.702                    23229451.7704
        41.800          28.8004
 126546162.854 7  98607374.41644  24080947.958                    24080950.2254
        42.600          25.8004
 106255257.001 8  82796318.40547  20219699.658                    20219699.6044
        51.200          43.2004
 124571523.217 7  97068715.74643  23705165.105                    23705163.9224
        43.300          21.8004
 15  7  8  9 21 45.0000000  0  8G25G17G12G02G06G15G24G14
 121738081.223 6  94860864.74944  23165979.770                    23165980.9424
        41.900          27.9004
 123314061.183 7  96088867.13545  23465888.951                    23465886.8464
        44.100          32.0004
 107936002.452 8  84105995.95246  20539526.197                    20539523.9704
        50.300          40.9004
 126101586.986 6  98260974.41843  23996334.651                    23996332.5134
        38.600          19.0004
 122044392.628 6  95099575.80844  23224261.742                    23224263.4604
        40.400          28.7004
 126598494.454 7  98648152.18744  24090906.292                    24090908.6494
        43.200          25.3004
 106258786.244 8  82799068.46447  20220370.862                    20220370.8324
        50.700          44.0004
 124536576.633 7  97041484.64343  23698515.180                    23698514.1094
        44.500          22.3004
 15  7  8  9 22  0.0000000  0  8G25G17G12G02G06G15G24G14
 121696059.462 6  94828120.56344  23157982.373                    23157984.2384
        41.300          26.6004
 123357500.615 7  96122716.00345  23474154.940                    23474152.6324
        44.900          31.4004
 107918793.768 8  84092586.60446  20536251.814                    20536248.7834
        50.200          40.5004
 126059656.272 6  98228301.20943  23988355.543                    23988352.1384
        37.200          18.3004
 122017239.472 7  95078417.53644  23219093.984                    23219096.8924
        42.200          29.0004
 126650841.932 7  98688942.36544  24100868.545                    24100869.6414
        42.900          24.8004
 106262434.182 8  82801911.01547  20221065.362                    20221065.1304
        51.200          43.7004
 124501735.483 7  97014335.71343  23691885.370                    23691882.8364
        44.600          22.3004
 15  7  8  9 22 15.0000000  0  8G25G17G12G02G06G15G24G14
 121654078.373 6  94795408.07544  23149993.015                    23149995.6844
        41.600          26.2004
 123401004.232 7  96156614.89245  23482433.726                    23482430.7514
        44.200          31.8004
 107901668.743 8  84079242.44246  20532992.936                    20532990.0884
        50.000          41.6004
 126017755.257 6  98195651.15843  23980381.776                    23980378.5824
        37.800          19.0004
 121990197.798 7  95057346.14644  23213948.240                    23213951.1234
        42.300          28.9004
 126703206.672 7  98729746.01844  24110833.177                    24110834.4504
        43.000          26.7004
 106266202.776 8  82804847.57247  20221782.388                    20221782.4174
        51.200          43.5004
 124467001.803 7  96987270.53843  23685275.814                    23685273.2894
        44.800          23.6004
 15  7  8  9 22 30.0000000  0  8G25G17G12G02G06G15G24G14
 121612134.727 6  94762724.78744  23142011.154                    23142014.2764
        39.200          25.4004
 123444568.520 7  96190561.05145  23490723.396                    23490720.8694
        44.900          30.4004
 107884624.626 8  84065961.33246  20529749.208                    20529746.7574
        49.900          41.3004
 125975880.935 5  98163021.85542  23972413.263                    23972410.6904
        35.400          17.8004
 121963264.728 7  95036359.37844  23208823.648                    23208825.5784
        42.200          29.5004
 126755585.249 7  98770560.42244  24120800.604                    24120802.0144
        43.600          25.0004
 106270088.488 8  82807875.40047  20222522.104                    20222521.5504
        51.400          43.5004
 124432372.680 7  96960286.82543  23678686.019                    23678684.3164
        44.300          22.5004
 15  7  8  9 22 45.0000000  0  8G25G17G12G02G06G15G24G14
 121570230.247 6  94730072.02444  23134036.294                    23134040.3754
        40.400          27.5004
 123488194.965 7  96224555.65344  23499025.301                    23499022.4634
        44.700          29.8004
 107867662.742 8  84052744.28946  20526521.585                    20526518.7404
        50.500          41.2004
 125934035.369 6  98130414.98242  23964450.213                    23964446.1774
        36.900          16.9004
 121936442.285 6  95015458.82144  23203718.700                    23203721.3964
        40.700          29.1004
 126807979.132 7  98811386.74144  24130770.804                    24130771.8314
        43.300          24.4004
 106274092.971 8  82810995.77547  20223283.881                    20223283.7304
        52.000          43.8004
 124397849.965 7  96933386.03443  23672116.630                    23672115.7864
        44.000          22.3004
 15  7  8  9 23  0.0000000  0  8G25G17G12G02G06G15G24G14
 121528366.719 6  94697451.18444  23126070.785                    23126073.9474
        41.300          27.5004
 123531884.832 7  96258599.67044  23507339.251                    23507337.0774
        45.000          29.7004
 107850784.419 8  84039592.36946  20523310.077                    20523306.9244
        50.700          41.0004
 125892220.615 6  98097832.13443  23956493.225                    23956489.5204
        36.700          18.3004
 121909732.372 7  94994645.94644  23198636.735                    23198639.0264
        42.800          29.4004
 126860389.398 7  98852225.83144  24140744.382                    24140745.5944
        44.600          26.8004
 106278218.305 8  82814210.31647  20224069.162                    20224068.6474
        52.700          43.5004
 124363435.476 7  96906569.57043  23665566.765                    23665566.5604
        42.900          23.8004
 15  7  8  9 23 15.0000000  0  8G25G17G12G02G06G15G24G14
 121486541.696 7  94664860.32944  23118111.965                    23118114.7284
        42.800          28.1004
 123575635.324 7  96292690.93844  23515664.644                    23515662.1804
        45.200          29.8004
 107833987.339 8  84026503.74646  20520113.597                    20520110.2914
        50.700          40.7004
 125850434.564 6  98065271.59542  23948541.466                    23948538.2114
        36.800          17.8004
 121883132.737 7  94973918.98944  23193575.009                    23193577.0194
        42.600          29.7004
 126912813.110 7  98893075.42144  24150719.853                    24150721.2444
        43.900          26.8004
 106282461.995 8  82817517.09547  20224876.684                    20224876.1364
        52.100          43.9004
 124329127.022 7  96879835.74644  23659038.365                    23659037.2474
        43.000          24.7004
 15  7  8  9 23 30.0000000  0  8G25G17G12G02G06G15G24G14
 121444755.687 7  94632299.85244  23110160.896                    23110162.9474
        43.900          28.6004
 123619446.665 7  96326829.60345  23524001.716                    23523999.8904
        44.400          30.3004
 107817272.147 8  84013478.93546  20516932.634                    20516929.3974
        50.000          41.0004
 125808677.726 6  98032733.92243  23940595.390                    23940593.1524
        37.700          19.6004
 121856644.237 6  94953278.63744  23188534.169                    23188536.1414
        41.300          28.9004
 126965250.522 7  98933935.67144  24160698.806                    24160699.8674
        43.900          27.4004
 106286824.249 8  82820916.24147  20225706.901                    20225706.2544
        51.700          43.8004
 124294925.426 7  96853185.16043  23652529.977                    23652528.8224
        42.700          22.2004
 15  7  8  9 23 45.0000000  0  8G25G17G12G02G06G15G24G14
 121403010.383 7  94599771.09345  23102217.034                    23102219.1994
        44.400          30.6004
 123663320.076 7  96361016.65945  23532350.351                    23532348.6364
        45.200          30.2004
 107800640.489 8  84000519.22146  20513767.863                    20513764.9614
        50.200          41.2004
 125766952.215 6  98000220.64043  23932654.469                    23932653.6054
        38.400          21.1004
 121830268.774 6  94932726.34744  23183515.227                    23183518.0564
        41.900          29.9004
 127017702.910 7  98974807.60044  24170679.794                    24170681.9324
        44.100          27.6004
 106291307.150 8  82824409.41347  20226559.706                    20226559.3204
        51.900          43.1004
 124260832.508 7  96826619.26143  23646042.832                    23646040.9904
        42.800          22.6004
 15  7  8  9 24  0.0000000  0  8G25G17G12G02G06G15G24G14
 121361304.058 7  94567272.70345  23094280.902                    23094282.1804
        45.400          30.9004
 123707253.520 7  96395250.47045  23540711.134                    23540709.7604
        45.000          30.6004
 107784090.467 8  83987623.11046  20510618.374                    20510615.5204
        51.000          41.0004
 125725256.523 6  97967730.56343  23924721.079                    23924719.2334
        38.400          20.4004
 121804004.872 7  94912261.00044  23178517.460                    23178519.8234
        42.400          29.4004
 127070168.180 7  99015689.53944  24180663.565                    24180665.0584
        43.600          27.2004
 106295908.886 8  82827995.18547  20227435.384                    20227435.0554
        52.300          43.4004
 124226846.768 7  96800136.89143  23639575.214                    23639573.4504
        43.600          23.0004
 15  7  8  9 24 15.0000000  0  8G25G17G12G02G06G15G24G14
 121319638.138 7  94534805.78745  23086352.205                    23086354.1994
        44.700          31.2004
 123751248.006 7  96429531.84844  23549082.818                    23549081.6654
        44.700          29.9004
 107767623.439 8  83974791.67146  20507484.847                    20507481.7294
        50.400          40.9004
 125683592.458 6  97935265.13943  23916791.528                    23916790.8784
        38.800          20.6004
 121777854.153 6  94891883.83745  23173540.694                    23173543.7844
        40.400          30.1004
 127122647.315 7  99056582.30244  24190650.000                    24190652.1154
        44.100          26.3004
 106300630.886 8  82831674.66147  20228334.036                    20228333.7254
        52.200          43.7004
 124192969.765 7  96773739.27144  23633128.859                    23633127.1304
        43.700          25.1004
 15  7  8  9 24 30.0000000  0  8G25G17G12G02G06G15G24G14
 121278011.359 7  94502369.38745  23078430.678                    23078432.5154
        45.800          30.9004
 123795302.020 7  96463859.62945  23557465.653                    23557465.3724
        43.500          30.2004
 107751238.189 8  83962023.96446  20504366.764                    20504363.4104
        50.500          41.0004
 125641959.105 6  97902823.64843  23908868.897                    23908868.4884
        40.400          21.8004
 121751815.660 6  94871594.12344  23168585.736                    23168588.5704
        41.100          29.2004
 127175138.662 7  99097484.58244  24200639.043                    24200640.3534
        43.900          25.9004
 106305471.629 8  82835446.66047  20229255.231                    20229254.9104
        52.100          43.7004
 124159200.641 7  96747425.70743  23626702.739                    23626701.6214
        43.400          22.8004
 15  7  8  9 24 45.0000000  0  8G25G17G12G02G06G15G24G14
 121236424.668 7  94469964.22044  23070516.227                    23070518.7714
        45.600          29.2004
 123839416.105 7  96498234.18745  23565860.416                    23565859.3744
        42.600          30.2004
 107734935.502 8  83949320.57646  20501264.378                    20501261.1404
        50.300          41.0004
 125600357.527 6  97870406.92343  23900953.025                    23900950.9534
        39.500          20.9004
 121725890.481 6  94851392.72644  23163652.401                    23163655.3054
        40.500          29.1004
 127227642.803 7  99138396.82244  24210630.489                    24210631.1334
        43.900          27.1004
 106310432.286 8  82839312.10847  20230199.064                    20230198.9154
        52.200          43.8004
 124125540.566 7  96721197.11044  23620297.446                    23620296.0784
        44.100          25.5004
 15  7  8  9 25  0.0000000  0  8G25G17G12G02G06G15G24G14
 121194877.998 7  94437590.21844  23062610.151                    23062612.4704
        44.300          28.5004
 123883589.841 6  96532655.24944  23574265.809                    23574265.7634
        41.900          29.6004
 107718715.229 8  83936681.41146  20498177.680                    20498174.9134
        51.200          41.1004
 125558787.963 6  97838015.12443  23893042.192                    23893039.9334
        40.100          20.6004
 121700078.855 6  94831279.79644  23158740.828                    23158742.6484
        41.700          28.4004
 127280159.248 7  99179318.66444  24220624.247                    24220625.3804
        43.400          26.4004
 106315512.724 8  82843270.89247  20231166.073                    20231165.9714
        52.100          43.9004
 124091989.445 7  96695053.42444  23613913.428                    23613910.9614
        44.600          25.0004
 15  7  8  9 25 15.0000000  0  8G25G17G12G02G06G15G24G14
 121153370.468 7  94405246.71944  23054711.241                    23054713.4934
        43.600          27.9004
 123927822.096 7  96567121.89344  23582683.921                    23582682.8124
        42.700          29.8004
 107702576.504 8  83924105.80146  20495106.332                    20495103.5314
        50.300          41.0004
 125517249.855 6  97805647.82543  23885137.705                    23885135.1584
        40.200          20.6004
 121674380.084 6  94811254.80544  23153849.853                    23153852.5504
        41.900          27.9004
 127332686.691 7  99220249.06144  24230619.239                    24230621.1654
        44.400          27.0004
 106320711.906 8  82847322.20347  20232155.304                    20232155.2934
        51.600          44.3004
 124058546.683 7  96668994.13644  23607549.810                    23607546.6264
        45.300          25.6004
 15  7  8  9 25 30.0000000  0  8G25G17G12G02G06G15G24G14
 121111904.317 7  94372935.46644  23046820.842                    23046822.5054
        42.300          25.8004
 123972114.584 6  96601635.49344  23591111.959                    23591111.1994
        41.100          29.9004
 107686521.483 8  83911595.40446  20492051.648                    20492048.9404
        50.100          41.2004
 125475745.707 6  97773307.00143  23877239.893                    23877237.2144
        40.900          20.1004
 121648796.749 6  94791319.75444  23148981.676                    23148984.0564
        41.300          29.0004
 127385226.958 7  99261189.45344  24240617.616                    24240619.6474
        45.000          26.4004
 106326032.466 8  82851468.09547  20233168.040                    20233167.8214
        52.200          44.2004
 124025214.796 7  96643021.25844  23601206.920                    23601203.9744
        45.100          24.9004
 15  7  8  9 25 45.0000000  0  8G25G17G12G02G06G15G24G14
 121070478.337 6  94340655.51344  23038937.047                    23038938.6374
        40.900          25.3004
 124016465.850 7  96636194.88944  23599551.605                    23599551.5024
        42.300          28.6004
 107670548.825 8  83899149.19146  20489011.774                    20489008.8464
        50.200          40.9004
 125434274.497 6  97740991.83343  23869348.872                    23869345.9634
        39.800          20.4004
 121623327.801 7  94771473.83944  23144135.349                    23144137.2264
        42.500          28.6004
 127437778.487 7  99302138.61344  24250617.944                    24250620.4084
        44.200          28.3004
 106331473.027 8  82855707.49947  20234202.773                    20234203.2894
        52.000          44.0004
 123991992.779 7  96617133.98843  23594884.391                    23594881.5304
        43.800          23.9004
 15  7  8  9 26  0.0000000  0  8G25G17G12G02G06G15G24G14
 121029091.698 7  94308406.24844  23031061.703                    23031063.6834
        42.300          26.5004
 124060874.613 7  96670799.07145  23608002.760                    23608001.3414
        42.300          30.0004
 107654657.683 8  83886766.50946  20485987.768                    20485985.0784
        49.900          40.9004
 125392835.721 6  97708701.94443  23861462.235                    23861460.4174
        39.000          19.6004
 121597972.658 6  94751716.60144  23139310.368                    23139312.6314
        41.800          27.6004
 127490340.091 7  99343095.63444  24260620.317                    24260621.5324
        45.100          28.1004
 106337032.549 8  82860039.59047  20235261.076                    20235260.6514
        52.300          43.8004
 123958879.928 7  96591331.78544  23588583.152                    23588581.0174
        44.100          24.0004
 15  7  8  9 26 15.0000000  0  8G25G17G12G02G06G15G24G14
 120987746.704 7  94276189.44544  23023193.454                    23023195.2754
        43.800          29.4004
 124105342.900 7  96705449.66044  23616464.440                    23616463.3564
        42.300          29.2004
 107638850.252 8  83874449.03946  20482979.659                    20482976.8584
        50.100          40.6004
 125351431.989 6  97676439.39443  23853583.089                    23853581.6104
        38.100          20.1004
 121572733.915 6  94732050.06244  23134507.359                    23134509.5704
        41.100          28.9004
 127542913.720 7  99384062.03144  24270625.152                    24270626.4974
        44.700          27.9004
 106342713.814 8  82864466.54947  20236342.107                    20236342.1314
        51.700          43.5004
 123925878.795 7  96565616.66143  23582303.016                    23582301.0704
        43.500          23.0004
 15  7  8  9 26 30.0000000  0  8G25G17G12G02G06G15G24G14
 120946440.745 7  94244003.03944  23015333.846                    23015336.1844
        43.900          29.3004
 124149867.647 7  96740144.23644  23624937.576                    23624935.7624
        42.300          29.7004
 107623123.833 8  83862194.69746  20479986.936                    20479984.1404
        50.200          40.7004
 125310060.757 6  97644202.14443  23845709.716                    23845708.9014
        36.600          19.9004
 121547609.014 6  94712472.24144  23129725.974                    23129728.4354
        41.900          28.6004
 127595496.316 7  99425035.39944  24280630.772                    24280633.4294
        44.300          29.1004
 106348513.590 8  82868985.85447  20237445.724                    20237445.6294
        51.600          43.5004
 123892986.940 7  96539986.65643  23576043.374                    23576042.1524
        43.200          22.8004
 15  7  8  9 26 45.0000000  0  8G25G17G12G02G06G15G24G14
 120905174.760 7  94211847.76744  23007481.980                    23007483.3534
        44.700          29.2004
 124194449.379 6  96774883.21545  23633421.216                    23633420.1244
        41.300          30.5004
 107607479.333 8  83850004.18346  20477010.526                    20477007.4214
        49.900          40.8004
 125268723.427 6  97611991.31743  23837844.354                    23837842.8984
        37.600          20.4004
 121522599.197 6  94692984.09244  23124967.122                    23124969.6384
        41.800          28.4004
 127648088.253 7  99466016.04944  24290639.280                    24290640.4274
        45.000          28.1004
 106354432.839 8  82873598.26247  20238572.097                    20238572.2654
        51.400          43.9004
 123860205.460 7  96514442.68844  23569805.495                    23569803.9974
        42.800          25.8004
 15  7  8  9 27  0.0000000  0  8G25G17G12G02G06G15G24G14
 120863950.144 7  94179724.73145  22999637.459                    22999639.1034
        45.600          30.4004
 124239089.313 7  96809667.55244  23641915.730                    23641914.4524
        42.700          29.1004
 107591918.089 8  83837878.56246  20474049.236                    20474046.0544
        49.200          40.9004
 125227421.749 6  97579808.24343  23829984.817                    23829983.4564
        38.000          20.6004
 121497706.139 7  94673586.91044  23120230.511                    23120232.4154
        43.100          28.7004
 127700690.627 7  99507004.83844  24300648.623                    24300651.0344
        43.400          27.6004
 106360473.322 8  82878305.13347  20239721.723                    20239721.5984
        51.700          43.8004
 123827535.900 7  96488985.92544  23563588.984                    23563586.9824
        42.600          24.7004
 15  7  8  9 27 15.0000000  0  8G25G17G12G02G06G15G24G14
 120822765.842 7  94147633.10945  22991799.617                    22991801.3594
        45.800          30.6004
 124283785.948 7  96844496.05344  23650421.299                    23650420.9764
        42.000          29.7004
 107576439.099 8  83825817.02046  20471103.507                    20471100.6064
        49.900          40.8004
 125186154.791 6  97547652.26943  23822131.978                    23822130.2514
        38.400          21.1004
 121472928.993 7  94654280.06444  23115514.778                    23115517.7574
        43.500          27.6004
 127753301.908 7  99548000.53444  24310660.291                    24310662.7974
        43.600          26.8004
 106366633.805 8  82883105.50847  20240893.863                    20240893.5554
        51.400          43.7004
 123794977.642 7  96463615.90044  23557393.253                    23557391.2734
        42.300          25.2004
 15  7  8  9 27 30.0000000  0  8G25G17G12G02G06G15G24G14
 120781621.444 7  94115572.58445  22983970.140                    22983971.6934
        46.000          30.9004
 124328538.581 6  96879368.20844  23658937.618                    23658936.5064
        40.800          29.7004
 107561041.785 8  83813819.12846  20468173.519                    20468170.5614
        50.000          41.0004
 125144922.444 6  97515523.23643  23814286.180                    23814283.4804
        40.800          21.5004
 121448267.580 7  94635063.39344  23110822.589                    23110824.7814
        43.600          27.8004
 127805921.379 7  99589002.65344  24320673.482                    24320675.4524
        44.800          27.5004
 106372913.744 8  82887998.96647  20242088.908                    20242089.1634
        52.900          43.8004
 123762530.274 6  96438332.27243  23551218.366                    23551216.7134
        41.700          22.6004
 15  7  8  9 27 45.0000000  0  8G25G17G12G02G06G15G24G14
 120740518.126 7  94083544.05545  22976148.581                    22976150.0044
        45.300          31.6004
 124373347.871 7  96914284.49844  23667464.708                    23667463.1704
        42.600          29.9004
 107545727.229 8  83801885.72146  20465259.445                    20465255.9434
        49.800          40.9004
 125103726.232 6  97483422.32943  23806446.350                    23806443.1004
        41.100          21.8004
 121423723.238 7  94615937.96844  23106151.243                    23106153.7214
        42.500          28.3004
 127858549.874 7  99630011.79444  24330688.910                    24330690.8614
        43.600          26.1004
 106379314.465 8  82892986.53647  20243306.932                    20243306.9004
        51.400          43.9004
 123730195.235 6  96413136.15243  23545065.008                    23545063.5384
        41.300          22.5004
 15  7  8  9 28  0.0000000  0  8G25G17G12G02G06G15G24G14
 120699456.113 7  94051547.70945  22968334.244                    22968336.5574
        45.500          31.0004
 124418213.861 6  96949244.98945  23676002.026                    23676001.3614
        41.200          30.0004
 107530495.447 8  83790016.80946  20462360.830                    20462357.6674
        49.400          41.0004
 125062566.551 6  97451349.88143  23798614.012                    23798611.4464
        41.200          22.8004
 121399296.506 7  94596904.14744  23101502.788                    23101505.5494
        42.500          28.0004
 127911187.171 7  99671027.78044  24340705.127                    24340707.5524
        43.000          25.8004
 106385836.194 8  82898068.40147  20244548.018                    20244548.1594
        51.800          44.3004
 123697972.926 7  96388027.89943  23538933.109                    23538932.2254
        42.300          22.2004
 15  7  8  9 28 15.0000000  0  8G25G17G12G02G06G15G24G14
 120658434.794 7  94019583.07445  22960528.386                    22960530.2054
        44.700          30.4004
 124463135.541 7  96984248.85544  23684550.537                    23684549.0714
        42.300          29.5004
 107515345.851 8  83778211.95246  20459477.599                    20459474.9334
        49.600          40.9004
 125021443.052 6  97419305.66443  23790789.126                    23790785.1564
        41.100          21.5004
 121374986.881 7  94577961.61544  23096876.496                    23096879.2454
        42.400          26.5004
 127963832.342 7  99712049.90444  24350722.355                    24350725.2404
        42.800          26.2004
 106392478.063 8  82903243.87847  20245811.971                    20245811.8084
        51.900          43.8004
 123665862.948 7  96363007.15643  23532823.387                    23532822.4234
        42.600          22.6004
 15  7  8  9 28 30.0000000  0  8G25G17G12G02G06G15G24G14
 120617453.799 7  93987649.87144  22952729.338                    22952731.3264
        43.700          28.5004
 124508112.248 6  97019295.62244  23693109.304                    23693108.4834
        41.700          29.8004
 107500278.067 8  83766470.83246  20456610.735                    20456607.5104
        50.400          40.8004
 124980355.639 6  97387289.52343  23782969.583                    23782967.2844
        41.100          22.0004
 121350794.338 7  94559110.30944  23092273.471                    23092275.2944
        42.400          27.3004
 128016484.629 7  99753077.57344  24360743.037                    24360745.1284
        42.700          26.2004
 106399239.973 8  82908512.89447  20247098.863                    20247098.7104
        51.900          43.9004
 123633865.110 7  96338073.80044  23526734.235                    23526733.5814
        43.000          25.6004
 15  7  8  9 28 45.0000000  0  8G25G17G12G02G06G15G24G14
 120576514.374 7  93955749.06444  22944938.673                    22944940.2874
        42.800          27.4004
 124553144.724 7  97054385.83244  23701678.627                    23701676.6804
        42.500          29.7004
 107485293.224 8  83754794.34246  20453759.081                    20453756.3204
        50.300          41.7004
 124939305.933 6  97355302.81043  23775158.691                    23775155.5334
        41.100          22.3004
 121326720.306 7  94540351.32444  23087692.465                    23087694.3234
        43.800          27.9004
 128069144.705 6  99794111.29844  24370763.614                    24370765.9364
        41.700          26.2004
 106406123.200 8  82913876.45447  20248408.351                    20248408.2604
        51.600          44.4004
 123601980.881 6  96313228.97644  23520666.610                    23520666.5374
        41.800          25.1004
 15  7  8  9 29  0.0000000  0  8G25G17G12G02G06G15G24G14
 120535615.385 7  93923879.78744  22937155.367                    22937157.1054
        43.000          27.2004
 124598231.509 7  97089518.37344  23710258.469                    23710257.2484
        42.300          28.8004
 107470390.283 8  83743181.67946  20450922.956                    20450920.1554
        49.800          40.8004
 124898292.999 6  97323344.71743  23767353.881                    23767351.0204
        41.300          21.5004
 121302763.837 7  94521683.97944  23083133.697                    23083135.5834
        43.800          28.0004
 128121811.281 7  99835150.10444  24380785.972                    24380788.2084
        42.200          27.3004
 106413126.290 8  82919333.40747  20249741.259                    20249741.0764
        52.000          44.1004
 123570209.284 6  96288471.92844  23514620.450                    23514620.1484
        40.500          25.6004
 15  7  8  9 29 15.0000000  0  8G25G17G12G02G06G15G24G14
 120494758.266 7  93892043.12844  22929380.583                    22929382.1544
        43.400          24.7004
 124643373.720 7  97124694.09044  23718849.057                    23718846.6844
        43.600          29.6004
 107455570.472 8  83731633.79046  20448102.890                    20448099.7394
        50.400          41.4004
 124857318.470 6  97291416.60543  23759556.373                    23759554.4104
        41.100          22.8004
 121278926.650 7  94503109.58744  23078597.369                    23078599.8664
        42.900          29.3004
 128174485.198 6  99876194.63844  24390809.279                    24390811.5934
        41.400          26.0004
 106420250.881 8  82924885.02947  20251097.020                    20251097.1134
        51.300          43.8004
 123538551.943 6  96263803.91643  23508596.153                    23508595.1864
        41.000          22.6004
 15  7  8  9 29 30.0000000  0  8G25G17G12G02G06G15G24G14
 120453942.068 7  93860238.33144  22921613.858                    22921614.7274
        43.800          26.3004
 124688570.045 7  97159911.98944  23727449.337                    23727447.8134
        43.400          29.4004
 107440832.814 8  83720149.92346  20445298.404                    20445295.4364
        50.200          41.0004
 124816381.717 6  97259517.87043  23751766.000                    23751764.1844
        40.900          22.3004
 121255207.943 7  94484627.49944  23074083.555                    23074086.4944
        43.900          28.6004
 128227165.130 6  99917243.84944  24400833.579                    24400836.1924
        41.600          25.8004
 106427495.838 8  82930530.46147  20252475.823                    20252475.8024
        50.500          42.8004
 123507008.121 7  96239224.33243  23502593.790                    23502592.0724
        42.300          22.3004
 15  7  8  9 29 45.0000000  0  8G25G17G12G02G06G15G24G14
 120413168.007 7  93828466.38744  22913855.202                    22913856.6464
        44.300          27.1004
 124733821.389 7  97195172.75045  23736060.988                    23736058.9034
        43.000          30.0004
 107426178.366 8  83708730.88246  20442509.331                    20442506.6204
        49.900          41.3004
 124775484.285 6  97227649.82143  23743983.166                    23743982.2834
        40.500          22.8004
 121231609.189 7  94466238.90044  23069593.079                    23069595.8204
        43.400          28.9004
 128279851.973 7  99958298.44644  24410859.742                    24410862.0674
        42.300          25.1004
 106434862.690 8  82936270.85747  20253877.484                    20253877.2554
        51.700          43.3004
 123475579.318 7  96214734.39443  23496613.175                    23496610.7494
        43.000          22.6004
 15  7  8  9 30  0.0000000  0  8G25G17G12G02G06G15G24G14
 120372434.195 7  93796725.78844  22906103.207                    22906105.2384
        44.500          27.3004
 124779125.454 7  97230474.58644  23744681.821                    23744680.3514
        43.200          29.8004
 107411605.202 8  83697375.18247  20439736.560                    20439733.8674
        50.100          42.0004
 124734624.574 6  97195811.13243  23736208.135                    23736206.6604
        41.700          22.6004
 121208128.664 7  94447942.38544  23065124.688                    23065127.3644
        42.400          27.9004
 128332543.241 6  99999356.50044  24420887.223                    24420888.8984
        41.400          25.1004
 106442348.865 8  82942104.24247  20255301.988                    20255302.0094
        52.200          43.4004
 123444263.803 7  96190332.69944  23490654.575                    23490652.2394
        43.700          25.8004
 15  7  8  9 30 15.0000000  0  8G25G17G12G02G06G15G24G14
 120331741.892 7  93765017.53644  22898360.203                    22898362.1174
        45.200          28.8004
 124824483.127 7  97265818.20244  23753312.795                    23753311.6284
        42.800          29.8004
 107397114.453 8  83686083.71146  20436979.303                    20436976.3454
        49.700          41.0004
 124693804.193 7  97164003.12243  23728440.077                    23728438.1904
        42.200          23.9004
 121184767.805 7  94429739.16144  23060679.367                    23060681.6794
        42.700          28.5004
 128385240.041 7 100040418.83944  24430915.036                    24430917.0964
        42.300          25.4004
 106449956.092 8  82948031.95347  20256749.615                    20256749.4484
        51.700          43.5004
 123413062.988 7  96166020.39444  23484717.847                    23484715.7364
        44.600          25.6004
 15  7  8  9 30 30.0000000  0  8G25G17G12G02G06G15G24G14
 120291090.235 7  93733340.95344  22890624.870                    22890626.7974
        46.300          29.4004
 124869893.188 7  97301202.62144  23761954.458                    23761953.0184
        42.400          29.5004
 107382705.266 8  83674855.78546  20434236.994                    20434234.2674
        49.000          41.2004
 124653022.346 6  97132225.10343  23720680.074                    23720677.8174
        41.400          22.8004
 121161526.080 6  94411628.73644  23056256.197                    23056258.7924
        41.700          28.5004
 128437940.990 6 100081484.48944  24440943.470                    24440945.8264
        41.100          24.7004
 106457683.295 8  82954053.14747  20258220.040                    20258219.9724
        51.900          43.4004
 123381976.176 7  96141796.93144  23478801.371                    23478800.3244
        43.700          26.1004
 15  7  8  9 30 45.0000000  0  8G25G17G12G02G06G15G24G14
 120250479.632 7  93701696.36844  22882896.307                    22882898.9484
        45.500          29.7004
 124915355.767 7  97336627.97544  23770604.802                    23770604.3454
        43.000          29.2004
 107368378.029 8  83663691.70846  20431510.721                    20431507.9284
        50.100          41.4004
 124612279.751 6  97100477.69044  23712926.321                    23712925.6194
        41.700          25.0004
 121138404.045 7  94393611.60544  23051857.233                    23051859.1634
        43.300          28.3004
 128490646.175 6 100122553.32344  24450972.994                    24450975.1064
        40.600          26.1004
 106465530.854 8  82960168.13247  20259713.192                    20259713.3304
        51.500          43.4004
 123351003.831 7  96117662.68044  23472907.386                    23472906.7224
        42.900          25.6004
 15  7  8  9 31  0.0000000  0  8G25G17G12G02G06G15G24G14
 120209911.068 7  93670084.53045  22875176.432                    22875178.7504
        45.500          30.4004
 124960871.444 7  97372094.70444  23779267.074                    23779265.7684
        42.400          28.1004
 107354133.609 8  83652592.17946  20428799.700                    20428797.3664
        49.600          41.5004
 124571577.804 6  97068761.96143  23705181.940                    23705179.6114
        41.600          22.5004
 121115402.897 7  94375688.67544  23047479.500                    23047482.7624
        42.900          28.1004
 128543356.019 6 100163625.82644  24461003.723                    24461005.2904
        40.900          25.3004
 106473499.929 8  82966377.78947  20261229.476                    20261229.7574
        51.600          43.0004
 123320147.204 7  96093618.60544  23467034.960                    23467035.3424
        42.800          24.8004
 15  7  8  9 31 15.0000000  0  8G25G17G12G02G06G15G24G14
 120169384.661 7  93638505.56745  22867464.785                    22867466.2144
        45.700          30.7004
 125006439.986 6  97407602.61044  23787938.342                    23787937.4244
        41.800          26.4004
 107339972.058 8  83641557.22446  20426105.180                    20426102.3354
        49.000          41.5004
 124530916.725 6  97037078.07244  23697444.012                    23697442.5394
        41.100          24.2004
 121092523.008 7  94357860.22444  23043125.554                    23043128.7624
        42.800          28.5004
 128596070.443 6 100204701.90344  24471034.479                    24471036.8844
        41.800          25.8004
 106481590.439 8  82972682.08247  20262769.077                    20262769.2164
        50.900          43.3004
 123289406.719 7  96069665.00744  23461185.885                    23461184.7464
        42.100          24.4004
 15  7  8  9 31 30.0000000  0  8G25G17G12G02G06G15G24G14
 120128900.328 7  93606959.36345  22859760.881                    22859762.2584
        45.600          30.7004
 125052061.019 6  97443151.43844  23796619.729                    23796618.4074
        41.600          26.5004
 107325893.166 8  83630586.66846  20423425.811                    20423423.4134
        50.000          41.3004
 124490296.794 6  97005426.21543  23689714.074                    23689712.5264
        40.400          22.9004
 121069764.485 6  94340126.35344  23038794.977                    23038797.8104
        41.900          28.4004
 128648788.955 7 100245781.16544  24481067.415                    24481069.0914
        42.900          26.3004
 106489802.475 8  82979081.06747  20264332.153                    20264332.2534
        52.000          43.2004
 123258782.374 6  96045801.87844  23455358.453                    23455356.5364
        41.100          25.3004
 15  7  8  9 31 45.0000000  0  8G25G17G12G02G06G15G24G14
 120088457.199 7  93575445.28945  22852065.103                    22852065.5684
        45.600          30.4004
 125097733.182 7  97478740.11544  23805310.350                    23805309.6724
        42.000          27.3004
 107311895.958 8  83619679.77046  20420762.252                    20420759.8124
        50.000          41.3004
 124449717.381 6  96973805.95843  23681992.172                    23681990.7784
        40.200          22.6004
 121047126.670 7  94322486.52944  23034486.502                    23034490.0564
        42.800          27.8004
 128701510.215 7 100286862.58544  24491099.795                    24491101.9474
        43.600          26.7004
 106498134.813 8  82985573.80047  20265917.604                    20265917.4724
        51.600          43.1004
 123228273.577 6  96022028.81744  23449552.186                    23449550.6324
        41.000          25.2004
 15  7  8  9 32  0.0000000  0  8G25G17G12G02G06G15G24G14
 120048056.741 7  93543964.46445  22844376.243                    22844377.3254
        44.500          30.3004
 125143457.598 6  97514369.49444  23814011.513                    23814010.6344
        41.700          26.1004
 107297981.863 8  83608837.62946  20418114.865                    20418111.8524
        50.000          41.7004
 124409180.231 6  96942218.63743  23674278.380                    23674276.1414
        41.100          22.5004
 121024611.179 7  94304942.03444  23030203.091                    23030205.5014
        42.700          27.5004
 128754235.287 7 100327946.97644  24501132.594                    24501135.5454
        42.900          25.8004
 106506589.201 8  82992161.62347  20267526.524                    20267526.2284
        51.500          43.5004
 123197882.020 6  95998347.08844  23443769.869                    23443766.8924
        39.700          24.0004
 15  7  8  9 32 15.0000000  0  8G25G17G12G02G06G15G24G14
 120007696.656 7  93512515.11344  22836695.634                    22836697.0894
        44.600          28.5004
 125189231.737 6  97550037.64044  23822722.301                    23822721.5094
        40.900          26.3004
 107284148.550 8  83598058.43046  20415482.578                    20415478.9114
        50.700          41.6004
 124368683.360 7  96910662.69643  23666571.558                    23666569.3284
        42.100          23.8004
 121002215.973 7  94287491.28444  23025940.978                    23025943.5234
        43.700          29.1004
 128806961.531 7 100369032.24844  24511166.208                    24511169.2754
        44.400          28.0004
 106515162.989 8  82998842.49347  20269157.809                    20269157.8044
        51.000          43.3004
 123167605.512 6  95974755.04643  23438007.613                    23438006.3434
        40.500          22.6004
 15  7  8  9 32 30.0000000  0  8G25G17G12G02G06G15G24G14
 119967379.158 7  93481098.92344  22829023.210                    22829024.8284
        44.500          28.9004
 125235057.493 6  97585745.99944  23831442.792                    23831442.0884
        41.700          25.8004
 107270398.150 8  83587343.83846  20412865.670                    20412862.5294
        51.100          41.5004
 124328229.223 7  96879140.05043  23658873.987                    23658870.9224
        42.600          22.8004
 120979943.473 7  94270136.10344  23021702.616                    23021705.8214
        43.300          28.6004
 128859691.075 7 100410120.11044  24521200.366                    24521203.9314
        44.400          27.6004
 106523858.716 8  83005618.37647  20270812.785                    20270812.4474
        51.500          43.1004
 123137446.307 6  95951254.42844  23432268.432                    23432267.7874
        41.100          25.0004
 15  7  8  9 32 45.0000000  0  8G25G17G12G02G06G15G24G14
 119927103.655 7  93449715.46744  22821359.912                    22821360.7804
        43.900          28.9004
 125280933.859 6  97621493.77844  23840172.523                    23840172.0564
        40.500          26.4004
 107256730.033 8  83576693.37046  20410264.886                    20410261.5494
        50.500          41.8004
 124287817.395 7  96847650.37943  23651183.029                    23651180.9114
        42.600          23.3004
 120957793.209 7  94252876.20244  23017487.568                    23017491.0724
        43.100          29.3004
 128912422.445 7 100451209.40244  24531235.897                    24531238.8804
        45.200          26.4004
 106532675.573 8  83012488.65647  20272490.281                    20272490.6064
        51.500          43.2004
 123107404.072 7  95927844.93444  23426551.817                    23426551.1354
        43.700          26.5004
 15  7  8  9 33  0.0000000  0  8G25G17G12G02G06G15G24G14
 119886870.657 7  93418365.13444  22813703.491                    22813704.0134
        44.300          28.0004
 125326860.958 6  97657281.08344  23848911.802                    23848911.9784
        41.000          26.1004
 107243144.761 8  83566107.46246  20407679.410                    20407676.4604
        50.700          41.5004
 124247448.854 7  96816194.40543  23643501.342                    23643498.4084
        42.600          22.2004
 120935765.993 7  94235712.18244  23013295.985                    23013299.1344
        43.000          28.7004
 128965155.833 7 100492300.27844  24541270.043                    24541273.1824
        45.000          27.3004
 106541613.917 8  83019453.59147  20274191.240                    20274191.3794
        51.200          43.3004
 123077479.644 7  95904527.22344  23420857.764                    23420856.8454
        45.400          28.1004
 15  7  8  9 33 15.0000000  0  8G25G17G12G02G06G15G24G14
 119846680.060 7  93387047.82644  22806055.595                    22806057.1904
        44.300          29.6004
 125372838.278 6  97693107.54644  23857661.453                    23857661.0864
        40.200          26.8004
 107229641.925 8  83555585.78346  20405109.747                    20405107.1204
        50.800          41.8004
 124207123.688 7  96784772.25444  23635827.672                    23635824.5414
        42.800          24.9004
 120913861.835 7  94218644.07444  23009127.209                    23009130.3584
        42.300          29.3004
 129017890.844 7 100533392.40644  24551305.030                    24551308.4664
        45.300          28.3004
 106550673.826 8  83026513.25447  20275915.323                    20275915.6714
        51.400          43.3004
 123047672.921 7  95881301.23744  23415186.239                    23415184.4844
        45.300          27.5004
 15  7  8  9 33 30.0000000  0  8G25G17G12G02G06G15G24G14
 119806531.311 7  93355763.12744  22798415.812                    22798417.0494
        44.700          29.4004
 125418864.848 6  97728972.36344  23866420.115                    23866419.8384
        41.400          25.7004
 107216220.948 8  83545127.89247  20402556.017                    20402553.3624
        50.500          42.2004
 124166841.634 7  96753383.70343  23628162.289                    23628159.9434
        42.500          22.8004
 120892080.450 7  94201671.62445  23004982.640                    23004985.5544
        43.700          30.2004
 129070626.511 7 100574485.04044  24561340.803                    24561343.9924
        45.200          28.8004
 106559854.648 8  83033667.13847  20277662.550                    20277662.6014
        51.200          43.7004
 123017983.554 7  95858166.64444  23409536.493                    23409533.6884
        45.300          27.0004
 15  7  8  9 33 45.0000000  0  8G25G17G12G02G06G15G24G14
 119766425.084 7  93324511.55244  22790783.001                    22790785.0074
        44.800          29.3004
 125464941.163 6  97764875.93444  23875188.063                    23875188.3284
        41.600          28.3004
 107202882.533 8  83534734.33647  20400017.421                    20400014.6704
        50.900          42.3004
 124126603.626 6  96722029.46044  23620505.376                    23620502.9984
        41.800          24.7004
 120870422.712 7  94184795.50244  23000861.395                    23000863.4814
        43.900          28.7004
 129123363.142 7 100615578.40844  24571375.881                    24571379.5734
        44.100          28.3004
 106569156.950 8  83040915.68247  20279432.756                    20279432.2964
        51.800          43.5004
 122988412.376 7  95835124.15944  23403908.173                    23403906.3714
        43.600          25.0004
 15  7  8  9 34  0.0000000  0  8G25G17G12G02G06G15G24G14
 119726362.141 7  93293293.70744  22783160.115                    22783161.0394
        45.900          29.3004
 125511067.601 6  97800818.58244  23883965.634                    23883965.8304
        41.400          27.8004
 107189627.249 8  83524405.55747  20397495.472                    20397492.6964
        50.600          42.0004
 124086410.519 7  96690710.23243  23612856.763                    23612854.4454
        42.400          23.3004
 120848889.539 7  94168016.43844  22996763.946                    22996766.1504
        43.600          28.3004
 129176101.171 7 100656672.89344  24581412.017                    24581414.6424
        44.900          27.7004
 106578581.555 8  83048259.52647  20281226.233                    20281226.2664
        51.800          43.5004
 122958960.330 7  95812174.56144  23398303.470                    23398302.3374
        43.200          26.2004
 15  7  8  9 34 15.0000000  0  8G25G17G12G02G06G15G24G14
 119686341.096 7  93262108.52545  22775544.484                    22775545.7394
        45.600          30.2004
 125557242.461 7  97836798.96044  23892752.646                    23892752.5614
        42.400          28.3004
 107176453.676 8  83514140.44547  20394988.514                    20394985.8274
        50.300          42.0004
 124046261.352 7  96659425.21043  23605215.864                    23605214.2894
        42.100          22.8004
 120827479.783 7  94151333.56144  22992689.303                    22992691.8584
        44.000          28.6004
 129228838.636 7 100697766.93244  24591447.986                    24591450.3084
        45.700          26.7004
 106588126.870 8  83055697.43247  20283042.661                    20283042.8284
        51.500          43.6004
 122929626.311 7  95789316.91844  23392721.881                    23392721.1074
        44.500          26.6004
 15  7  8  9 34 30.0000000  0  8G25G17G12G02G06G15G24G14
 119646362.519 7  93230956.41644  22767936.677                    22767937.9744
        46.800          29.4004
 125603465.965 7  97872817.23944  23901549.034                    23901548.5274
        42.400          27.8004
 107163362.453 8  83503939.51247  20392497.470                    20392494.2294
        50.800          42.0004
 124006157.002 7  96628175.12944  23597585.076                    23597582.8054
        43.100          25.4004
 120806194.171 7  94134747.42944  22988638.142                    22988641.3994
        42.300          29.1004
 129281575.948 7 100738860.84944  24601483.510                    24601485.6824
        44.500          27.1004
 106597793.567 8  83063229.93047  20284882.203                    20284881.8824
        51.400          43.6004
 122900411.158 7  95766551.88444  23387162.682                    23387162.0814
        45.200          28.8004
 15  7  8  9 34 45.0000000  0  8G25G17G12G02G06G15G24G14
 119606425.667 7  93199836.82645  22760336.989                    22760338.7184
        46.600          30.8004
 125649737.041 7  97908872.59944  23910354.155                    23910353.7274
        42.100          28.6004
 107150352.689 8  83493802.04646  20390021.495                    20390019.0354
        50.100          41.5004
 123966096.990 7  96596959.60143  23589961.673                    23589959.2174
        42.700          22.6004
 120785032.190 7  94118257.63144  22984611.881                    22984614.5694
        43.200          28.3004
 129334311.939 7 100779953.73044  24611518.755                    24611521.2114
        45.200          26.4004
 106607580.716 8  83070856.27147  20286744.876                    20286744.4814
        52.500          43.8004
 122871314.234 7  95743879.00144  23381625.545                    23381625.2614
        45.000          28.9004
 15  7  8  9 35  0.0000000  0  8G25G17G12G02G06G15G24G14
 119566531.863 7  93168750.77545  22752745.199                    22752746.7064
        46.500          30.7004
 125696056.420 7  97944965.59244  23919168.117                    23919168.0474
        43.400          27.6004
 107137425.568 8  83483728.97146  20387561.648                    20387558.7734
        50.700          41.4004
 123926082.811 7  96565779.77343  23582347.136                    23582344.6254
        42.500          22.3004
 120763995.351 7  94101865.32944  22980608.764                    22980611.3794
        43.600          28.9004
 129387047.337 7 100821046.16144  24621554.198                    24621556.1374
        44.700          25.9004
 106617489.768 8  83078577.61247  20288630.450                    20288629.9344
        52.300          43.6004
 122842336.994 7  95721299.35744  23376111.042                    23376110.6724
        45.500          27.9004
 15  7  8  9 35 15.0000000  0  8G25G17G12G02G06G15G24G14
 119526681.071 7  93137698.25645  22745161.575                    22745163.8684
        46.900          31.2004
 125742423.857 7  97981096.02844  23927991.559                    23927991.0344
        43.100          28.7004
 107124580.837 8  83473720.10846  20385117.081                    20385114.3164
        50.300          41.4004
 123886114.737 6  96534635.86343  23574741.390                    23574739.5294
        41.800          22.9004
 120743083.715 7  94085570.61844  22976629.510                    22976631.7914
        43.200          29.0004
 129439781.935 7 100862137.98044  24631589.346                    24631591.5974
        44.800          26.2004
 106627520.512 8  83086393.77847  20290539.295                    20290538.9064
        51.800          44.0004
 122813479.466 7  95698812.99844  23370619.645                    23370618.4754
        44.500          27.8004
 15  7  8  9 35 30.0000000  0  8G25G17G12G02G06G15G24G14
 119486873.531 7  93106679.43745  22737586.646                    22737588.1484
        46.000          30.7004
 125788839.304 7  98017263.87544  23936823.990                    23936823.8084
        43.100          28.4004
 107111818.847 8  83463775.71146  20382688.774                    20382685.8914
        50.000          41.7004
 123846193.338 7  96503528.31843  23567144.467                    23567141.3754
        42.400          22.5004
 120722297.835 7  94069373.85845  22972673.648                    22972676.0084
        42.700          30.4004
 129492515.515 7 100903228.98544  24641624.242                    24641627.5304
        45.300          27.0004
 106637673.351 8  83094305.08247  20292471.452                    20292470.9914
        51.800          44.2004
 122784742.092 7  95676420.25844  23365150.596                    23365149.3114
        43.800          26.3004
 15  7  8  9 35 45.0000000  0  8G25G17G12G02G06G15G24G14
 119447107.621 7  93075693.06045  22730018.841                    22730020.9004
        45.500          30.4004
 125835300.667 7  98053467.50244  23945665.428                    23945665.4094
        43.000          27.5004
 107099137.881 8  83453894.45446  20380275.875                    20380272.8454
        50.700          41.8004
 123806317.151 6  96472456.01543  23559556.560                    23559553.8724
        41.500          22.9004
 120701636.163 7  94053273.91344  22968742.215                    22968744.1304
        43.300          29.6004
 129545245.945 7 100944317.52444  24651658.672                    24651661.6284
        44.900          27.8004
 106647946.290 8  83102309.97147  20294425.882                    20294425.7334
        51.900          43.4004
 122756123.493 7  95654120.07644  23359704.585                    23359702.1764
        44.400          25.3004
 15  7  8  9 36  0.0000000  0  9G25G17G12G02G06G15G24G29G14
 119407385.272 7  93044740.62945  22722459.878                    22722462.4994
        45.100          30.1004
 125881809.883 7  98089708.40844  23954516.048                    23954515.6964
        42.700          27.1004
 107086539.718 8  83444077.72147  20377878.454                    20377875.0994
        50.800          42.2004
 123766488.478 6  96441420.72843  23551977.456                    23551974.9224
        41.700          22.2004
 120681100.896 7  94037272.46944  22964834.341                    22964836.0594
        44.300          29.6004
 129597974.864 7 100985404.88844  24661692.265                    24661696.0824
        45.300          27.0004
 106658341.628 8  83110410.22847  20296404.156                    20296404.0384
        51.400          43.5004
 131265944.21015                  24979078.623
        35.200
 122727625.762 7  95631914.05944  23354282.548                    23354279.6974
        44.000          26.9004
 15  7  8  9 36 15.0000000  0  9G25G17G12G02G06G15G24G29G14
 119367705.969 7  93013821.72544  22714909.926                    22714911.4134
        45.100          29.9004
 125928365.895 7  98125985.78744  23963375.274                    23963374.8294
        42.600          27.7004
 107074023.831 8  83434325.09046  20375496.658                    20375493.6734
        50.700          41.9004
 123726707.069 6  96410422.27843  23544406.940                    23544404.9854
        40.700          22.3004
 120660691.744 7  94021369.29244  22960950.733                    22960952.4904
        44.100          29.3004
 129650701.287 7 101026490.31544  24671725.829                    24671729.2764
        44.700          24.9004
 106668858.504 8  83118605.20047  20298405.365                    20298405.2354
        51.400          43.3004
 131208655.264 6 102240529.37253  24968178.740                    24968181.5354
        38.300          19.0004
 122699248.539 7  95609801.94444  23348882.988                    23348881.2034
        45.300          26.8004
 15  7  8  9 36 30.0000000  0  9G25G17G12G02G06G15G24G29G14
 119328070.055 7  92982936.64944  22707366.478                    22707369.5324
        45.200          29.0004
 125974968.479 7  98162299.44644  23972243.042                    23972242.9954
        42.300          26.8004
 107061590.509 8  83424636.79447  20373130.432                    20373127.6014
        50.500          42.3004
 123686973.522 6  96379461.13543  23536845.456                    23536843.4334
        41.100          22.2004
 120640409.103 7  94005564.68344  22957091.594                    22957093.0024
        44.800          29.7004
 129703425.314 7 101067573.87043  24681758.519                    24681762.1164
        44.300          23.8004
 106679497.426 8  83126895.26547  20300429.482                    20300429.2604
        51.700          43.7004
 131151379.547 6 102195898.94343  24957279.263                    24957282.6504
        37.600          18.3004
 122670992.317 7  95587784.11744  23343505.550                    23343504.5984
        43.900          28.5004
 15  7  8  9 36 45.0000000  0  9G25G17G12G02G06G15G24G29G14
 119288477.186 7  92952085.11944  22699832.397                    22699834.2794
        44.700          29.4004
 126021617.008 7  98198648.91744  23981120.162                    23981119.7924
        42.300          29.1004
 107049239.358 8  83415012.54146  20370780.329                    20370777.0714
        50.000          41.3004
 123647287.665 6  96348537.15643  23529293.740                    23529291.6044
        40.800          21.8004
 120620252.917 7  93989858.59345  22953255.229                    22953257.5484
        45.200          30.2004
 129756146.120 7 101108654.94043  24691790.698                    24691794.6564
        43.200          23.5004
 106690257.878 8  83135280.03347  20302477.422                    20302477.8864
        51.200          43.0004
 131094116.763 6 102151278.61542  24946383.226                    24946385.5864
        37.900          16.9004
 122642856.848 7  95565860.39944  23338151.513                    23338150.6414
        42.000          27.3004
 15  7  8  9 37  0.0000000  0  9G25G17G12G02G06G15G24G29G14
 119248927.291 7  92921267.06945  22692306.142                    22692308.3754
        45.500          31.1004
 126068311.116 7  98235033.88844  23990005.762                    23990004.9324
        42.000          27.0004
 107036970.176 8  83405452.15446  20368445.499                    20368442.5294
        50.900          41.0004
 123607649.778 7  96317650.57943  23521750.384                    23521748.7944
        42.000          22.6004
 120600223.279 7  93974251.13244  22949443.916                    22949445.4254
        44.300          29.1004
 129808863.475 7 101149733.32643  24701823.278                    24701826.6604
        43.400          22.6004
 106701139.744 8  83143759.40647  20304548.370                    20304548.0804
        51.400          42.9004
 131036867.046 6 102106668.47543  24935488.505                    24935491.3154
        38.700          19.3004
 122614842.369 7  95544030.96344  23332819.951                    23332819.6044
        43.800          26.0004
 15  7  8  9 37 15.0000000  0  9G25G17G12G02G06G15G24G29G14
 119209420.452 7  92890482.55145  22684788.581                    22684790.2104
        46.100          30.2004
 126115050.623 7  98271454.23144  23998900.268                    23998899.1494
        42.300          26.9004
 107024783.151 8  83395955.78446  20366126.520                    20366123.3684
        50.900          41.6004
 123568060.153 7  96286801.57643  23514217.074                    23514214.5644
        42.400          23.6004
 120580320.481 7  93958742.51144  22945656.094                    22945658.0134
        44.300          29.4004
 129861576.932 7 101190808.65544  24711854.146                    24711857.9344
        42.100          24.6004
 106712143.158 8  83152333.49047  20306642.265                    20306641.6584
        51.800          43.1004
 130979630.597 6 102062068.70243  24924596.723                    24924599.3034
        38.000          19.6004
 122586948.999 6  95522295.91344  23327511.671                    23327510.8554
        41.900          26.1004
 15  7  8  9 37 30.0000000  0  9G25G17G12G02G06G15G24G29G14
 119169956.595 7  92859731.54144  22677278.980                    22677280.7494
        45.700          29.9004
 126161835.058 7  98307909.60144  24007803.125                    24007801.9514
        43.400          27.3004
 107012677.902 8  83386523.12846  20363822.698                    20363819.8254
        50.900          41.5004
 123528519.054 7  96255990.37144  23506692.582                    23506690.9374
        42.500          24.8004
 120560544.537 7  93943332.73444  22941893.116                    22941894.6394
        43.500          29.4004
 129914285.813 6 101231880.38244  24721884.403                    24721888.3614
        41.900          25.1004
 106723267.704 8  83161001.97647  20308759.139                    20308758.4814
        51.300          43.5004
 130922407.620 6 102017479.35143  24913707.334                    24913710.7474
        37.800          19.0004
 122559176.881 6  95500655.33244  23322226.577                    23322225.3194
        41.300          25.2004
 15  7  8  9 37 45.0000000  0  9G25G17G12G02G06G15G24G29G14
 119130536.705 7  92829014.77144  22669777.562                    22669779.2234
        46.400          29.8004
 126208664.971 7  98344400.39544  24016714.958                    24016713.4204
        42.800          27.7004
 107000655.416 8  83377154.97146  20361535.149                    20361532.1954
        51.000          41.8004
 123489027.710 7  96225217.96443  23499178.166                    23499174.8994
        42.600          23.8004
 120540896.700 7  93928022.77944  22938154.204                    22938155.8954
        44.200          29.1004
 129966990.942 7 101272949.21743  24731913.619                    24731918.1034
        42.500          23.6004
 106734514.477 8  83169765.69147  20310899.475                    20310899.0214
        51.700          43.3004
 130865199.263 5 101972901.40543  24902820.138                    24902824.1434
        34.600          19.0004
 122531527.203 7  95479110.15144  23316965.576                    23316963.7874
        42.600          25.3004
 15  7  8  9 38  0.0000000  0  9G25G17G12G02G06G15G24G29G14
 119091158.827 7  92798330.75845  22662284.144                    22662285.8414
        46.300          30.6004
 126255538.104 6  98380924.87144  24025634.106                    24025633.1694
        41.900          27.9004
 106988713.705 8  83367849.75347  20359262.575                    20359259.4734
        51.400          42.0004
 123449584.528 7  96194483.06844  23491672.362                    23491669.5024
        43.000          24.5004
 120521375.204 7  93912811.26044  22934439.269                    22934441.5404
        44.400          29.6004
 130019689.846 7 101314013.18344  24741942.577                    24741946.6834
        42.300          24.0004
 106745881.536 8  83178623.13947  20313062.348                    20313062.3374
        51.700          44.0004
 130808003.646 6 101928333.43043  24891937.622                    24891940.3144
        36.900          19.6004
 122503998.240 7  95457659.01644  23311727.189                    23311724.8254
        42.400          24.8004
 15  7  8  9 38 15.0000000  0  9G25G17G12G02G06G15G24G29G14
 119051825.504 7  92767681.43645  22654799.201                    22654799.8484
        45.900          30.4004
 126302456.651 7  98417484.75744  24034563.034                    24034561.6514
        42.100          27.5004
 106976855.126 8  83358609.31346  20357006.048                    20357003.1234
        50.600          41.7004
 123410192.205 7  96163787.82844  23484176.095                    23484173.6564
        42.400          25.2004
 120501982.656 7  93897700.22544  22930748.789                    22930751.7924
        44.600          29.7004
 130072384.800 7 101355074.06643  24751970.063                    24751974.1434
        42.000          22.8004
 106757371.302 8  83187576.20047  20315248.820                    20315249.0154
        51.500          43.8004
 130750823.547 6 101883777.47443  24881056.551                    24881059.3414
        37.900          18.3004
 122476592.476 7  95436303.89244  23306512.147                    23306510.3064
        43.400          25.6004
 15  7  8  9 38 30.0000000  0  9G25G17G12G02G06G15G24G29G14
 119012535.706 7  92737066.04445  22647322.503                    22647323.7774
        46.000          31.0004
 126349419.379 7  98454079.04644  24043498.905                    24043497.8264
        42.700          25.9004
 106965078.548 8  83349432.76846  20354765.074                    20354761.8934
        50.000          41.7004
 123370850.047 7  96133131.67844  23476689.613                    23476686.6934
        42.300          24.5004
 120482718.251 7  93882689.03544  22927082.831                    22927085.1904
        43.500          28.7004
 130125074.315 7 101396130.74444  24761996.428                    24762000.8614
        42.500          24.5004
 106768982.565 8  83196623.94147  20317458.562                    20317458.2784
        51.500          43.3004
 130693658.166 6 101839233.00743  24870178.936                    24870181.6304
        39.400          19.6004
 122449309.276 6  95415044.28044  23301320.190                    23301319.3864
        40.800          26.4004
 15  7  8  9 38 45.0000000  0  9G25G17G12G02G06G15G24G29G14
 118973289.556 7  92706484.67345  22639854.333                    22639855.1264
        46.000          30.7004
 126396426.099 7  98490707.60144  24052445.005                    24052443.8304
        43.000          26.3004
 106953384.236 8  83340320.32846  20352539.681                    20352536.6084
        49.900          41.3004
 123331558.354 7  96102514.82644  23469212.541                    23469209.4094
        42.600          25.4004
 120463582.318 7  93867777.96644  22923441.428                    22923443.7284
        43.800          29.2004
 130177758.067 7 101437182.90343  24772022.147                    24772026.5244
        43.500          23.3004
 106780715.692 8  83205766.63247  20319690.990                    20319691.1654
        51.800          43.5004
 130636507.850 6 101794700.27243  24859303.099                    24859306.0944
        38.400          20.6004
 122422148.872 6  95393880.37744  23296150.854                    23296150.7504
        40.600          27.1004
 15  7  8  9 39  0.0000000  0  9G25G17G12G02G06G15G24G29G14
 118934087.097 7  92675937.33444  22632394.232                    22632395.1254
        45.000          29.9004
 126443476.092 7  98527369.90044  24061397.369                    24061396.9754
        43.200          26.2004
 106941771.932 8  83331271.79346  20350329.686                    20350326.8104
        50.000          41.9004
 123292317.497 7  96071937.59244  23461744.412                    23461742.6184
        42.700          24.9004
 120444575.060 7  93852967.17645  22919824.040                    22919826.4864
        43.200          30.2004
 130230435.800 7 101478230.39243  24782046.258                    24782050.8124
        43.300          22.8004
 106792570.415 8  83215004.07847  20321947.113                    20321946.8214
        52.400          43.8004
 130579372.679 6 101750179.31543  24848430.290                    24848433.8534
        37.900          21.5004
 122395111.355 6  95372812.20844  23291006.003                    23291006.0264
        40.000          27.1004
 15  7  8  9 39 15.0000000  0  9G25G17G12G02G06G15G24G29G14
 118894927.350 7  92645423.27744  22624942.435                    22624943.2474
        46.000          29.4004
 126490568.383 7  98564065.15344  24070359.247                    24070358.3854
        43.300          26.9004
 106930240.881 8  83322286.56646  20348135.594                    20348132.8594
        50.500          41.9004
 123253126.755 7  96041399.41744  23454286.657                    23454285.0444
        42.400          25.3004
 120425695.650 7  93838255.98544  22916231.458                    22916233.7344
        44.300          29.7004
 130283106.158 7 101519272.12743  24792069.507                    24792073.5384
        42.800          23.8004
 106804545.610 8  83224335.39447  20324225.948                    20324225.5024
        51.800          43.5004
 130522251.853 6 101705669.53143  24837560.433                    24837563.7024
        38.500          20.1004
 122368195.895 7  95351839.16344  23285884.850                    23285883.5434
        42.000          26.5004
 15  7  8  9 39 30.0000000  0  9G25G17G12G02G06G15G24G29G14
 118855812.648 7  92614944.33244  22617498.863                    22617500.0524
        45.500          29.6004
 126537704.769 7  98600794.74544  24079329.157                    24079329.0484
        43.500          27.8004
 106918792.988 8  83313366.13846  20345956.868                    20345954.2524
        50.700          41.2004
 123213988.795 6  96010902.35944  23446839.198                    23446837.0514
        40.800          24.7004
 120406946.666 7  93823646.42245  22912663.777                    22912666.4714
        44.600          30.0004
 130335771.148 7 101560309.67944  24802090.895                    24802094.7884
        43.500          24.7004
 106816643.825 8  83233762.57947  20326528.274                    20326528.3014
        51.900          43.5004
 130465147.906 6 101661172.94043  24826693.448                    24826697.3294
        37.500          19.3004
 122341404.948 7  95330963.11244  23280787.009                    23280785.4184
        42.200          25.9004
 15  7  8  9 39 45.0000000  0  9G25G17G12G02G06G15G24G29G14
 118816741.837 7  92584499.57844  22610063.762                    22610065.3554
        45.600          28.8004
 126584883.814 7  98637557.58644  24088307.049                    24088306.6754
        43.700          27.4004
 106907427.049 8  83304509.57246  20343794.395                    20343790.9864
        50.900          41.9004
 123174902.693 6  95980445.71543  23439401.354                    23439399.7934
        41.700          23.8004
 120388327.034 7  93809137.66244  22909121.066                    22909123.3634
        45.700          29.9004
 130388429.132 7 101601341.76943  24812111.241                    24812115.6604
        42.900          22.6004
 106828863.827 8  83243284.65347  20328853.747                    20328853.1604
        51.400          43.1004
 130408059.912 6 101616688.75443  24815831.014                    24815834.0834
        38.000          20.6004
 122314737.643 6  95310183.41644  23275712.440                    23275709.9174
        41.200          25.2004
 15  7  8  9 40  0.0000000  0  9G25G17G12G02G06G15G24G29G14
 118777714.260 7  92554088.52244  22602637.518                    22602638.4664
        45.500          29.2004
 126632104.524 7  98674352.89844  24097293.194                    24097292.5184
        44.700          27.5004
 106896142.644 8  83295716.54346  20341646.903                    20341643.7954
        51.500          41.3004
 123135867.908 6  95950029.06143  23431973.771                    23431970.7944
        40.600          22.9004
 120369836.339 7  93794729.34644  22905601.821                    22905604.4644
        45.200          29.9004
 130441079.134 6 101642367.63643  24822130.593                    24822134.4524
        41.800          22.3004
 106841204.714 8  83252900.92047  20331201.910                    20331200.9014
        52.300          43.0004
 130350987.496 6 101572216.68443  24804970.206                    24804973.9194
        38.100          20.1004
 122288193.391 7  95289499.57744  23270660.427                    23270657.5974
        42.400          24.4004
 15  7  8  9 40 15.0000000  0  9G25G17G12G02G06G15G24G29G14
 118738732.240 7  92523712.96944  22595218.897                    22595220.3494
        45.500          29.3004
 126679369.003 7  98711182.32344  24106286.461                    24106286.8834
        44.800          28.4004
 106884941.901 8  83286988.70646  20339515.539                    20339512.8394
        50.500          41.5004
 123096887.166 6  95919654.52043  23424555.230                    23424553.1994
        41.400          22.6004
 120351476.986 7  93780423.40045  22902108.653                    22902110.9884
        46.000          30.2004
 130493723.091 6 101683388.77943  24832148.144                    24832151.6664
        41.200          22.6004
 106853668.971 8  83262613.34047  20333573.856                    20333572.8424
        51.400          43.1004
 130293933.097 6 101527758.64943  24794113.290                    24794116.4984
        37.500          21.1004
 122261774.743 6  95268913.63644  23265632.591                    23265630.1364
        39.400          24.7004
 15  7  8  9 40 30.0000000  0  9G25G17G12G02G06G15G24G29G14
 118699795.797 7  92493372.91644  22587809.874                    22587811.0944
        45.800          29.7004
 126726676.871 7  98748045.57244  24115288.816                    24115288.6954
        44.600          29.0004
 106873824.595 8  83278325.88746  20337399.828                    20337396.8094
        51.100          41.8004
 123057960.649 7  95889322.23343  23417147.835                    23417145.4604
        42.600          22.6004
 120333249.191 7  93766219.97045  22898640.296                    22898642.2954
        44.500          31.6004
 130546360.564 6 101724404.90243  24842165.630                    24842168.3594
        41.800          21.8004
 106866256.606 8  83272421.88747  20335969.201                    20335968.6354
        51.800          43.1004
 130236896.874 6 101483314.76143  24783260.262                    24783263.5144
        38.300          21.1004
 122235481.855 6  95248425.70644  23260629.471                    23260628.2204
        40.000          25.3004
 15  7  8  9 40 45.0000000  0  9G25G17G12G02G06G15G24G29G14
 118660900.577 7  92463064.98145  22580408.204                    22580410.0224
        45.900          31.0004
 126774023.291 7  98784938.84144  24124299.713                    24124299.0074
        44.000          27.7004
 106862786.426 8  83269724.73046  20335299.176                    20335296.2614
        50.900          41.7004
 123019084.344 7  95859029.02844  23409750.099                    23409748.0434
        43.000          25.1004
 120315148.739 7  93752115.76345  22895195.990                    22895197.8484
        45.400          30.4004
 130598986.693 6 101765412.20343  24852180.066                    24852183.1594
        40.500          22.2004
 106878962.921 8  83282322.90147  20338387.200                    20338386.5804
        51.300          43.3004
 130179874.585 6 101438881.77843  24772408.260                    24772412.4104
        36.500          20.9004
 122209310.504 6  95228032.50044  23255648.709                    23255648.6064
        41.300          25.2004
 15  7  8  9 41  0.0000000  0  9G25G17G12G02G06G15G24G29G14
 118622050.335 7  92432792.10545  22573015.521                    22573017.1704
        46.200          31.9004
 126821411.883 7  98821864.97144  24133316.616                    24133317.0964
        42.900          27.0004
 106851831.019 8  83261188.06246  20333214.494                    20333211.6214
        50.800          41.9004
 122980262.238 7  95828778.08743  23402362.681                    23402360.1144
        43.200          23.8004
 120297179.609 7  93738113.86645  22891775.919                    22891777.4504
        43.900          31.1004
 130651605.135 6 101806413.49643  24862193.078                    24862196.2964
        40.600          22.8004
 106891791.552 8  83292319.23247  20340828.398                    20340827.8724
        52.100          43.8004
 130122870.242 6 101394462.80243  24761561.281                    24761565.2024
        39.200          22.2004
 122183264.625 6  95207737.04844  23250693.011                    23250692.1514
        41.400          26.2004
 15  7  8  9 41 15.0000000  0  9G25G17G12G02G06G15G24G29G14
 118583243.841 7  92402553.30645  22565630.949                    22565632.1334
        46.600          30.9004
 126868841.052 7  98858822.72744  24142341.944                    24142342.2584
        43.400          25.8004
 106840957.010 8  83252714.81846  20331144.840                    20331141.7984
        51.400          41.7004
 122941493.479 7  95798568.72944  23394984.696                    23394982.7854
        43.600          25.7004
 120279340.711 7  93724213.45145  22888381.275                    22888382.6354
        45.100          30.1004
 130704214.225 6 101847407.45543  24872204.314                    24872207.6834
        41.000          23.3004
 106904741.304 8  83302409.95147  20343292.469                    20343291.6744
        51.500          43.5004
 130065882.913 6 101350057.04843  24750716.593                    24750720.3044
        40.200          22.0004
 122157343.241 7  95187538.58744  23245759.955                    23245759.7784
        42.400          26.5004
 15  7  8  9 41 30.0000000  0  9G25G17G12G02G06G15G24G29G14
 118544482.795 7  92372349.92545  22558254.846                    22558256.5294
        45.300          31.2004
 126916312.197 7  98895813.19544  24151376.184                    24151375.8054
        42.400          24.6004
 106830166.167 8  83244306.38346  20329092.200                    20329088.6594
        50.300          41.7004
 122902779.929 7  95768402.37244  23387617.431                    23387615.5114
        42.300          25.3004
 120261633.918 7  93710415.98245  22885011.879                    22885013.4974
        44.000          30.2004
 130756815.204 6 101888395.12343  24882213.556                    24882217.1704
        40.700          22.8004
 106917813.882 8  83312596.37147  20345780.233                    20345779.4464
        52.400          43.6004
 130008914.306 6 101305665.88143  24739876.354                    24739879.4264
        39.800          22.5004
 122131547.977 6  95167438.41944  23240851.962                    23240850.5024
        41.800          27.8004
 15  7  8  9 41 45.0000000  0  9G25G17G12G02G06G15G24G29G14
 118505764.666 7  92342179.99245  22550886.461                    22550888.2114
        45.400          31.5004
 126963822.141 7  98932833.88843  24160416.569                    24160416.9404
        42.200          23.6004
 106819455.765 8  83235960.61846  20327053.552                    20327050.3044
        50.900          41.8004
 122864119.406 7  95738277.33744  23380261.845                    23380258.6064
        42.500          25.6004
 120244056.787 7  93696719.56944  22881666.928                    22881669.0744
        45.500          29.8004
 130809405.230 6 101929374.27343  24892221.809                    24892224.5834
        41.300          22.5004
 106931006.596 8  83322876.40547  20348290.631                    20348289.9684
        52.400          43.7004
 129951962.124 6 101261287.53143  24729038.155                    24729041.1694
        40.400          21.5004
 122105876.559 7  95147434.73044  23235966.573                    23235964.9874
        42.400          24.9004
 15  7  8  9 42  0.0000000  0  9G25G17G12G02G06G15G24G29G14
 118467092.654 7  92312045.99345  22543527.776                    22543529.1734
        46.600          30.0004
 127011373.725 6  98969887.03143  24169465.341                    24169464.8394
        41.500          22.6004
 106808828.947 8  83227679.98347  20325031.611                    20325028.4374
        51.300          42.4004
 122825515.382 7  95708196.33444  23372915.111                    23372913.1904
        43.100          25.8004
 120226612.761 7  93683126.84945  22878347.327                    22878349.5464
        45.400          31.2004
 130861987.054 6 101970347.04543  24902227.584                    24902230.4334
        40.200          22.8004
 106944322.945 8  83333252.78047  20350824.675                    20350824.2864
        51.500          43.7004
 129895029.866 6 101216924.70743  24718205.199                    24718207.9454
        41.400          22.0004
 122080332.293 6  95127530.14344  23231105.493                    23231103.0284
        41.600          26.8004
 15  7  8  9 42 15.0000000  0  9G25G17G12G02G06G15G24G29G14
 118428464.066 7  92281945.82844  22536176.980                    22536178.1404
        45.700          29.7004
 127058964.093 6  99006970.39943  24178520.850                    24178520.5144
        41.800          23.5004
 106798283.160 8  83219462.50546  20323024.741                    20323021.4874
        50.700          41.3004
 122786965.275 7  95678157.34544  23365578.979                    23365576.9024
        42.100          26.0004
 120209299.277 7  93669635.85745  22875052.674                    22875055.2454
        44.500          30.7004
 130914557.578 6 102011310.96743  24912231.368                    24912234.2834
        40.500          22.9004
 106957759.805 8  83343723.05947  20353381.634                    20353381.0004
        51.100          43.0004
 129838114.818 6 101172575.29043  24707374.745                    24707377.3004
        41.300          22.8004
 122054912.635 7  95107722.64044  23226268.093                    23226265.2004
        42.400          26.2004
 15  7  8  9 42 30.0000000  0  9G25G17G12G02G06G15G24G29G14
 118389881.342 7  92251881.40145  22528835.112                    22528836.0934
        45.700          30.3004
 127106595.403 6  99044085.66443  24187585.268                    24187583.8184
        41.300          23.6004
 106787820.463 8  83211309.75846  20321033.986                    20321030.7504
        50.700          41.7004
 122748471.887 7  95648162.56344  23358254.539                    23358251.7944
        42.700          24.9004
 120192118.868 7  93656248.56045  22871783.147                    22871785.8034
        44.400          30.7004
 130967118.801 6 102052267.67043  24922234.144                    24922236.5534
        40.900          22.6004
 106971319.576 8  83354289.11647  20355961.974                    20355961.1944
        51.600          43.3004
 129781219.670 6 101128241.40443  24696547.387                    24696550.4464
        40.600          22.5004
 122029620.208 6  95088014.25844  23221455.009                    23221452.8054
        40.500          25.6004
 15  7  8  9 42 45.0000000  0  9G25G17G12G02G06G15G24G29G14
 118351341.867 7  92221850.68145  22521501.124                    22521501.8134
        45.300          30.7004
 127154264.680 6  99081230.51944  24196656.566                    24196655.5574
        41.300          24.1004
 106777438.230 8  83203219.71346  20319058.159                    20319054.9394
        50.900          41.6004
 122710032.814 7  95618210.07344  23350939.433                    23350936.5124
        43.000          24.2004
 120175069.195 7  93642963.13345  22868538.383                    22868541.0814
        44.000          30.4004
 131019667.847 6 102093214.84943  24932233.328                    24932236.4584
        40.800          21.8004
 106984999.603 8  83364948.87047  20358564.919                    20358564.7004
        50.700          43.0004
 129724342.024 6 101083921.18643  24685724.178                    24685727.0294
        41.200          22.5004
 122004452.596 6  95068403.16044  23216666.216                    23216664.7274
        41.800          26.4004
 15  7  8  9 43  0.0000000  0  9G25G17G12G02G06G15G24G29G14
 118312848.395 7  92191855.80444  22514176.104                    22514177.0194
        46.500          29.3004
 127201974.203 6  99118406.70644  24205734.900                    24205734.1124
        41.500          26.0004
 106767139.124 8  83195194.44646  20317098.073                    20317095.1504
        51.800          41.5004
 122671651.104 7  95588302.29044  23343635.338                    23343632.0854
        42.200          24.6004
 120158153.064 7  93629781.77345  22865319.359                    22865321.0134
        43.700          31.0004
 131072207.100 6 102134154.41243  24942231.559                    24942234.3424
        40.400          22.3004
 106998802.633 8  83375704.47347  20361191.671                    20361191.4104
        51.600          43.4004
 129667484.752 7 101039616.82743  24674904.933                    24674907.4364
        42.600          23.4004
 121979412.475 7  95048891.34644  23211901.426                    23211899.6484
        42.300          26.8004
 15  7  8  9 43 15.0000000  0  9G25G17G12G02G06G15G24G29G14
 118274399.675 7  92161895.79045  22506859.482                    22506860.1024
        46.300          30.2004
 127249722.471 6  99155613.09544  24214821.985                    24214820.8214
        41.800          26.2004
 106756921.912 8  83187233.00347  20315153.967                    20315151.1054
        51.500          42.1004
 122633325.830 7  95558438.48743  23336342.263                    23336339.5724
        42.400          23.2004
 120141369.456 7  93616703.68145  22862126.009                    22862127.2464
        43.600          31.0004
 131124734.871 6 102175085.05943  24952227.314                    24952229.9814
        40.800          22.0004
 107012727.095 8  83386554.70347  20363841.420                    20363841.1614
        50.800          43.6004
 129610646.761 6 100995327.48343  24664088.285                    24664091.3014
        41.700          22.3004
 121954498.954 7  95029478.29244  23207160.032                    23207159.1384
        42.100          27.6004
 15  7  8  9 43 30.0000000  0  9G25G17G12G02G06G15G24G29G14
 118235996.438 7  92131971.22045  22499551.390                    22499552.2614
        46.500          30.9004
 127297509.838 7  99192849.95344  24223915.912                    24223914.6934
        42.000          26.1004
 106746787.218 8  83179335.83947  20313225.330                    20313222.3014
        50.100          42.4004
 122595058.000 6  95528619.45344  23329060.245                    23329057.3924
        41.800          24.1004
 120124719.177 7  93603729.46845  22858957.558                    22858959.1514
        44.600          31.0004
 131177251.515 6 102216007.01143  24962221.888                    24962223.7184
        40.900          22.2004
 107026773.884 8  83397500.24547  20366514.561                    20366514.2004
        51.100          43.3004
 129553829.119 6 100951054.04944  24653276.420                    24653278.8064
        40.900          24.0004
 121929712.853 6  95010164.46244  23202443.467                    23202442.7144
        39.600          25.9004
 15  7  8  9 43 45.0000000  0  9G25G17G12G02G06G15G24G29G14
 118197637.896 7  92102081.48845  22492251.926                    22492252.7364
        45.400          31.7004
 127345335.353 6  99230116.53044  24233016.463                    24233016.4074
        41.800          27.3004
 106736734.214 8  83171502.33746  20311312.538                    20311308.9384
        50.900          41.4004
 122556846.954 7  95498844.67844  23321788.070                    23321785.9034
        42.100          24.0004
 120108201.613 7  93590858.68145  22855814.480                    22855815.4784
        45.300          30.6004
 131229755.889 6 102256919.43243  24972212.463                    24972215.4644
        40.800          22.6004
 107040942.199 8  83408540.48047  20369210.743                    20369210.3474
        51.000          43.3004
 129497031.226 6 100906796.00743  24642468.349                    24642470.4974
        40.500          21.7004
 121905053.506 6  94990949.43044  23197750.872                    23197750.3484
        39.200          25.9004
 15  7  8  9 44  0.0000000  0  9G25G17G12G02G06G15G24G29G14
 118159324.735 7  92072227.10045  22484961.786                    22484962.1924
        44.900          31.2004
 127393198.988 6  99267412.84244  24242123.864                    24242123.9284
        41.600          26.8004
 106726763.431 8  83163732.91046  20309414.632                    20309411.3624
        51.300          41.8004
 122518693.668 7  95469114.90744  23314528.479                    23314526.0324
        42.200          24.8004
 120091817.562 7  93578091.91545  22852696.421                    22852697.6874
        45.400          31.1004
 131282248.320 6 102297822.53843  24982201.635                    24982204.1474
        41.600          22.6004
 107055232.364 8  83419675.67247  20371930.391                    20371929.8384
        51.500          43.1004
 129440253.669 6 100862553.79743  24631663.549                    24631665.1724
        41.200          21.3004
 121880521.524 6  94971833.61744  23193082.629                    23193081.3224
        41.000          26.0004
 15  7  8  9 44 15.0000000  0  9G25G17G12G02G06G15G24G29G14
 118121058.591 7  92042409.36445  22477679.069                    22477680.4214
        45.400          31.0004
 127441102.230 6  99304739.97544  24251240.453                    24251240.5504
        41.300          26.9004
 106716876.482 8  83156028.80346  20307533.452                    20307529.7974
        51.000          41.0004
 122480600.169 7  95439431.70743  23307279.290                    23307276.9854
        42.200          23.9004
 120075568.834 7  93565430.59845  22849604.655                    22849605.9054
        44.300          31.2004
 131334730.151 6 102338717.38243  24992188.169                    24992190.6924
        41.100          22.0004
 107069646.222 8  83430907.25147  20374673.125                    20374672.8164
        51.200          43.8004
 129383498.366 7 100818328.92743  24620863.774                    24620865.4164
        42.500          22.6004
 121856118.852 6  94952818.57843  23188437.881                    23188437.6234
        38.900          22.6004
 15  7  8  9 44 30.0000000  0  9G25G17G12G02G06G15G24G29G14
 118082837.173 7  92012626.47545  22470406.049                    22470406.9814
        46.200          30.4004
 127489042.502 6  99342095.97044  24260363.238                    24260363.3984
        41.100          25.8004
 106707070.911 8  83148388.10146  20305667.311                    20305663.7804
        51.100          41.2004
 122442564.227 7  95409793.36044  23300041.791                    23300039.1394
        42.700          26.0004
 120059453.268 7  93552873.04044  22846537.552                    22846538.8214
        45.300          29.9004
 131387198.583 6 102379601.78443  25002172.754                    25002175.5894
        41.100          22.9004
 107084181.309 8  83442233.28647  20377438.811                    20377438.5734
        50.500          43.4004
 129326763.246 6 100774119.78643  24610067.226                    24610069.6734
        40.200          22.2004
 121831843.401 7  94933902.67344  23183818.769                    23183817.3604
        42.200          25.1004
 15  7  8  9 44 45.0000000  0  9G25G17G12G02G06G15G24G29G14
 118044659.911 7  91982878.00845  22463140.884                    22463142.0464
        45.800          31.6004
 127537018.868 6  99379480.09844  24269492.641                    24269492.9514
        40.500          26.2004
 106697346.250 8  83140810.45846  20303816.857                    20303813.2524
        50.700          41.1004
 122404585.672 7  95380199.71844  23292814.262                    23292811.4794
        43.500          25.1004
 120043470.475 7  93540418.96045  22843495.606                    22843496.9004
        44.700          30.2004
 131439652.582 6 102420474.95243  25012155.034                    25012157.3094
        40.900          22.5004
 107098836.919 8  83453653.23947  20380228.034                    20380227.6204
        50.300          43.4004
 129270047.958 6 100729926.15743  24599274.191                    24599276.7494
        40.600          21.5004
 121807694.779 6  94915085.57544  23179224.416                    23179221.8924
        41.000          26.8004
 15  7  8  9 45  0.0000000  0  9G25G17G12G02G06G15G24G29G14
 118006526.513 7  91953163.71745  22455884.850                    22455884.9984
        45.000          31.1004
 127585030.691 6  99416891.83944  24278629.159                    24278629.4534
        40.700          24.5004
 106687702.007 8  83133295.47146  20301982.046                    20301978.3364
        50.800          41.7004
 122366664.372 7  95350650.68444  23285598.603                    23285595.2124
        43.500          25.3004
 120027620.211 7  93528068.15044  22840479.784                    22840480.0204
        43.600          28.8004
 131492091.577 6 102461336.42843  25022133.587                    25022135.8704
        40.000          22.8004
 107113612.683 8  83465166.81747  20383039.327                    20383039.0384
        50.800          43.7004
 129213352.351 6 100685747.82643  24588485.376                    24588488.2724
        41.500          22.8004
 121783672.719 7  94896367.09344  23174653.482                    23174651.7274
        42.600          27.3004
 15  7  8  9 45 15.0000000  0  9G25G17G12G02G06G15G24G29G14
 117968438.080 7  91923484.46145  22448636.636                    22448636.3094
        45.900          31.0004
 127633078.831 6  99454331.88143  24287772.464                    24287773.1664
        40.600          23.5004
 106678139.276 8  83125843.98946  20300161.966                    20300158.6724
        49.900          41.4004
 122328801.915 6  95321147.51844  23278392.684                    23278390.3054
        41.900          25.0004
 120011903.860 7  93515821.65944  22837489.185                    22837489.3154
        45.000          29.4004
 131544516.337 6 102502186.79943  25032109.335                    25032112.3834
        39.200          22.0004
 107128509.547 8  83476774.75847  20385874.128                    20385874.3114
        51.400          44.0004
 129156677.735 6 100641585.83543  24577701.199                    24577703.5034
        41.100          22.3004
 121759778.448 6  94877748.19344  23170106.510                    23170104.8494
        41.600          28.4004
 15  7  8  9 45 30.0000000  0  9G25G17G12G02G06G15G24G29G14
 117930395.827 7  91893841.17945  22441397.431                    22441397.0864
        45.800          30.9004
 127681164.101 6  99491800.87044  24296923.436                    24296922.9774
        41.400          24.6004
 106668659.362 8  83118457.05046  20298358.217                    20298354.3634
        51.100          41.6004
 122290999.546 6  95291691.15544  23271199.293                    23271196.4724
        41.300          25.6004
 119996322.654 7  93503680.49545  22834523.840                    22834524.4944
        43.900          31.1004
 131596927.505 6 102543026.56643  25042083.629                    25042086.8184
        38.200          21.8004
 107143528.722 8  83488478.00947  20388732.409                    20388732.3124
        51.100          43.7004
 129100025.446 6 100597441.25143  24566919.929                    24566922.9054
        40.300          21.3004
 121736013.347 7  94859229.95944  23165584.144                    23165583.5144
        42.600          28.1004
 15  7  8  9 45 45.0000000  0  9G25G17G12G02G06G15G24G29G14
 117892401.309 7  91864235.08745  22434167.136                    22434167.2834
        44.600          30.2004
 127729287.570 6  99529299.64344  24306080.594                    24306080.6044
        41.400          25.3004
 106659263.238 8  83111135.40346  20296569.914                    20296566.7534
        51.100          41.7004
 122253259.059 6  95262283.02844  23264018.022                    23264015.3004
        40.000          26.2004
 119980878.344 7  93491645.98145  22831584.909                    22831586.5084
        43.000          30.4004
 131649326.405 6 102583856.78143  25052053.686                    25052057.3354
        37.300          21.1004
 107158671.834 8  83500277.82147  20391614.056                    20391613.9924
        50.700          43.9004
 129043397.121 6 100553315.34143  24556143.485                    24556146.2874
        39.700          19.9004
 121712379.003 6  94840813.62144  23161086.563                    23161085.2124
        40.800          27.0004
 15  7  8  9 46  0.0000000  0  9G25G17G12G02G06G15G24G29G14
 117854451.020 7  91834663.47145  22426945.948                    22426945.7534
        44.800          30.2004
 127777445.596 6  99566825.32143  24315244.747                    24315245.6054
        41.800          23.0004
 106649947.510 8  83103876.40446  20294797.426                    20294794.0194
        51.400          41.5004
 122215577.336 6  95232920.70444  23256846.700                    23256844.8254
        39.400          24.7004
 119965567.555 7  93479715.54445  22828671.840                    22828673.7664
        43.800          31.2004
 131701709.111 6 102624674.35943  25062022.075                    25062026.3804
        37.100          21.1004
 107173935.213 8  83512171.35547  20394518.247                    20394518.4334
        50.000          43.7004
 128986789.708 6 100509205.74343  24545372.034                    24545374.0644
        41.100          22.3004
 121688872.165 7  94822496.63444  23156613.259                    23156612.2654
        42.400          27.4004
 15  7  8  9 46 15.0000000  0  9G25G17G12G02G06G15G24G29G14
 117816546.986 7  91805127.89345  22419732.725                    22419733.0674
        44.200          30.3004
 127825639.987 7  99604379.34644  24324415.892                    24324416.2854
        42.300          25.3004
 106640714.236 8  83096681.64946  20293040.240                    20293036.6904
        51.400          41.7004
 122177956.587 6  95203605.90444  23249688.153                    23249686.1414
        40.600          26.0004
 119950392.443 7  93467890.81745  22825784.003                    22825785.6684
        43.300          31.1004
 131754077.408 6 102665480.72843  25071988.271                    25071991.8734
        38.500          21.7004
 107189320.641 8  83524159.98947  20397446.165                    20397445.9274
        49.000          42.9004
 128930205.254 6 100465114.05843  24534604.596                    24534606.3284
        41.400          22.0004
 121665494.989 7  94804280.67844  23152164.735                    23152162.8504
        43.100          27.0004
 15  7  8  9 46 30.0000000  0  9G25G17G12G02G06G15G24G29G14
 117778687.791 7  91775627.25345  22412528.133                    22412529.1114
        44.300          31.0004
 127873868.522 7  99641959.99243  24333593.569                    24333594.1364
        43.000          23.8004
 106631561.822 8  83089549.90746  20291298.539                    20291295.0964
        50.300          41.7004
 122140395.787 7  95174337.80644  23242540.482                    23242538.4624
        42.100          26.8004
 119935351.693 7  93456170.78245  22822921.579                    22822923.5704
        44.300          30.7004
 131806429.525 6 102706274.51243  25081950.664                    25081954.2194
        37.900          21.1004
 107204826.713 8  83536242.64747  20400396.424                    20400396.5624
        49.800          43.2004
 128873642.417 6 100421039.16343  24523840.561                    24523842.9654
        39.900          21.3004
 121642246.101 7  94786164.67444  23147740.296                    23147738.5104
        42.100          26.8004
 15  7  8  9 46 45.0000000  0  9G25G17G12G02G06G15G24G29G14
 117740874.170 7  91746162.13845  22405332.095                    22405333.3694
        44.500          31.2004
 127922131.696 7  99679567.62443  24342777.979                    24342778.4144
        43.800          23.6004
 106622490.984 8  83082481.72546  20289572.137                    20289568.8494
        51.300          41.5004
 122102895.865 7  95145117.13744  23235404.610                    23235402.1954
        42.800          27.4004
 119920446.208 7  93444556.15845  22820085.277                    22820087.2694
        44.700          31.6004
 131858765.578 6 102747055.73243  25091909.892                    25091913.2334
        37.900          20.1004
 107220454.091 8  83548419.81447  20403370.657                    20403370.2694
        49.300          42.9004
 128817102.192 6 100376981.89943  24513080.814                    24513083.2734
        39.900          20.4004
 121619126.489 7  94768149.39544  23143340.844                    23143339.3004
        43.600          25.1004
 15  7  8  9 47  0.0000000  0  9G25G17G12G02G06G15G24G29G14
 117703106.349 7  91716732.71545  22398145.768                    22398146.8184
        45.200          31.8004
 127970429.745 7  99717202.41344  24351968.362                    24351969.7794
        43.000          25.6004
 106613501.845 8  83075477.21146  20287861.610                    20287858.3144
        51.300          41.7004
 122065457.325 7  95115944.28444  23228280.074                    23228277.8344
        42.000          27.4004
 119905676.344 7  93433047.18745  22817274.740                    22817276.4374
        43.100          31.4004
 131911085.636 6 102787824.53043  25101866.843                    25101869.4394
        38.100          21.7004
 107236202.877 8  83560691.58747  20406367.589                    20406367.1284
        50.500          43.3004
 128760584.994 6 100332942.58343  24502326.512                    24502329.0594
        40.400          20.9004
 121596136.408 7  94750235.06244  23138965.418                    23138964.6504
        42.600          26.6004
 15  7  8  9 47 15.0000000  0  9G25G17G12G02G06G15G24G29G14
 117665383.849 7  91687338.58845  22390966.778                    22390968.3824
        45.600          32.6004
 128018761.584 7  99754863.53844  24361166.836                    24361166.1994
        43.200          26.3004
 106604593.898 8  83068535.95646  20286166.597                    20286163.5074
        50.400          41.5004
 122028079.793 6  95086818.98944  23221167.101                    23221164.7434
        39.700          27.0004
 119891041.679 7  93421643.57945  22814489.364                    22814491.5504
        42.900          30.2004
 131963388.748 6 102828580.14043  25111819.008                    25111822.5544
        37.700          21.8004
 107252072.396 8  83573057.44747  20409387.168                    20409387.4344
        50.400          43.0004
 128704090.620 6 100288921.02643  24491576.034                    24491578.3524
        41.100          21.3004
 121573275.417 7  94732421.33844  23134614.674                    23134614.3484
        42.400          26.0004
 15  7  8  9 47 30.0000000  0  9G25G17G12G02G06G15G24G29G14
 117627708.323 7  91657981.07145  22383798.153                    22383799.2124
        44.900          32.4004
 128067128.534 7  99792552.03844  24370370.396                    24370370.0764
        43.300          25.2004
 106595768.692 8  83061659.18446  20284487.388                    20284484.0354
        50.500          41.7004
 121990765.276 6  95057742.78143  23214066.174                    23214063.6794
        40.300          23.6004
 119876544.051 7  93410346.77645  22811730.595                    22811733.1684
        43.200          32.0004
 132015676.258 6 102869323.53243  25121768.390                    25121772.7994
        36.200          21.5004
 107268064.410 8  83585518.74747  20412430.530                    20412430.5254
        50.800          43.4004
 128647620.698 6 100244918.55943  24480830.061                    24480832.3544
        41.000          21.8004
 121550545.377 7  94714709.65744  23130289.396                    23130289.3964
        42.500          26.0004
 15  7  8  9 47 45.0000000  0  9G25G17G12G02G06G15G24G29G14
 117590079.024 7  91628659.58945  22376637.067                    22376639.0974
        44.300          32.6004
 128115529.604 7  99830267.09644  24379580.666                    24379580.4474
        42.300          25.9004
 106587025.278 8  83054846.14246  20282823.958                    20282820.3904
        50.600          41.6004
 121953513.351 6  95028715.33443  23206977.260                    23206974.2754
        40.900          22.9004
 119862182.888 7  93399156.28145  22808997.889                    22809000.4664
        42.900          31.7004
 132067947.118 6 102910053.99843  25131715.973                    25131719.7114
        38.400          21.5004
 107284178.118 8  83598074.87547  20415497.146                    20415496.8994
        50.900          43.3004
 128591174.807 6 100200934.83843  24470088.965                    24470090.4194
        41.600          22.9004
 121527945.638 7  94697099.50644  23125989.861                    23125989.3444
        42.700          25.5004
 15  7  8  9 48  0.0000000  0  9G25G17G12G02G06G15G24G29G14
 117552495.880 7  91599374.05645  22369485.007                    22369487.3394
        44.400          32.2004
 128163964.381 6  99868008.41644  24388796.662                    24388797.5834
        41.800          26.0004
 106578363.589 8  83048096.77246  20281174.807                    20281172.0734
        51.000          41.9004
 121916324.109 7  94999736.76544  23199901.489                    23199897.4074
        42.900          24.5004
 119847958.184 7  93388072.14945  22806291.122                    22806293.2934
        44.700          32.2004
 132120200.993 6 102950771.20943  25141659.067                    25141663.7754
        36.600          21.7004
 107300413.271 8  83610725.64347  20418586.606                    20418586.3134
        50.800          43.5004
 128534753.032 6 100156969.85443  24459351.908                    24459354.1444
        41.000          22.0004
 121505476.272 7  94679590.93744  23121713.504                    23121713.1304
        43.300          27.3004
 15  7  8  9 48 15.0000000  0  9G25G17G12G02G06G15G24G29G14
 117514959.269 7  91570124.78345  22362342.342                    22362343.9734
        44.900          31.7004
 128212433.035 6  99905776.13744  24398020.750                    24398020.5684
        41.000          25.5004
 106569784.008 8  83041411.39047  20279542.518                    20279539.5324
        50.500          42.1004
 121879198.182 7  94970807.51644  23192836.473                    23192832.5514
        44.700          25.4004
 119833870.471 7  93377094.72345  22803609.811                    22803612.1834
        44.700          32.1004
 132172437.374 6 102991474.79543  25151599.447                    25151603.8314
        36.300          20.9004
 107316770.000 8  83623471.13747  20421699.330                    20421699.3444
        51.100          43.7004
 128478355.943 6 100113024.11243  24448620.543                    24448622.0894
        41.700          22.0004
 121483137.725 7  94662184.30144  23117462.649                    23117462.1714
        44.800          27.1004
 15  7  8  9 48 30.0000000  0  9G25G17G12G02G06G15G24G29G14
 117477468.605 7  91540911.32045  22355207.682                    22355209.5604
        44.900          31.8004
 128260934.526 6  99943569.44444  24407249.856                    24407249.7744
        40.100          24.4004
 106561285.838 8  83034789.44846  20277925.417                    20277922.2164
        50.400          41.5004
 121842135.338 7  94941927.41944  23185783.162                    23185780.2484
        44.500          26.7004
 119819919.231 7  93366223.67245  22800955.678                    22800957.0574
        44.200          32.2004
 132224655.456 5 103032164.15143  25161536.220                    25161541.1894
        34.300          19.0004
 107333247.749 8  83636310.94347  20424834.870                    20424835.1464
        50.900          43.7004
 128421983.195 6 100069097.35043  24437892.253                    24437895.4374
        40.800          22.5004
 121460929.644 7  94644879.31344  23113236.217                    23113235.2554
        45.000          26.8004
 15  7  8  9 48 45.0000000  0  9G25G17G12G02G06G15G24G29G14
 117440024.981 7  91511734.50945  22348082.754                    22348083.8264
        43.900          31.5004
 128309469.464 6  99981388.83044  24416485.971                    24416486.3684
        40.400          26.2004
 106552870.181 8  83028231.80546  20276323.983                    20276320.3604
        50.200          41.7004
 121805136.897 7  94913097.51944  23178743.224                    23178740.2184
        43.800          26.5004
 119806105.699 7  93355459.91545  22798326.930                    22798328.2554
        44.700          31.5004
 132276856.035 5 103072839.78942  25171466.479                    25171473.1174
        32.500          17.4004
 107349847.562 8  83649245.85247  20427993.697                    20427993.2744
        50.600          43.9004
 128365635.909 6 100025190.44143  24427170.428                    24427172.5044
        41.200          22.2004
 121438853.118 7  94627676.83844  23109035.353                    23109033.3594
        45.200          27.8004
 15  7  8  9 49  0.0000000  0  9G25G17G12G02G06G15G24G29G14
 117402627.850 7  91482593.92345  22340965.450                    22340966.8304
        43.200          31.5004
 128358037.203 6 100019233.74243  24425728.311                    24425728.1674
        40.800          23.2004
 106544536.342 8  83021737.90246  20274738.052                    20274734.7714
        50.400          41.3004
 121768202.524 6  94884317.53444  23171714.435                    23171711.5854
        41.700          25.7004
 119792429.489 7  93344803.14845  22795723.934                    22795725.2534
        43.000          30.4004
 132329038.283 5 103113501.22543  25181400.135                    25181404.2794
        34.400          18.6004
 107366568.908 8  83662275.47047  20431175.502                    20431175.4544
        51.300          43.9004
 128309313.729 7  99981303.05043  24416451.955                    24416454.3634
        42.000          22.6004
 121416907.824 7  94610576.61544  23104860.040                    23104856.9034
        45.000          26.6004
 15  7  8  9 49 15.0000000  0  9G25G17G12G02G06G15G24G29G14
 117365276.507 7  91453489.01045  22333858.502                    22333858.8544
        44.300          33.1004
 128406636.688 6 100057103.40444  24434976.590                    24434976.1274
        41.600          25.3004
 106536283.333 8  83015306.99246  20273167.863                    20273164.2614
        50.800          41.5004
 121731331.696 6  94855587.06644  23164697.692                    23164695.1894
        39.800          26.4004
 119778889.906 7  93334252.86245  22793147.731                    22793148.9204
        43.200          31.3004
 132381201.015 5 103154147.44843  25191326.354                    25191330.6904
        34.600          18.6004
 107383410.666 8  83675398.91347  20434380.411                    20434380.4824
        50.200          43.2004
 128253016.104 7  99937434.81543  24405739.629                    24405741.1364
        42.700          23.4004
 121395093.122 6  94593578.15044  23100708.527                    23100705.4914
        41.900          24.8004
 15  7  8  9 49 30.0000000  0  9G25G17G12G02G06G15G24G29G14
 117327971.920 7  91424420.53345  22326759.340                    22326759.6924
        44.100          32.3004
 128455268.295 7 100094998.10844  24444230.675                    24444230.9234
        42.100          24.4004
 106528112.166 8  83008939.85346  20271612.650                    20271609.2974
        50.100          41.2004
 121694525.636 6  94826907.06144  23157693.646                    23157691.2124
        40.900          27.0004
 119765488.118 7  93323809.92945  22790596.859                    22790598.7004
        43.400          30.4004
 132433344.955 5 103194778.97043  25201248.739                    25201253.4894
        35.100          18.3004
 107400373.789 8  83688616.92847  20437608.124                    20437608.6294
        50.200          43.3004
 128196744.093 7  99893586.54043  24395030.873                    24395032.9604
        42.700          22.0004
 121373410.024 7  94576682.25844  23096581.997                    23096579.5654
        43.700          25.4004
 15  7  8  9 49 45.0000000  0  9G25G17G12G02G06G15G24G29G14
 117290714.857 7  91395389.09045  22319669.977                    22319669.8254
        45.200          32.1004
 128503932.657 7 100132918.35844  24453491.474                    24453491.7064
        42.700          24.3004
 106520023.562 8  83002637.04546  20270073.612                    20270070.1524
        50.900          41.3004
 121657785.459 7  94798278.40344  23150702.484                    23150699.1944
        42.600          25.6004
 119752224.995 7  93313475.06245  22788073.647                    22788074.8664
        44.100          30.5004
 132485470.299 6 103235396.03843  25211168.253                    25211173.0944
        37.100          18.6004
 107417459.077 8  83701930.12547  20440859.483                    20440859.8344
        50.600          42.9004
 128140498.630 7  99849758.95943  24384327.278                    24384329.1614
        42.400          22.0004
 121351859.469 7  94559889.63744  23092481.040                    23092479.2064
        43.200          26.2004
 15  7  8  9 50  0.0000000  0  9G25G17G12G02G06G15G24G29G14
 117253502.668 7  91366392.61845  22312588.092                    22312588.4144
        44.100          32.7004
 128552626.741 7 100170861.76744  24462757.773                    24462757.6754
        42.600          25.5004
 106512014.707 8  82996396.38646  20268549.533                    20268546.4124
        51.000          41.3004
 121621108.821 7  94769699.23644  23143722.982                    23143719.8864
        44.100          26.7004
 119739097.976 7  93303246.24145  22785575.498                    22785576.9824
        43.100          30.8004
 132537574.158 6 103275996.36743  25221083.314                    25221087.3764
        36.400          18.6004
 107434663.790 8  83715336.37747  20444133.153                    20444133.7464
        51.000          43.3004
 128084277.479 7  99805950.31643  24373628.779                    24373631.0904
        42.600          22.3004
 121330438.890 7  94543198.31044  23088405.143                    23088403.5184
        43.800          27.1004
 15  7  8  9 50 15.0000000  0  9G25G17G12G02G06G15G24G29G14
 117216338.457 7  91337433.52445  22305516.517                    22305516.3474
        45.300          32.8004
 128601353.295 7 100208830.46744  24472029.984                    24472030.2534
        42.800          25.2004
 106504088.799 8  82990220.35746  20267041.193                    20267037.8024
        50.200          41.5004
 121584499.079 7  94741172.22044  23136756.584                    23136753.2014
        44.600          26.1004
 119726110.365 7  93293126.05244  22783104.126                    22783105.9394
        45.200          29.9004
 132589659.366 6 103316582.19443  25230993.794                    25230999.4694
        37.700          20.6004
 107451990.796 8  83728837.94347  20447430.955                    20447431.1234
        50.900          42.9004
 128028083.837 7  99762163.09243  24362935.131                    24362937.0504
        42.600          22.3004
 121309151.484 7  94526610.73844  23084354.819                    23084352.9624
        45.500          28.6004
 15  7  8  9 50 30.0000000  0  9G25G17G12G02G06G15G24G29G14
 117179222.470 7  91308512.00145  22298453.220                    22298453.8484
        45.700          33.1004
 128650112.158 7 100246824.35644  24481309.101                    24481308.4104
        42.900          24.7004
 106496245.884 8  82984108.99746  20265548.831                    20265545.7454
        51.400          41.2004
 121547956.610 7  94712697.62644  23129802.120                    23129798.8204
        43.200          26.9004
 119713262.386 7  93283114.67945  22780659.112                    22780660.3754
        44.500          30.6004
 132641725.565 6 103357153.23743  25240902.447                    25240906.8534
        38.400          21.3004
 107469440.354 8  83742434.98647  20450750.796                    20450751.7344
        50.600          43.7004
 127971918.109 6  99718397.64243  24352247.697                    24352249.6544
        41.900          22.2004
 121287997.578 7  94510127.20245  23080329.266                    23080327.9104
        46.200          30.3004
 15  7  8  9 50 45.0000000  0  9G25G17G12G02G06G15G24G29G14
 117142151.570 7  91279625.61945  22291398.735                    22291399.3714
        44.600          32.4004
 128698900.074 7 100284840.89743  24490592.750                    24490592.9984
        42.100          23.2004
 106488482.669 8  82978059.74646  20264071.090                    20264068.2124
        51.300          41.5004
 121511478.632 7  94684273.29044  23122860.842                    23122857.8674
        43.100          26.5004
 119700551.078 7  93273209.79045  22778239.943                    22778241.1724
        44.300          30.5004
 132693769.441 6 103397706.78443  25250805.755                    25250811.0294
        39.000          22.0004
 107487009.156 8  83756124.94747  20454094.621                    20454094.3664
        50.600          43.1004
 127915777.340 7  99674651.62643  24341564.040                    24341566.2174
        42.500          21.8004
 121266974.213 7  94493745.38444  23076328.675                    23076327.4674
        46.600          29.3004
 15  7  8  9 51  0.0000000  0  9G25G17G12G02G06G15G24G29G14
 117105127.349 7  91250775.61845  22284353.771                    22284353.9874
        45.200          32.4004
 128747718.192 7 100322880.92944  24499882.495                    24499882.3734
        42.200          24.7004
 106480800.829 8  82972073.91247  20262609.773                    20262606.2934
        51.200          42.1004
 121475066.997 6  94655900.62944  23115931.881                    23115928.9424
        40.100          24.2004
 119687978.116 7  93263412.71344  22775847.153                    22775848.0504
        43.700          29.4004
 132745792.119 6 103438243.88143  25260705.645                    25260710.6524
        37.300          21.1004
 107504698.555 8  83769908.88447  20457460.762                    20457460.7284
        51.100          43.0004
 127859663.407 6  99630926.52343  24330886.218                    24330888.3714
        41.900          22.6004
 121246082.946 7  94477466.50344  23072352.537                    23072351.6434
        44.400          27.5004
 15  7  8  9 51 15.0000000  0  9G25G17G12G02G06G15G24G29G14
 117068150.759 7  91221962.72045  22277316.718                    22277317.8434
        45.100          32.3004
 128796567.008 6 100360944.89943  24509177.625                    24509177.8774
        41.100          22.6004
 106473201.151 8  82966152.09146  20261163.673                    20261160.2694
        51.000          41.7004
 121438722.816 7  94627580.55544  23109015.357                    23109012.8774
        43.500          26.7004
 119675544.520 7  93253724.21445  22773481.670                    22773482.2494
        43.700          30.0004
 132797794.229 6 103478764.92043  25270601.712                    25270606.6324
        38.100          21.8004
 107522509.378 8  83783787.44247  20460850.029                    20460850.0664
        50.300          43.0004
 127803577.230 6  99587223.04643  24320212.926                    24320215.2104
        41.100          22.5004
 121225324.898 7  94461291.41244  23068402.539                    23068401.4404
        45.700          27.1004
 15  7  8  9 51 30.0000000  0  9G25G17G12G02G06G15G24G29G14
 117031222.770 7  91193187.70245  22270289.941                    22270290.9644
        44.700          32.0004
 128845447.264 6 100399033.36743  24518479.535                    24518479.6754
        39.200          22.9004
 106465684.515 8  82960294.97446  20259733.190                    20259729.7964
        50.800          41.6004
 121402447.322 7  94599313.97844  23102113.038                    23102109.0504
        43.000          26.8004
 119663251.395 7  93244145.20545  22771142.051                    22771143.6674
        44.100          30.4004
 132849776.394 6 103519270.41843  25280493.949                    25280498.4844
        37.700          22.9004
 107540442.856 8  83797761.57647  20464262.627                    20464262.2634
        50.200          43.3004
 127747520.040 6  99543542.20343  24309545.229                    24309547.4334
        39.300          22.0004
 121204701.264 7  94445221.07644  23064478.055                    23064476.5754
        45.000          27.5004
 15  7  8  9 51 45.0000000  0  9G25G17G12G02G06G15G24G29G14
 116994340.125 7  91164448.00645  22263271.833                    22263272.4544
        45.000          33.1004
 128894355.431 6 100437143.56343  24527786.963                    24527786.7834
        39.400          22.0004
 106458247.669 8  82954500.04146  20258317.952                    20258314.9134
        50.700          41.5004
 121366237.497 7  94571098.57444  23095222.797                    23095218.5924
        43.400          26.0004
 119651095.665 7  93234673.22145  22768828.026                    22768830.7574
        43.400          31.1004
 132901734.852 6 103559757.47143  25290380.661                    25290385.8604
        37.800          22.6004
 107558495.248 8  83811828.37147  20467698.085                    20467697.4014
        50.300          43.3004
 127691488.624 6  99499881.42843  24298883.257                    24298885.7414
        39.500          22.8004
 121184208.876 7  94429252.98744  23060578.245                    23060576.5434
        45.100          26.4004
 15  7  8  9 52  0.0000000  0  9G25G17G12G02G06G15G24G29G14
 116957505.713 7  91135745.90045  22256262.280                    22256263.1344
        44.900          32.8004
 128943294.065 6 100475277.52943  24537098.717                    24537099.0654
        36.100          22.0004
 106450893.262 8  82948769.34446  20256918.520                    20256915.4604
        50.000          41.9004
 121330096.545 7  94542936.83944  23088345.390                    23088341.1814
        43.800          26.6004
 119639080.230 7  93225310.56545  22766542.327                    22766544.1744
        43.900          30.4004
 132953672.308 6 103600228.15443  25300264.260                    25300268.8834
        38.600          23.0004
 107576669.486 8  83825990.11347  20471156.214                    20471155.8924
        50.700          42.8004
 127635486.109 6  99456243.16243  24288226.647                    24288228.4264
        38.300          22.5004
 121163850.670 7  94413389.48844  23056704.019                    23056702.0854
        45.200          28.2004
 15  7  8  9 52 15.0000000  0  9G25G17G12G02G06G15G24G29G14
 116920719.637 7  91107081.45945  22249261.319                    22249263.1644
        46.000          33.2004
 128992262.871 6 100513434.94143  24546417.120                    24546417.2304
        36.600          21.3004
 106443621.418 8  82943102.97646  20255534.502                    20255530.9914
        50.700          41.7004
 121294024.937 7  94514829.15144  23081480.785                    23081477.2544
        43.300          25.4004
 119627205.338 7  93216057.44245  22764282.283                    22764283.9414
        43.900          30.2004
 133005588.420 6 103640682.20644  25310144.535                    25310148.0764
        41.300          26.8004
 107594965.647 8  83840246.85147  20474638.020                    20474637.7114
        50.700          42.8004
 127579512.809 6  99412627.65743  24277574.765                    24277576.9214
        39.200          22.5004
 121143626.855 7  94397630.67844  23052856.254                    23052853.7534
        45.500          27.3004
 15  7  8  9 52 30.0000000  0  9G25G17G12G02G06G15G24G29G14
 116883980.966 7  91078453.96745  22242270.324                    22242271.8344
        45.000          33.3004
 129041260.633 5 100551614.96643  24555740.873                    24555742.0194
        35.900          20.4004
 106436431.162 8  82937500.18946  20254166.323                    20254162.4414
        50.900          41.4004
 121258021.930 7  94486774.92044  23074628.431                    23074625.9124
        42.400          25.6004
 119615470.137 7  93206913.15345  22762049.291                    22762050.8924
        45.900          30.9004
 133057482.118 6 103681118.78843  25320019.457                    25320023.4094
        38.700          23.8004
 107613382.806 8  83854597.87747  20478142.199                    20478142.2054
        51.400          42.9004
 127523568.039 6  99369034.39943  24266929.110                    24266930.4454
        36.600          22.6004
 121123536.675 7  94381975.99244  23049033.387                    23049031.4064
        46.400          27.4004
 15  7  8  9 52 45.0000000  0  9G25G17G12G02G06G15G24G29G14
 116847290.287 7  91049863.87345  22235288.066                    22235289.6734
        43.700          32.6004
 129090287.567 5 100589817.69543  24565070.052                    24565070.9474
        35.800          21.3004
 106429322.849 8  82931961.24746  20252813.714                    20252810.2514
        50.000          41.5004
 121222088.130 7  94458774.61544  23067791.214                    23067788.1194
        42.100          25.9004
 119603875.279 7  93197878.22545  22759842.698                    22759844.7084
        44.000          32.1004
 133109353.258 6 103721537.78944  25329890.135                    25329894.1324
        41.300          25.3004
 107631920.981 8  83869043.20147  20481670.155                    20481670.3874
        50.200          42.9004
 127467652.625 6  99325464.00443  24256289.298                    24256290.2824
        38.100          21.5004
 121103580.917 7  94366426.07344  23045236.213                    23045234.5704
        46.900          29.7004
 15  7  8  9 53  0.0000000  0  9G25G17G12G02G06G15G24G29G14
 116810647.108 7  91021310.78045  22228315.293                    22228316.2844
        43.900          32.7004
 129139342.782 6 100628042.46743  24574405.675                    24574405.5294
        37.800          21.7004
 106422296.002 8  82926485.80146  20251476.217                    20251473.1904
        50.300          41.6004
 121186223.363 7  94430828.10744  23060966.629                    23060963.5384
        42.500          25.9004
 119592420.463 7  93188952.39845  22757663.839                    22757664.8994
        45.400          31.6004
 133161201.080 6 103761938.61843  25339756.747                    25339760.8764
        41.600          22.6004
 107650579.924 8  83883582.61947  20485220.609                    20485220.9274
        50.400          42.8004
 127411766.026 6  99281916.06343  24245653.624                    24245655.9384
        37.700          22.3004
 121083758.724 7  94350980.22745  23041463.911                    23041462.1624
        47.200          30.4004
 15  7  8  9 53 15.0000000  0  9G25G17G12G02G06G15G24G29G14
 116774051.142 7  90992794.47145  22221351.528                    22221352.5684
        44.500          32.6004
 129188425.842 6 100666288.98444  24583745.825                    24583745.9544
        38.800          24.0004
 106415350.252 8  82921073.53347  20250154.321                    20250151.1634
        50.500          42.3004
 121150427.670 7  94402935.42344  23054154.704                    23054151.2344
        44.500          26.0004
 119581105.317 7  93180135.43445  22755510.099                    22755511.7774
        43.000          31.3004
 133213024.862 7 103802320.74743  25349618.271                    25349622.3204
        42.300          22.8004
 107669358.913 8  83898215.59047  20488794.392                    20488794.3034
        49.600          42.8004
 127355908.234 6  99238390.58243  24235024.614                    24235026.8334
        37.700          22.8004
 121064069.870 7  94335638.29144  23037717.093                    23037715.9604
        46.900          29.2004
 15  7  8  9 53 30.0000000  0  9G25G17G12G02G06G15G24G29G14
 116737501.988 7  90964314.65045  22214396.246                    22214396.9194
        46.200          32.5004
 129237535.981 6 100704556.55244  24593092.271                    24593092.1874
        39.700          25.2004
 106408485.158 8  82915724.11747  20248848.513                    20248844.8584
        51.300          42.2004
 121114700.918 7  94375096.45344  23047356.114                    23047353.0234
        42.800          26.5004
 119569929.718 7  93171427.19945  22753383.857                    22753384.9074
        44.800          31.6004
 133264823.874 7 103842683.54043  25359476.061                    25359479.3834
        42.200          23.4004
 107688257.862 8  83912942.03847  20492390.625                    20492391.1174
        50.300          42.2004
 127300079.079 6  99194887.43643  24224399.811                    24224402.2194
        38.600          21.5004
 121044514.434 7  94320400.30344  23033995.553                    23033994.4854
        46.500          28.8004
 15  7  8  9 53 45.0000000  0  9G25G17G12G02G06G15G24G29G14
 116701001.417 7  90935872.65745  22207450.320                    22207451.1114
        44.500          32.1004
 129286674.511 6 100742846.25544  24602442.580                    24602442.3944
        41.800          26.0004
 106401702.249 8  82910438.74247  20247557.553                    20247554.3054
        50.900          42.0004
 121079045.041 6  94347312.69744  23040571.225                    23040567.4604
        41.000          27.1004
 119558895.366 7  93162829.01445  22751283.616                    22751285.3604
        44.200          32.5004
 133316599.516 7 103883028.10943  25369327.934                    25369331.7894
        43.200          23.0004
 107707278.198 8  83927763.07047  20496010.036                    20496010.2744
        49.800          42.2004
 127244280.452 6  99151408.09444  24213782.409                    24213784.7164
        40.400          24.7004
 121025094.177 7  94305267.66644  23030299.788                    23030299.3514
        45.200          27.9004
 15  7  8  9 54  0.0000000  0  9G25G17G12G02G06G15G24G29G14
 116664550.083 7  90907469.06845  22200514.327                    22200515.1164
        44.700          32.6004
 129335841.755 7 100781158.36744  24611798.878                    24611797.8934
        42.500          25.3004
 106395002.221 8  82905217.94946  20246282.508                    20246279.1884
        50.900          41.7004
 121043461.030 7  94319584.96344  23033799.901                    23033795.8864
        42.600          26.0004
 119548003.149 7  93154341.59045  22749211.072                    22749212.9494
        44.600          32.0004
 133368352.177 6 103923354.83443  25379176.429                    25379179.9374
        41.800          22.0004
 107726420.569 8  83942679.18347  20499652.592                    20499653.1394
        50.100          42.3004
 127188513.121 6  99107953.11843  24203167.139                    24203170.2534
        38.800          22.3004
 121005809.857 7  94290240.96144  23026629.664                    23026629.0414
        45.400          27.9004
 15  7  8  9 54 15.0000000  0  9G25G17G12G02G06G15G24G29G14
 116628144.924 7  90879101.43145  22193585.817                    22193586.6734
        46.200          33.1004
 129385034.365 7 100819490.22044  24621160.165                    24621159.1174
        42.300          25.1004
 106388381.906 8  82900059.26746  20245022.778                    20245019.7874
        51.400          41.9004
 121007946.003 7  94291910.97344  23027041.110                    23027037.8674
        43.800          26.9004
 119537249.946 7  93145962.50045  22747164.774                    22747166.5204
        45.000          32.1004
 133420078.438 6 103963660.93643  25389019.183                    25389023.3544
        40.400          21.7004
 107745681.516 8  83957687.70947  20503317.832                    20503318.2524
        50.400          42.2004
 127132774.156 6  99064520.26644  24192562.701                    24192565.0014
        40.200          24.2004
 120986658.415 7  94275317.78244  23022986.178                    23022984.3934
        45.700          28.1004
 15  7  8  9 54 30.0000000  0  9G25G17G12G02G06G15G24G29G14
 116591788.813 7  90850772.03245  22186668.145                    22186668.7474
        46.400          33.0004
 129434254.887 6 100857843.81943  24630526.946                    24630525.4844
        41.300          23.2004
 106381844.070 8  82894964.85847  20243778.987                    20243775.3274
        50.900          42.1004
 120972503.063 7  94264293.15944  23020296.988                    23020292.9514
        44.300          26.0004
 119526638.816 7  93137694.11645  22745145.552                    22745146.9354
        44.800          31.5004
 133471780.705 6 104003948.33443  25398857.935                    25398861.7944
        40.000          21.3004
 107765064.032 8  83972790.95747  20507006.445                    20507006.7034
        50.200          43.0004
 127077066.642 6  99021111.90543  24181962.545                    24181963.8114
        40.500          23.6004
 120967642.896 7  94260500.50144  23019367.589                    23019364.9864
        46.800          28.1004
 15  7  8  9 54 45.0000000  0  9G25G17G12G02G06G15G24G29G14
 116555479.522 7  90822479.11445  22179758.365                    22179759.0864
        46.400          33.2004
 129483500.912 6 100896217.30644  24639898.247                    24639896.7434
        41.600          25.2004
 106375386.409 8  82889932.93146  20242549.962                    20242546.3674
        50.800          41.8004
 120937130.404 7  94236730.10844  23013565.425                    23013562.2254
        44.100          26.9004
 119516167.597 7  93129534.73745  22743153.342                    22743154.0464
        44.600          31.0004
 133523456.404 6 104044215.05543  25408691.207                    25408695.3204
        39.400          19.9004
 107784565.819 8  83987987.13547  20510717.593                    20510717.7984
        50.100          43.1004
 127021388.638 6  98977726.55744  24171367.343                    24171369.9024
        40.000          24.6004
 120948761.012 7  94245787.36244  23015774.382                    23015771.8784
        46.700          29.1004
 15  7  8  9 55  0.0000000  0  9G25G17G12G02G06G15G24G29G14
 116519217.912 7  90794223.34745  22172858.465                    22172858.5884
        45.800          33.5004
 129532772.767 7 100934610.91543  24649273.824                    24649271.7194
        42.400          22.8004
 106369009.722 8  82884964.08846  20241336.629                    20241333.1904
        50.700          41.8004
 120901828.851 7  94209222.45744  23006848.214                    23006844.8644
        44.100          27.6004
 119505837.178 7  93121485.06745  22741186.737                    22741188.1894
        45.100          31.2004
 133575105.945 6 104084461.39843  25418520.286                    25418524.1664
        39.000          19.0004
 107804187.367 8  84003276.64447  20514451.446                    20514451.5284
        50.000          42.3004
 126965741.011 6  98934364.86843  24160776.853                    24160779.5824
        38.400          22.6004
 120930013.794 7  94231179.15844  23012206.665                    23012204.4904
        46.800          29.0004
 15  7  8  9 55 15.0000000  0  9G25G17G12G02G06G15G24G29G14
 116483004.670 7  90766005.26645  22165966.633                    22165967.2204
        45.700          33.8004
 129582071.052 6 100973025.13343  24658655.507                    24658653.3264
        41.300          23.9004
 106362714.551 8  82880058.76647  20240138.645                    20240135.4204
        51.500          42.1004
 120866599.632 7  94181771.18444  23000143.811                    23000140.9264
        44.600          26.7004
 119495648.416 7  93113545.80245  22739247.376                    22739248.9544
        44.100          31.0004
 133626729.847 6 104124687.72443  25428343.950                    25428347.9294
        37.500          19.0004
 107823929.461 8  84018660.07747  20518208.590                    20518207.8484
        49.800          42.9004
 126910124.769 6  98891027.62644  24150194.355                    24150196.5144
        40.400          25.3004
 120911402.078 7  94216676.53844  23008665.408                    23008663.4604
        47.000          29.8004
 15  7  8  9 55 30.0000000  0  9G25G17G12G02G06G15G24G29G14
 116446839.183 7  90737824.40645  22159085.398                    22159085.5444
        46.300          33.0004
 129631394.635 7 101011459.08443  24668041.594                    24668039.4404
        42.100          21.7004
 106356500.197 8  82875216.42847  20238956.055                    20238952.6664
        51.300          42.2004
 120831442.343 7  94154375.95644  22993453.234                    22993450.4064
        42.800          26.9004
 119485600.748 7  93105716.47345  22737336.087                    22737337.5904
        44.200          30.0004
 133678327.100 6 104164893.34242  25438162.378                    25438166.4034
        37.400          17.4004
 107843791.166 8  84034136.72347  20521988.080                    20521987.6974
        50.700          42.4004
 126854539.460 6  98847714.51644  24139616.164                    24139619.0574
        39.100          26.4004
 120892925.396 7  94202279.12845  23005149.078                    23005147.4094
        46.200          30.0004
 15  7  8  9 55 45.0000000  0  9G25G17G12G02G06G15G24G29G14
 116410724.058 7  90709682.78345  22152212.606                    22152212.8684
        46.200          33.8004
 129680745.827 6 101049914.50643  24677432.134                    24677430.6494
        39.900          21.8004
 106350369.250 8  82870439.06546  20237789.641                    20237785.9664
        51.000          41.9004
 120796359.686 7  94127038.88744  22986776.266                    22986773.6674
        42.600          27.8004
 119475696.825 7  93097999.14345  22735451.569                    22735452.5654
        43.800          30.9004
 133729899.897 6 104205079.86942  25447977.588                    25447981.0244
        38.100          16.3004
 107863775.253 8  84049708.73147  20525790.747                    20525790.5694
        50.200          42.9004
 126798987.772 6  98804427.60444  24129045.431                    24129048.4024
        39.600          25.9004
 120874586.328 7  94187988.97544  23001659.257                    23001657.5214
        46.600          28.8004
 15  7  8  9 56  0.0000000  0  9G25G17G12G02G06G15G24G29G14
 116374657.613 7  90681579.10045  22145349.142                    22145349.7484
        44.900          32.7004
 129730122.569 6 101088389.88043  24686827.963                    24686826.8704
        37.900          19.6004
 106344319.860 8  82865725.26747  20236638.141                    20236635.0914
        50.000          42.4004
 120761350.287 7  94099758.90244  22980115.933                    22980111.9784
        42.800          27.9004
 119465935.039 7  93090392.57245  22733593.991                    22733595.0574
        45.000          30.9004
 133781446.174 6 104245245.70742  25457785.837                    25457790.3384
        36.300          17.8004
 107883879.640 8  84065374.47247  20529616.425                    20529616.2434
        50.500          43.0004
 126743468.201 6  98761165.70644  24118480.239                    24118483.1324
        39.900          26.0004
 120856383.235 7  94173804.76144  22998195.184                    22998193.9054
        46.100          29.0004
 15  7  8  9 56 15.0000000  0  9G25G17G12G02G06G15G24G29G14
 116338639.506 7  90653513.06945  22138494.774                    22138495.4354
        45.500          32.7004
 129779524.294 6 101126884.66043  24696229.278                    24696227.8384
        37.700          19.0004
 106338351.664 8  82861074.73047  20235502.036                    20235499.2424
        50.400          42.0004
 120726413.936 7  94072535.82444  22973467.056                    22973463.4604
        43.500          28.0004
 119456315.188 7  93082896.60845  22731763.014                    22731764.5404
        43.900          31.8004
 133832965.363 6 104285390.49143  25467589.311                    25467594.1954
        38.400          18.6004
 107904104.038 8  84081133.73247  20533465.110                    20533464.8624
        49.900          42.6004
 126687980.605 6  98717928.72544  24107920.765                    24107923.1024
        40.500          25.3004
 120838315.852 7  94159726.31344  22994757.183                    22994755.3914
        46.400          28.9004
 15  7  8  9 56 30.0000000  0  9G25G17G12G02G06G15G24G29G14
 116302670.790 7  90625485.53045  22131650.306                    22131650.8514
        44.300          32.7004
 129828951.706 6 101165399.48543  24705635.020                    24705634.1704
        38.400          18.6004
 106332465.659 8  82856488.24747  20234382.304                    20234378.9434
        51.200          42.3004
 120691551.953 7  94045370.70144  22966833.713                    22966829.5944
        43.100          27.2004
 119446838.306 7  93075512.04745  22729959.602                    22729961.0064
        43.500          31.4004
 133884457.911 6 104325514.47242  25477389.007                    25477392.8774
        36.700          17.4004
 107924449.392 8  84096987.24547  20537336.677                    20537336.4144
        49.700          42.5004
 126632526.137 6  98674717.55743  24097368.256                    24097369.9514
        40.400          23.6004
 120820385.339 7  94145754.50744  22991345.185                    22991343.8854
        46.200          29.4004
 15  7  8  9 56 45.0000000  0  9G25G17G12G02G06G15G24G29G14
 116266748.671 7  90597494.29745  22124814.378                    22124815.4544
        44.200          32.2004
 129878401.729 6 101203931.89942  24715045.362                    24715044.0384
        38.600          17.8004
 106326658.897 8  82851963.50847  20233277.180                    20233274.2084
        51.000          42.5004
 120656761.923 7  94018261.64744  22960212.820                    22960209.7454
        44.200          28.3004
 119437501.733 7  93068236.80245  22728183.223                    22728184.4704
        45.100          32.1004
 133935920.683 5 104365615.24942  25487181.010                    25487185.6914
        34.000          16.9004
 107944912.453 8  84112932.47147  20541230.862                    20541230.4674
        50.300          42.0004
 126577102.190 6  98631530.15544  24086822.056                    24086823.2494
        41.800          25.3004
 120802588.999 7  94131887.24744  22987958.870                    22987956.7324
        46.400          29.3004
 15  7  8  9 57  0.0000000  0  9G25G17G12G02G06G15G24G29G14
 116230876.340 7  90569541.86945  22117987.862                    22117989.2944
        45.500          33.3004
 129927877.230 6 101242484.18843  24724458.888                    24724459.0114
        38.300          19.3004
 106320934.571 8  82847503.00447  20232188.140                    20232184.3974
        50.700          42.8004
 120622047.208 7  93991211.26144  22953606.483                    22953603.4204
        43.500          27.2004
 119428308.685 7  93061073.40445  22726434.115                    22726434.8394
        43.400          31.6004
 133987356.707 5 104405695.22542  25496967.782                    25496973.8524
        33.200          16.3004
 107965496.497 8  84128971.97547  20545147.811                    20545147.6154
        50.300          42.6004
 126521712.209 7  98588369.24744  24076281.885                    24076282.9014
        42.100          25.6004
 120784930.121 7  94118127.09744  22984597.792                    22984596.7714
        46.300          28.9004
 15  7  8  9 57 15.0000000  0  8G25G17G12G02G06G24G29G14
 116195052.891 7  90541627.51745  22111171.167                    22111172.1044
        44.800          32.5004
 129977376.887 6 101281055.29543  24733878.339                    24733879.0944
        39.000          19.6004
 106315291.497 8  82843105.80547  20231113.987                    20231110.2624
        50.500          42.4004
 120587407.105 6  93964219.02544  22947014.320                    22947011.5764
        41.700          27.3004
 119419258.351 7  93054021.21145  22724711.405                    22724712.7694
        44.100          32.1004
 107986200.419 8  84145104.88647  20549087.610                    20549087.8754
        50.700          42.1004
 126466355.295 6  98545234.12944  24065746.576                    24065748.6324
        41.800          24.7004
 120767407.743 7  94104473.31144  22981263.445                    22981261.6224
        45.800          28.5004
 15  7  8  9 57 30.0000000  0  8G25G17G12G02G06G24G29G14
 116159278.571 7  90513751.45645  22104363.471                    22104364.3974
        45.200          33.0004
 130026900.453 6 101319645.01443  24743303.399                    24743303.9224
        41.100          21.1004
 106309730.044 8  82838772.21547  20230055.414                    20230052.3344
        50.700          42.8004
 120552842.096 7  93937285.31144  22940437.092                    22940433.4114
        43.200          26.1004
 119410351.040 7  93047080.46945  22723016.212                    22723018.0264
        45.800          31.1004
 108007024.470 8  84161331.39347  20553050.518                    20553050.1834
        50.600          42.5004
 126411031.993 7  98502125.14244  24055218.679                    24055219.6124
        43.000          26.4004
 120750022.239 7  94090926.17544  22977955.074                    22977953.8794
        45.800          28.5004
 15  7  8  9 57 45.0000000  0  8G25G17G12G02G06G24G29G14
 116123552.130 7  90485912.70045  22097565.217                    22097566.2934
        46.000          34.4004
 130076446.563 6 101358252.31543  24752731.894                    24752731.6824
        41.300          22.0004
 106304249.170 8  82834501.41447  20229012.943                    20229009.2584
        50.800          42.6004
 120518351.255 7  93910409.38644  22933873.613                    22933869.6724
        42.600          26.3004
 119401585.554 7  93040250.22345  22721348.267                    22721350.4724
        44.400          31.9004
 108027966.962 8  84177650.21347  20557035.830                    20557035.9674
        50.900          42.7004
 126355741.172 7  98459041.47244  24044698.150                    24044699.2134
        43.600          26.6004
 120732772.376 7  94077484.71644  22974673.302                    22974671.5354
        46.400          28.5004
 15  7  8  9 58  0.0000000  0  8G25G17G12G02G06G24G29G14
 116087875.028 7  90458112.39845  22090775.607                    22090777.1214
        46.100          33.2004
 130126016.274 7 101396878.01544  24762165.241                    24762164.4664
        42.500          24.3004
 106298849.658 8  82830294.00447  20227985.521                    20227981.9524
        51.600          42.8004
 120483936.253 7  93883592.56344  22927325.121                    22927320.8604
        44.400          26.5004
 119392963.441 7  93033531.70545  22719708.171                    22719709.7004
        44.300          31.4004
 108049029.848 8  84194062.83047  20561043.925                    20561043.9874
        51.200          42.6004
 126300484.448 6  98415984.40044  24034182.328                    24034184.5034
        41.600          26.2004
 120715659.813 7  94064150.26144  22971416.375                    22971414.7674
        44.600          28.3004
 15  7  8  9 58 15.0000000  0  8G25G17G12G02G06G24G29G14
 116052247.402 7  90430350.64145  22083995.940                    22083997.2704
        45.100          32.8004
 130175609.550 7 101435522.08944  24771602.862                    24771601.6814
        42.500          24.7004
 106293531.673 8  82826150.12447  20226973.675                    20226969.7754
        51.200          42.6004
 120449597.375 7  93856835.02444  22920790.212                    22920786.3034
        44.300          27.5004
 119384484.832 7  93026925.00545  22718094.258                    22718095.9984
        45.300          31.9004
 108070212.588 8  84210568.85247  20565075.251                    20565074.8604
        51.100          42.7004
 126245262.176 7  98372954.15544  24023673.652                    24023675.5114
        42.800          24.8004
 120698684.629 7  94050922.88744  22968185.849                    22968184.7424
        45.800          29.3004
 15  7  8  9 58 30.0000000  0  8G25G17G12G02G06G24G29G14
 116016669.267 7  90402627.46345  22077225.885                    22077227.0764
        45.200          32.8004
 130225225.982 7 101474184.21044  24781044.287                    24781043.2834
        43.200          25.9004
 106288295.242 8  82822069.79047  20225976.997                    20225973.5794
        51.900          42.4004
 120415334.930 7  93830137.06644  22914270.255                    22914266.1714
        43.700          27.5004
 119376149.878 7  93020430.24745  22716507.970                    22716509.8634
        44.300          31.7004
 108091515.101 8  84227168.20247  20569128.734                    20569128.6444
        51.200          43.1004
 126190074.545 7  98329950.89844  24013172.772                    24013174.0764
        43.900          25.3004
 120681846.884 7  94037802.58644  22964982.081                    22964980.4644
        46.000          29.3004
 15  7  8  9 58 45.0000000  0  8G25G17G12G02G06G24G29G14
 115981139.181 7  90374941.71545  22070464.467                    22070465.1204
        44.800          33.2004
 130274863.690 7 101512862.89444  24790490.202                    24790489.2364
        44.000          24.5004
 106283138.976 8  82818051.92847  20224995.913                    20224992.4024
        51.400          42.3004
 120381147.737 7  93803497.73644  22907764.703                    22907760.9644
        42.600          27.9004
 119367957.102 7  93014046.27145  22714949.150                    22714950.7484
        43.700          31.2004
 108112936.069 8  84243859.85847  20573205.190                    20573205.0004
        51.100          42.9004
 126134920.215 7  98286973.57644  24002676.848                    24002677.2274
        43.200          27.0004
 120665145.305 7  94024788.37744  22961803.871                    22961801.9594
        46.300          29.2004
 15  7  8  9 59  0.0000000  0  8G25G17G12G02G06G24G29G14
 115945658.450 7  90347294.43345  22063713.035                    22063713.9194
        43.400          33.0004
 130324523.827 7 101551559.06044  24799940.385                    24799939.4244
        43.600          25.6004
 106278063.938 8  82814097.36247  20224029.999                    20224026.6304
        50.200          42.1004
 120347037.274 7  93776918.19944  22901273.782                    22901270.0674
        43.000          27.7004
 119359907.931 7  93007774.19845  22713416.912                    22713418.6514
        43.400          30.8004
 108134476.455 8  84260644.56147  20577303.852                    20577303.5904
        51.400          42.9004
 126079800.668 7  98244023.40744  23992187.635                    23992189.3554
        43.100          26.9004
 120648581.278 7  94011881.36044  22958652.273                    22958650.2854
        46.600          28.5004
 15  7  8  9 59 15.0000000  0  8G25G17G12G02G06G24G29G14
 115910227.458 7  90319685.89345  22056970.356                    22056971.1154
        43.700          33.2004
 130374206.389 7 101590272.69044  24809394.531                    24809393.5044
        44.400          24.8004
 106273070.406 8  82810206.30746  20223079.564                    20223076.1824
        50.000          41.7004
 120313004.120 7  93750398.91444  22894797.567                    22894793.6454
        43.700          26.9004
 119352002.833 7  93001614.39745  22711913.189                    22711914.5214
        44.900          31.4004
 108156136.524 8  84277522.52247  20581425.631                    20581425.6084
        51.100          43.2004
 126024716.546 7  98201100.83144  23981705.858                    23981707.4134
        43.000          27.8004
 120632155.105 7  93999081.75244  22955526.121                    22955523.7814
        46.200          29.3004
 15  7  8  9 59 30.0000000  0  8G25G17G12G02G06G24G29G14
 115874847.860 7  90292117.40145  22050238.034                    22050238.8674
        46.100          33.2004
 130423912.765 7 101629004.89644  24818853.077                    24818852.8304
        44.200          25.3004
 106268159.903 8  82806379.95747  20222145.404                    20222141.9814
        50.900          42.1004
 120279050.200 7  93723941.37144  22888335.580                    22888332.2654
        43.600          25.6004
 119344243.467 7  92995568.13845  22710436.242                    22710437.9024
        44.900          31.0004
 108177917.852 8  84294494.97647  20585570.065                    20585570.2714
        50.900          42.9004
 125969669.565 7  98158207.17544  23971230.365                    23971232.0434
        43.100          25.5004
 120615868.620 7  93986391.00144  22952427.109                    22952424.1764
        46.300          29.6004
 15  7  8  9 59 45.0000000  0  8G25G17G12G02G06G24G29G14
 115839516.085 7  90264586.17845  22043515.070                    22043515.2014
        45.000          32.9004
 130473639.006 7 101667752.57044  24828316.057                    24828315.1184
        43.600          24.5004
 106263328.889 8  82802615.53246  20221225.999                    20221222.5864
        50.300          41.9004
 120245172.423 7  93697543.13844  22881888.882                    22881885.9744
        43.900          28.1004
 119336626.383 7  92989632.75645  22708987.294                    22708988.5934
        44.400          31.4004
 108199816.524 8  84311558.84747  20589737.806                    20589737.5994
        51.100          42.6004
 125914656.382 7  98115339.80744  23960761.530                    23960763.9614
        42.700          26.9004
 120599718.261 7  93973806.31644  22949353.805                    22949351.4094
        45.600          28.9004
 15  7  8 10  0  0.0000000  0  8G25G17G12G02G06G24G29G14
 115804234.260 7  90237093.87945  22036800.705                    22036801.4124
        44.700          32.5004
 130523386.881 7 101706517.09444  24837782.462                    24837782.0584
        43.200          25.5004
 106258579.349 8  82798914.59847  20220322.154                    20220318.4714
        51.100          42.1004
 120211373.041 7  93671205.97944  22875457.120                    22875453.5804
        43.900          28.1004
 119329153.680 7  92983809.88945  22707565.230                    22707566.8734
        43.300          32.1004
 108221834.721 8  84328715.87847  20593927.794                    20593927.0664
        50.900          43.1004
 125859679.138 6  98072500.49744  23950299.911                    23950301.6124
        40.700          24.2004
 120583706.130 7  93961329.34844  22946306.077                    22946304.3794
        46.300          28.9004
 15  7  8 10  0 15.0000000  0  8G25G17G12G02G06G24G29G14
 115769000.926 7  90209639.37845  22030095.891                    22030097.0164
        45.100          33.1004
 130573154.712 7 101745297.18644  24847253.422                    24847252.6644
        42.600          24.0004
 106253909.835 8  82795276.02147  20219433.309                    20219429.6954
        50.800          42.4004
 120177650.658 7  93644928.83644  22869039.896                    22869036.8694
        44.000          27.9004
 119321823.940 7  92978098.42545  22706170.289                    22706171.8554
        43.700          31.6004
 108243970.675 8  84345964.65547  20598139.783                    20598139.6764
        51.000          42.1004
 125804736.706 6  98029688.32444  23939844.314                    23939847.8174
        41.800          26.7004
 120567830.971 7  93948959.11644  22943284.978                    22943282.8784
        45.900          28.7004
 15  7  8 10  0 30.0000000  0  8G25G17G12G02G06G24G29G14
 115733818.084 7  90182224.20845  22023401.015                    22023401.4884
        46.300          33.5004
 130622944.121 7 101784094.08443  24856727.309                    24856726.9934
        42.700          23.6004
 106249322.099 8  82791701.16846  20218560.247                    20218557.2364
        50.100          41.9004
 120144007.557 7  93618713.47244  22862638.057                    22862634.8254
        44.300          28.7004
 119314639.251 7  92972499.98545  22704802.676                    22704804.6954
        43.900          31.9004
 108266226.594 8  84363306.92247  20602375.098                    20602374.8844
        50.900          42.5004
 125749831.184 6  97986904.88444  23929396.307                    23929398.6724
        40.300          24.1004
 120552094.628 7  93936697.03344  22940290.307                    22940288.2494
        45.100          27.5004
 15  7  8 10  0 45.0000000  0  8G25G17G12G02G06G24G29G14
 115698684.227 7  90154847.21245  22016714.993                    22016715.6884
        45.700          33.6004
 130672753.331 6 101822906.40043  24866206.736                    24866205.4374
        41.700          22.5004
 106244814.816 8  82788189.00947  20217703.049                    20217699.8484
        50.400          42.4004
 120110442.468 7  93592558.90144  22856251.356                    22856247.7074
        43.900          29.4004
 119307598.151 7  92967013.41745  22703462.932                    22703464.2934
        43.800          30.7004
 108288600.419 8  84380741.04847  20606632.524                    20606632.6794
        50.900          42.1004
 125694961.330 6  97944149.18543  23918954.891                    23918956.0394
        38.400          22.9004
 120536495.930 7  93924542.23544  22937322.371                    22937320.1524
        44.900          28.0004
 15  7  8 10  1  0.0000000  0  8G25G17G12G02G06G24G29G14
 115663601.378 7  90127509.97045  22010038.878                    22010039.4484
        45.100          34.2004
 130722584.104 6 101861735.53643  24875688.529                    24875687.7294
        40.600          22.3004
 106240389.811 8  82784740.95647  20216860.896                    20216857.3234
        50.500          42.0004
 120076957.640 7  93566466.87644  22849879.288                    22849876.1844
        44.100          29.7004
 119300702.657 7  92961640.31645  22702150.566                    22702152.1944
        44.500          31.0004
 108311094.283 8  84398268.72547  20610912.874                    20610912.9714
        50.700          42.6004
 125640129.242 6  97901422.99344  23908520.473                    23908523.0704
        39.900          24.9004
 120521036.771 7  93912496.14044  22934380.587                    22934378.4024
        45.500          28.7004
 15  7  8 10  1 15.0000000  0  8G25G17G12G02G06G24G29G14
 115628567.370 7  90100210.77745  22003371.940                    22003372.4814
        45.900          33.3004
 130772433.909 6 101900579.50243  24885174.807                    24885173.5514
        40.400          20.1004
 106236044.600 8  82781355.09647  20216034.029                    20216030.7614
        51.100          42.9004
 120043551.224 7  93540435.93844  22843522.275                    22843518.5634
        43.200          28.7004
 119293950.739 7  92956379.09345  22700865.552                    22700867.5224
        43.900          30.4004
 108333705.797 8  84415888.07147  20615215.843                    20615215.9304
        50.600          42.5004
 125585332.972 7  97858724.71844  23898093.664                    23898096.4874
        42.600          26.8004
 120505715.175 7  93900557.24244  22931464.570                    22931462.8284
        45.400          29.3004
 15  7  8 10  1 30.0000000  0  8G25G17G12G02G06G24G29G14
 115593585.147 7  90072951.93045  21996715.396                    21996715.7554
        44.500          33.6004
 130822305.273 6 101939440.20143  24894664.360                    24894664.0304
        40.000          21.1004
 106231782.181 8  82778033.73547  20215222.651                    20215219.2634
        50.500          43.1004
 120010226.346 7  93514468.54344  22837180.851                    22837176.8744
        43.000          28.7004
 119287345.281 7  92951231.98145  22699608.561                    22699610.5404
        43.000          30.5004
 108356437.553 8  84433601.11547  20619542.109                    20619541.6044
        51.200          42.4004
 125530575.451 6  97816056.59044  23887672.708                    23887675.4394
        40.400          24.3004
 120490533.938 7  93888727.71444  22928576.196                    22928574.3064
        45.500          29.0004
 15  7  8 10  1 45.0000000  0  8G25G17G12G02G06G24G29G14
 115558652.278 7  90045731.52845  21990067.744                    21990068.6924
        46.000          34.0004
 130872195.547 6 101978315.74343  24904159.540                    24904157.7534
        40.000          19.9004
 106227600.046 8  82774774.92847  20214426.964                    20214423.5694
        51.300          43.1004
 119976980.693 7  93488562.88844  22830853.607                    22830850.4014
        43.300          27.4004
 119280883.964 7  92946197.19845  22698379.422                    22698381.0844
        43.600          31.1004
 108379287.134 8  84451405.96747  20623889.828                    20623889.4784
        50.700          42.4004
 125475854.504 7  97773417.01943  23877259.230                    23877261.1734
        42.300          22.0004
 120475490.752 7  93877005.75944  22925713.563                    22925711.5594
        45.200          29.0004
 15  7  8 10  2  0.0000000  0  8G25G17G12G02G06G24G29G14
 115523768.893 7  90018549.70745  21983429.783                    21983430.2444
        44.600          34.3004
 130922104.580 6 102017205.83343  24913656.480                    24913655.1354
        40.700          19.6004
 106223498.285 8  82771578.75847  20213646.677                    20213642.8914
        50.000          42.5004
 119943814.816 7  93462719.37644  22824542.249                    22824538.7334
        43.000          26.9004
 119274566.917 7  92941274.83645  22697177.112                    22697179.4454
        42.600          31.2004
 108402254.525 8  84469302.62247  20628260.432                    20628260.6354
        50.500          42.8004
 125421170.606 7  97730806.23344  23866853.952                    23866855.6014
        42.700          25.6004
 120460585.785 7  93865391.51144  22922877.234                    22922875.6644
        45.300          29.0004
 15  7  8 10  2 15.0000000  0  8G25G17G12G02G06G24G29G14
 115488937.619 7  89991408.48645  21976801.017                    21976802.4494
        46.600          34.6004
 130972034.457 6 102056112.19543  24923157.832                    24923156.3834
        40.200          19.6004
 106219479.227 8  82768447.03247  20212881.653                    20212877.8674
        51.600          42.3004
 119910731.495 7  93436940.18144  22818246.649                    22818242.6974
        43.700          27.8004
 119268396.778 6  92936466.95245  22696003.308                    22696004.8234
        41.800          31.9004
 108425342.344 8  84487293.11947  20632653.873                    20632654.4634
        50.200          42.1004
 125366526.335 7  97688226.40944  23856454.028                    23856457.8194
        42.200          24.4004
 120445821.694 7  93853887.02644  22920067.641                    22920065.9834
        44.500          28.4004
 15  7  8 10  2 30.0000000  0  8G25G17G12G02G06G24G29G14
 115454154.680 7  89964304.92845  21970182.138                    21970183.2494
        45.600          34.3004
 131021981.205 6 102095031.71343  24932662.862                    24932660.4644
        40.200          19.6004
 106215539.184 8  82765376.87147  20212132.000                    20212128.1944
        51.600          42.6004
 119877727.181 7  93411222.56144  22811966.437                    22811962.6554
        43.700          28.2004
 119262369.840 7  92931770.65045  22694856.733                    22694858.3784
        43.900          31.9004
 108448546.696 8  84505374.42147  20637069.595                    20637069.9234
        51.100          42.6004
 125311918.148 6  97645674.67944  23846063.134                    23846066.0074
        41.500          24.7004
 120431194.806 7  93842489.45144  22917283.747                    22917282.4004
        44.100          28.5004
 15  7  8 10  2 45.0000000  0  8G25G17G12G02G06G24G29G14
 115419423.334 7  89937241.58145  21963573.336                    21963574.4094
        45.000          34.0004
 131071947.764 6 102133966.70043  24942170.711                    24942168.7664
        40.700          19.9004
 106211681.351 8  82762370.76947  20211397.791                    20211393.9024
        50.900          42.9004
 119844805.338 7  93385569.20244  22805701.749                    22805697.9194
        45.100          28.8004
 119256489.358 7  92927188.46945  22693737.647                    22693739.3534
        43.700          32.0004
 108471870.395 8  84523548.71447  20641507.462                    20641507.9094
        50.900          42.4004
 125257349.429 7  97603153.66044  23835679.273                    23835680.6804
        42.600          26.5004
 120416708.393 7  93831201.34144  22914527.396                    22914525.8694
        44.900          28.5004
 15  7  8 10  3  0.0000000  0  8G25G17G12G02G06G24G29G14
 115384742.927 7  89910217.91145  21956974.191                    21956974.6194
        45.500          34.3004
 131121933.118 6 102172916.22243  24951682.507                    24951680.7724
        40.900          20.1004
 106207904.907 8  82759428.08647  20210678.912                    20210675.4944
        50.900          42.2004
 119811965.575 7  93359979.79744  22799452.044                    22799449.1964
        43.900          28.7004
 119250754.725 7  92922719.92445  22692646.221                    22692647.6404
        45.200          32.4004
 108495312.646 8  84541815.39547  20645968.614                    20645968.6664
        50.900          42.1004
 125202819.755 6  97560663.07144  23825302.487                    23825305.2134
        40.500          25.7004
 120402361.801 7  93820022.16944  22911797.689                    22911795.5964
        43.700          28.8004
 15  7  8 10  3 15.0000000  0  8G25G17G12G02G06G24G29G14
 115350112.285 7  89883233.02245  21950383.920                    21950384.6704
        45.700          33.7004
 131171935.901 6 102211879.42943  24961197.632                    24961195.9404
        40.500          19.9004
 106204208.540 8  82756547.80947  20209975.562                    20209971.8264
        51.100          42.5004
 119779206.823 7  93334453.52944  22793218.404                    22793215.5124
        43.300          29.7004
 119245164.819 7  92918364.15845  22691582.633                    22691584.0864
        43.200          31.6004
 108518871.995 8  84560173.31847  20650451.985                    20650452.0634
        50.700          42.0004
 125148328.120 6  97518202.22544  23814932.187                    23814935.7454
        41.900          27.0004
 120388153.948 7  93808951.11444  22909093.961                    22909092.5444
        44.200          27.7004
 15  7  8 10  3 30.0000000  0  8G25G17G12G02G06G24G29G14
 115315533.824 7  89856288.79345  21943804.459                    21943804.9514
        45.900          33.9004
 131221958.181 6 102250857.77143  24970716.480                    24970714.7184
        40.400          20.6004
 106200594.768 8  82753731.88647  20209287.895                    20209284.7264
        51.200          42.8004
 119746531.803 7  93308992.51044  22787000.412                    22786997.2394
        43.200          28.9004
 119239722.093 7  92914123.07045  22690546.732                    22690548.0234
        43.600          31.1004
 108542551.258 8  84578624.67846  20654957.429                    20654957.2814
        50.500          41.9004
 125093877.005 7  97475772.86644  23804571.492                    23804572.6064
        44.400          27.3004
 120374087.216 7  93797990.02844  22906417.063                    22906415.5824
        45.100          28.0004
 15  7  8 10  3 45.0000000  0  8G25G17G12G02G06G24G29G14
 115281005.446 7  89829383.59145  21937233.345                    21937233.9344
        45.900          34.2004
 131271997.447 6 102289849.37643  24980238.792                    24980237.0364
        39.900          20.1004
 106197061.329 8  82750978.56247  20208615.580                    20208611.7474
        50.500          42.2004
 119713938.808 7  93283595.41044  22780797.657                    22780795.3004
        43.200          29.4004
 119234424.407 7  92909995.03045  22689538.444                    22689540.0774
        43.800          31.7004
 108566347.882 8  84597167.49146  20659485.956                    20659485.6144
        50.000          41.8004
 125039464.525 7  97433373.58244  23794217.111                    23794217.8384
        44.600          26.0004
 120360159.502 7  93787137.27744  22903766.819                    22903765.3114
        45.100          28.6004
 15  7  8 10  4  0.0000000  0  8G25G17G12G02G06G24G29G14
 115246527.372 7  89802517.58645  21930671.997                    21930672.5234
        45.200          34.3004
 131322053.845 6 102328854.30143  24989763.963                    24989762.6204
        40.500          21.1004
 106193608.335 8  82748287.93047  20207958.818                    20207954.8324
        50.600          42.5004
 119681428.159 7  93258262.46644  22774611.757                    22774608.3504
        44.100          28.6004
 119229272.064 7  92905980.24745  22688557.832                    22688559.8674
        43.200          31.2004
 108590261.677 8  84615801.60247  20664037.057                    20664036.9604
        50.300          42.0004
 124985090.985 7  97391004.72444  23783869.748                    23783872.3974
        43.900          27.5004
 120346371.231 7  93776393.17244  22901142.693                    22901141.3254
        46.000          29.3004
 15  7  8 10  4 15.0000000  0  8G25G17G12G02G06G24G29G14
 115212099.556 7  89775690.74145  21924120.565                    21924121.5764
        45.700          34.1004
 131372126.759 6 102367872.13443  24999291.766                    24999290.9814
        41.100          20.4004
 106190235.637 8  82745659.85747  20207316.563                    20207313.1974
        51.400          42.3004
 119648999.920 7  93232993.73145  22768441.046                    22768437.3704
        44.100          30.5004
 119224265.018 7  92902078.66145  22687604.990                    22687607.3344
        43.400          31.5004
 108614292.750 8  84634527.09246  20668610.025                    20668609.5144
        50.400          41.7004
 124930756.558 7  97348666.33244  23773530.595                    23773533.2564
        44.800          28.6004
 120332722.344 7  93765757.68044  22898545.733                    22898544.0534
        45.600          28.2004
 15  7  8 10  4 30.0000000  0  8G25G17G12G02G06G24G29G14
 115177722.881 7  89748903.76145  21917578.693                    21917580.3264
        44.600          34.4004
 131422216.802 6 102406903.30043  25008824.244                    25008823.3134
        41.100          20.6004
 106186944.046 8  82743094.98947  20206690.273                    20206686.8574
        50.800          42.7004
 119616655.303 7  93207790.16445  22762286.315                    22762282.4844
        43.900          30.3004
 119219404.195 7  92898291.00245  22686680.140                    22686682.3074
        42.500          32.3004
 108638441.721 8  84653344.45546  20673205.304                    20673205.1814
        50.400          41.5004
 124876462.323 7  97306359.20344  23763198.463                    23763200.0504
        45.500          28.3004
 120319213.585 7  93755231.38544  22895975.153                    22895973.4084
        45.200          29.5004
 15  7  8 10  4 45.0000000  0  8G25G17G12G02G06G24G29G14
 115143398.195 7  89722157.29045  21911047.353                    21911048.1794
        45.600          34.7004
 131472324.463 6 102445948.15943  25018359.128                    25018359.1434
        40.500          21.5004
 106183734.212 8  82740593.82547  20206079.102                    20206076.2764
        51.100          42.8004
 119584395.257 7  93182652.47844  22756147.137                    22756143.1664
        45.200          29.1004
 119214690.410 7  92894617.93845  22685783.459                    22685785.2544
        43.700          31.5004
 108662709.360 8  84672254.29546  20677823.440                    20677823.3964
        50.500          41.6004
 124822209.260 7  97264084.20044  23752873.359                    23752875.3234
        44.200          25.1004
 120305845.889 7  93744815.01344  22893431.037                    22893429.5224
        45.400          27.9004
 15  7  8 10  5  0.0000000  0  8G25G17G12G02G06G24G29G14
 115109125.076 7  89695450.99445  21904525.694                    21904525.8244
        46.400          35.1004
 131522449.128 6 102485006.32543  25027897.921                    25027897.0584
        40.400          21.3004
 106180605.727 8  82738156.05047  20205484.241                    20205480.9774
        52.200          43.2004
 119552219.660 7  93157580.59944  22750024.478                    22750020.5444
        44.900          29.6004
 119210123.292 7  92891059.15745  22684914.145                    22684915.8064
        43.100          32.8004
 108687094.918 8  84691256.01346  20682463.947                    20682463.5934
        52.100          41.5004
 124767996.976 7  97221840.97044  23742557.833                    23742560.5744
        45.600          28.3004
 120292618.952 7  93734508.33144  22890913.808                    22890912.2394
        45.700          28.6004
 15  7  8 10  5 15.0000000  0  8G25G17G12G02G06G24G29G14
 115074902.485 7  89668784.07445  21898012.883                    21898013.7584
        46.400          35.5004
 131572589.318 6 102524076.52843  25037439.186                    25037438.9924
        40.300          21.1004
 106177557.368 8  82735780.70247  20204904.147                    20204900.9734
        51.200          43.0004
 119520127.772 7  93132573.95944  22743917.721                    22743913.5084
        44.600          29.5004
 119205701.798 7  92887613.83945  22684072.951                    22684074.1784
        43.500          33.1004
 108711597.305 8  84710348.77147  20687126.858                    20687126.0814
        50.200          42.0004
 124713824.728 7  97179628.91744  23732248.919                    23732251.8114
        45.100          28.3004
 120279531.637 7  93724310.42044  22888423.275                    22888421.0104
        45.900          27.9004
 15  7  8 10  5 30.0000000  0  8G25G17G12G02G06G24G29G14
 115040733.376 7  89642158.82845  21891511.197                    21891511.7524
        46.600          35.7004
 131622747.760 6 102563160.99143  25046984.354                    25046984.1794
        40.300          20.6004
 106174592.131 8  82733470.13947  20204339.955                    20204336.2614
        51.000          42.9004
 119488122.713 7  93107634.98745  22737826.642                    22737823.4434
        44.100          30.0004
 119201428.888 7  92884284.31645  22683260.277                    22683261.1344
        45.100          32.6004
 108736219.189 8  84729534.65046  20691811.787                    20691812.0144
        50.200          41.9004
 124659695.724 7  97137450.58944  23721948.418                    23721950.7284
        43.700          26.9004
 120266587.049 7  93714223.72344  22885960.228                    22885957.4244
        45.300          27.4004
 15  7  8 10  5 45.0000000  0  8G25G17G12G02G06G24G29G14
 115006613.678 7  89615572.07845  21885018.361                    21885018.6874
        46.300          34.9004
 131672920.070 6 102602256.25443  25056531.337                    25056531.4134
        39.800          21.1004
 106171706.114 8  82731221.29747  20203790.602                    20203787.3114
        52.100          42.9004
 119456200.565 7  93082760.61045  22731752.107                    22731748.7304
        45.100          30.2004
 119197300.553 7  92881067.45745  22682473.863                    22682475.7994
        44.400          32.3004
 108760956.305 8  84748810.30046  20696519.086                    20696519.1404
        50.200          41.7004
 124605605.943 7  97095302.74844  23711655.761                    23711657.3024
        45.200          26.0004
 120253781.033 7  93704245.01244  22883523.408                    22883521.1564
        45.100          27.9004
 15  7  8 10  6  0.0000000  0  8G25G17G12G02G06G24G29G14
 114972546.106 7  89589025.93345  21878535.143                    21878536.0414
        46.600          34.9004
 131723108.742 6 102641364.24843  25066082.037                    25066082.4784
        39.700          21.8004
 106168901.386 8  82729035.79147  20203257.296                    20203253.4784
        51.000          42.6004
 119424364.320 7  93057953.18445  22725693.383                    22725691.0404
        44.300          30.9004
 119193319.452 7  92877965.30445  22681716.561                    22681718.1394
        45.000          32.8004
 108785811.210 8  84768177.74446  20701248.918                    20701248.8084
        51.000          41.8004
 124551558.330 7  97053187.79844  23701370.909                    23701373.2874
        45.200          27.8004
 120241116.415 7  93694376.48244  22881112.756                    22881110.8584
        45.800          27.0004
 15  7  8 10  6 15.0000000  0  8G25G17G12G02G06G24G29G14
 114938527.577 7  89562518.01645  21872061.294                    21872062.0714
        45.600          35.0004
 131773310.253 6 102680482.25143  25075634.861                    25075635.3964
        40.400          20.9004
 106166174.909 8  82726911.27447  20202738.307                    20202734.6174
        51.700          42.5004
 119392611.177 7  93033210.53145  22719651.853                    22719648.4964
        45.500          31.6004
 119189482.560 7  92874975.54345  22680986.044                    22680988.1604
        45.200          32.2004
 108810780.846 8  84787634.59047  20705999.919                    20706000.3724
        49.500          42.0004
 124497549.655 7  97011103.22444  23691092.797                    23691095.2074
        44.500          27.7004
 120228590.037 7  93684615.68244  22878730.678                    22878727.9544
        45.800          27.2004
 15  7  8 10  6 30.0000000  0  8G25G17G12G02G06G24G29G14
 114904561.419 7  89536050.91745  21865598.059                    21865598.4424
        46.300          34.2004
 131823527.739 6 102719612.70843  25085190.918                    25085191.3484
        39.800          21.7004
 106163530.115 8  82724850.39647  20202234.746                    20202231.3934
        52.000          42.8004
 119360944.717 7  93008535.38845  22713625.664                    22713621.9804
        44.800          31.1004
 119185793.237 7  92872100.76445  22680283.825                    22680286.2054
        45.400          32.7004
 108835868.415 8  84807183.32647  20710774.423                    20710774.2714
        49.900          42.3004
 124443583.684 7  96969051.88644  23680823.983                    23680824.8254
        45.700          25.4004
 120216205.404 7  93674965.30344  22876372.738                    22876370.5344
        46.000          27.1004
 15  7  8 10  6 45.0000000  0  8G25G17G12G02G06G24G29G14
 114870647.081 7  89509624.19945  21859144.671                    21859144.3064
        45.500          34.1004
 131873760.081 6 102758754.78543  25094750.431                    25094750.5994
        39.900          20.6004
 106160966.294 8  82722852.62147  20201746.910                    20201743.5514
        51.100          42.9004
 119329364.433 7  92983927.42045  22707616.493                    22707612.9074
        45.800          30.6004
 119182250.886 7  92869340.50245  22679610.276                    22679612.1884
        44.600          33.3004
 108861072.906 8  84826823.17246  20715570.866                    20715570.9084
        49.800          41.3004
 124389659.989 7  96927033.46144  23670562.784                    23670563.7424
        46.000          27.4004
 120203961.962 7  93665424.96844  22874043.061                    22874040.3604
        45.900          26.5004
 15  7  8 10  7  0.0000000  0  8G25G17G12G02G06G24G29G14
 114836784.370 7  89483237.67645  21852700.727                    21852700.4634
        44.800          34.6004
 131924006.885 6 102797908.03843  25104311.738                    25104312.9924
        39.900          21.1004
 106158483.056 8  82720917.63647  20201274.486                    20201270.7984
        51.700          43.1004
 119297870.424 7  92959386.65845  22701623.247                    22701619.7544
        44.900          31.0004
 119178855.295 7  92866694.60045  22678964.710                    22678966.2114
        42.600          32.5004
 108886394.004 8  84846553.88646  20720389.226                    20720389.7274
        49.000          41.8004
 124335778.527 7  96885048.02444  23660308.706                    23660310.7394
        44.600          26.6004
 120191859.381 7  93655994.38844  22871739.703                    22871737.2404
        44.900          26.3004
 15  7  8 10  7 15.0000000  0  8G25G17G12G02G06G24G29G14
 114802973.664 7  89456891.69645  21846266.653                    21846266.6164
        46.200          35.3004
 131974268.246 6 102837072.67743  25113876.606                    25113876.5354
        39.400          20.4004
 106156080.816 8  82719045.75947  20200817.304                    20200814.0304
        51.500          42.7004
 119266463.209 7  92934913.53645  22695646.314                    22695642.6594
        45.000          30.0004
 119175606.846 7  92864163.35045  22678346.222                    22678347.8354
        44.500          32.8004
 108911832.170 8  84866375.82247  20725229.790                    20725230.4334
        49.100          42.1004
 124281939.813 7  96843095.86844  23650064.353                    23650065.8394
        46.000          26.6004
 120179898.008 7  93646673.84944  22869463.603                    22869461.2364
        45.100          26.0004
 15  7  8 10  7 30.0000000  0  8G25G17G12G02G06G24G29G14
 114769215.503 7  89430586.65445  21839843.173                    21839842.6874
        45.400          34.9004
 132024544.432 6 102876248.88343  25123444.753                    25123444.1214
        40.500          20.6004
 106153759.988 8  82717237.31647  20200375.816                    20200372.2794
        51.400          42.9004
 119235143.625 7  92910508.69244  22689686.352                    22689682.4134
        45.500          29.9004
 119172506.073 7  92861747.18245  22677755.539                    22677757.7744
        44.000          32.8004
 108937387.462 8  84886289.01646  20730092.852                    20730093.1884
        49.100          41.9004
 124228144.526 7  96801177.50544  23639826.773                    23639827.7114
        44.900          25.8004
 120168078.609 7  93637463.94444  22867214.687                    22867211.7994
        45.700          27.3004
 15  7  8 10  7 45.0000000  0  8G25G17G12G02G06G24G29G14
 114735507.779 7  89404320.90945  21833428.291                    21833428.0714
        45.400          34.3004
 132074833.083 6 102915434.80943  25133013.880                    25133014.0794
        40.000          20.9004
 106151518.401 8  82715490.63647  20199949.263                    20199946.0804
        52.200          43.0004
 119203909.864 7  92886170.74044  22683742.084                    22683738.6344
        43.500          29.6004
 119169550.992 7  92859444.53045  22677193.527                    22677195.2134
        44.900          33.0004
 108963057.781 8  84906291.84446  20734977.964                    20734978.3824
        49.700          41.4004
 124174390.769 7  96759291.54244  23629597.740                    23629598.8424
        46.100          26.2004
 120156398.906 7  93628362.88744  22864991.934                    22864989.5264
        46.000          26.6004
 15  7  8 10  8  0.0000000  0  8G25G17G12G02G06G24G29G14
 114701853.638 7  89378096.92645  21827023.682                    21827024.0934
        45.100          33.9004
 132125136.946 6 102954632.55043  25142586.597                    25142586.3204
        40.100          20.1004
 106149358.871 8  82713807.88947  20199538.154                    20199535.0664
        51.200          43.4004
 119172765.144 7  92861902.16945  22677815.782                    22677812.4864
        44.500          30.6004
 119166744.580 7  92857257.74145  22676659.478                    22676661.2214
        44.500          32.9004
 108988845.949 8  84926386.51046  20739885.676                    20739885.3494
        50.700          41.3004
 124120681.718 7  96717440.42944  23619376.950                    23619379.1764
        45.400          27.7004
 120144862.047 7  93619373.13044  22862797.097                    22862794.1214
        46.200          27.8004
 15  7  8 10  8 15.0000000  0  8G25G17G12G02G06G24G29G14
 114668250.664 7  89351912.82445  21820629.222                    21820630.2824
        45.300          34.4004
 132175453.378 6 102993840.13743  25152161.329                    25152161.0204
        40.500          19.9004
 106147279.111 8  82712187.29647  20199142.276                    20199139.0344
        51.600          43.3004
 119141707.281 7  92837701.26545  22671905.925                    22671902.6044
        45.200          30.9004
 119164084.553 7  92855184.99745  22676153.499                    22676155.5704
        45.300          32.8004
 109014749.623 8  84946571.17246  20744814.692                    20744814.6934
        50.300          41.7004
 124067015.093 7  96675622.36144  23609164.115                    23609165.9894
        44.400          24.9004
 120133465.776 7  93610492.92744  22860627.872                    22860625.6404
        46.000          27.9004
 15  7  8 10  8 30.0000000  0  8G25G17G12G02G06G24G29G14
 114634700.442 7  89325769.82045  21814245.254                    21814245.7514
        44.700          35.3004
 132225783.547 6 103033058.36243  25161738.765                    25161738.5974
        40.500          18.6004
 106145280.585 8  82710630.01647  20198762.110                    20198758.7174
        51.000          43.6004
 119110738.155 7  92813569.51045  22666012.691                    22666009.7564
        45.700          31.6004
 119161572.376 7  92853227.47645  22675675.508                    22675676.5844
        45.900          32.1004
 109040769.878 8  84966846.68546  20749766.064                    20749766.0714
        49.500          41.6004
 124013392.956 7  96633838.93944  23598960.201                    23598961.1774
        45.100          28.5004
 120122211.585 7  93601723.44644  22858486.316                    22858484.5974
        45.400          26.5004
 15  7  8 10  8 45.0000000  0  8G25G17G12G02G06G24G29G14
 114601202.251 7  89299667.35045  21807870.553                    21807870.7124
        45.300          35.1004
 132276126.509 6 103072286.61843  25171318.776                    25171317.9044
        40.700          18.6004
 106143362.528 8  82709135.43547  20198396.925                    20198393.7564
        52.100          42.8004
 119079857.225 7  92789506.48945  22660136.049                    22660133.5834
        45.000          32.6004
 119159207.324 7  92851384.59645  22675225.058                    22675226.5854
        45.600          32.7004
 109066905.976 8  84987212.45646  20754739.524                    20754739.8324
        50.200          41.9004
 123959814.453 7  96592089.52444  23588764.239                    23588766.5494
        44.500          26.7004
 120111098.712 7  93593064.06244  22856370.911                    22856369.2664
        45.100          26.4004
 15  7  8 10  9  0.0000000  0  8G25G17G12G02G06G24G29G14
 114567755.984 7  89273605.33845  21801506.170                    21801506.1354
        47.000          34.9004
 132326481.773 6 103111524.42043  25180900.786                    25180900.5664
        39.200          18.6004
 106141524.710 8  82707703.37047  20198047.254                    20198043.7624
        51.400          42.4004
 119049064.573 7  92765512.25345  22654276.829                    22654273.5544
        44.700          32.1004
 119156989.284 7  92849656.27445  22674802.525                    22674805.3514
        45.200          32.4004
 109093157.634 8  85007668.28147  20759734.799                    20759735.0334
        50.700          42.3004
 123906279.637 7  96550374.15644  23578577.465                    23578578.6064
        43.900          28.0004
 120100127.073 7  93584514.71844  22854283.542                    22854282.2054
        44.100          27.5004
 15  7  8 10  9 15.0000000  0  8G25G17G12G02G06G24G29G14
 114534362.131 7  89247584.17445  21795151.397                    21795151.6434
        46.600          34.7004
 132376849.538 6 103150772.01643  25190485.399                    25190485.8044
        40.400          19.6004
 106139767.538 8  82706334.14947  20197713.052                    20197709.0904
        51.400          42.5004
 119018360.790 7  92741587.26345  22648433.596                    22648430.4564
        44.600          31.8004
 119154918.851 7  92848042.95545  22674408.514                    22674411.1654
        44.500          32.4004
 109119525.254 8  85028214.47046  20764752.541                    20764753.0504
        50.300          41.6004
 123852789.268 7  96508693.42244  23568398.899                    23568399.3634
        44.700          27.7004
 120089297.264 7  93576075.90144  22852222.500                    22852221.2704
        44.400          27.1004
 15  7  8 10  9 30.0000000  0  8G25G17G12G02G06G24G29G14
 114501021.598 7  89221604.57045  21788806.991                    21788807.5344
        46.600          34.7004
 132427230.407 6 103190029.77843  25200072.830                    25200072.7394
        40.400          18.3004
 106138091.837 8  82705028.41047  20197394.051                    20197390.2794
        51.500          42.7004
 118987747.039 7  92717732.43645  22642608.446                    22642604.7774
        45.300          31.5004
 119152996.745 7  92846545.23345  22674043.138                    22674045.2854
        45.400          31.9004
 109146009.446 8  85048851.49246  20769792.336                    20769792.7534
        50.100          41.6004
 123799344.569 7  96467048.27144  23558228.951                    23558229.3284
        45.500          28.9004
 120078610.062 7  93567748.21844  22850189.361                    22850187.6174
        44.900          28.0004
 15  7  8 10  9 45.0000000  0  8G25G17G12G02G06G24G29G14
 114467732.703 7  89195665.19545  21782472.174                    21782473.2664
        47.400          34.0004
 132477622.435 6 103229296.23043  25209663.064                    25209662.5844
        40.200          18.6004
 106136495.689 8  82703784.66247  20197090.442                    20197085.9764
        51.300          42.9004
 118957221.921 7  92693946.66945  22636799.415                    22636795.6814
        44.800          31.7004
 119151221.422 7  92845161.89145  22673704.898                    22673706.5104
        45.100          32.4004
 109172608.102 8  85069577.70046  20774854.152                    20774854.3494
        50.900          41.7004
 123745943.686 7  96425437.25544  23548066.291                    23548067.9644
        45.000          28.8004
 120068063.808 7  93559530.35044  22848181.911                    22848180.2704
        44.800          25.6004
 15  7  8 10 10  0.0000000  0  8G25G17G12G02G06G24G29G14
 114434496.716 7  89169767.05345  21776147.284                    21776148.9184
        47.800          35.2004
 132528026.511 6 103268572.09442  25219253.451                    25219253.4834
        39.400          17.8004
 106134980.397 8  82702603.92347  20196801.729                    20196798.0584
        50.200          43.1004
 118926786.924 7  92670231.12645  22631008.072                    22631003.8544
        45.100          32.1004
 119149594.049 7  92843893.82145  22673395.406                    22673396.5614
        45.600          31.9004
 109199322.509 8  85090394.09847  20779937.017                    20779937.7184
        51.100          42.3004
 123692588.042 7  96383861.52644  23537913.534                    23537914.5714
        45.600          28.4004
 120057659.793 7  93551423.34044  22846202.175                    22846201.0314
        43.800          27.2004
 15  7  8 10 10 15.0000000  0  8G25G17G12G02G06G24G29G14
 114401313.533 7  89143910.06945  21769832.902                    21769833.6404
        47.900          35.3004
 132578442.296 6 103307857.07343  25228848.216                    25228847.3684
        40.600          18.6004
 106133545.698 8  82701485.97247  20196529.169                    20196525.2044
        49.700          42.7004
 118896442.122 7  92646585.86345  22625233.621                    22625229.3794
        45.700          31.5004
 119148114.519 7  92842740.95645  22673113.727                    22673114.6824
        45.700          31.9004
 109226152.645 8  85111300.68546  20785043.000                    20785043.4164
        50.900          41.7004
 123639277.752 7  96342321.08544  23527768.522                    23527769.4054
        46.600          27.6004
 120047397.886 7  93543427.03144  22844248.946                    22844247.9914
        44.300          27.6004
 15  7  8 10 10 30.0000000  0  8G25G17G12G02G06G24G29G14
 114368182.956 7  89118094.05845  21763528.326                    21763528.5874
        47.500          35.7004
 132628869.295 6 103347150.78843  25238443.318                    25238443.4334
        41.100          19.6004
 106132191.310 8  82700430.60747  20196271.370                    20196268.0234
        51.400          43.1004
 118866187.501 7  92623010.86045  22619476.135                    22619471.8114
        45.400          32.5004
 119146782.584 7  92841703.11245  22672859.754                    22672861.4794
        43.500          32.1004
 109253097.845 8  85132296.91546  20790170.750                    20790171.0484
        50.300          41.6004
 123586012.788 7  96300815.99344  23517631.939                    23517633.9504
        45.200          29.2004
 120037277.911 7  93535541.34444  22842323.870                    22842322.0204
        44.700          26.7004
 15  7  8 10 10 45.0000000  0  8G25G17G12G02G06G24G29G14
 114335104.573 7  89092318.71445  21757234.142                    21757233.5764
        47.900          35.5004
 132679306.862 6 103386452.74343  25248041.965                    25248041.5384
        40.500          19.6004
 106130916.767 8  82699437.46047  20196028.567                    20196025.2274
        52.000          43.0004
 118836022.861 7  92599505.98245  22613735.929                    22613731.6754
        45.800          31.6004
 119145597.877 7  92840779.99245  22672634.684                    22672636.5344
        43.600          31.9004
 109280157.543 8  85153382.37646  20795319.751                    20795319.9964
        49.900          41.9004
 123532792.896 7  96259346.03844  23507504.716                    23507506.8314
        45.500          28.6004
 120027299.492 7  93527765.94744  22840424.701                    22840422.8734
        44.200          26.6004
 15  7  8 10 11  0.0000000  0  8G25G17G12G02G06G24G29G14
 114302079.991 8  89066585.28445  21750949.820                    21750949.2564
        48.100          35.9004
 132729756.085 6 103425763.80043  25257642.149                    25257642.0924
        40.600          18.6004
 106129723.637 8  82698507.75047  20195801.693                    20195798.1414
        51.700          43.0004
 118805950.031 7  92576072.65245  22608013.445                    22608009.7204
        44.800          32.1004
 119144561.896 7  92839972.74745  22672438.716                    22672438.9754
        44.200          31.4004
 109307333.296 8  85174558.26746  20800491.308                    20800491.7784
        49.400          41.7004
 123479619.821 7  96217912.53044  23497386.603                    23497387.6924
        44.600          28.1004
 120017464.159 7  93520102.04744  22838553.633                    22838551.9934
        44.700          27.4004
 15  7  8 10 11 15.0000000  0  8G25G17G12G02G06G24G29G14
 114269108.493 7  89040893.21145  21744675.342                    21744675.5024
        46.300          35.3004
 132780215.970 6 103465083.11643  25267244.290                    25267243.8764
        40.400          19.3004
 106128610.964 8  82697640.74147  20195589.773                    20195586.8014
        51.700          42.9004
 118775968.457 7  92552710.43445  22602307.974                    22602304.0534
        45.400          31.9004
 119143673.930 7  92839280.84345  22672268.446                    22672270.5794
        44.300          31.9004
 109334623.914 8  85195823.66046  20805684.545                    20805684.8024
        49.500          41.6004
 123426492.900 7  96176514.98544  23487276.866                    23487278.3094
        44.900          28.7004
 120007771.038 7  93512548.96944  22836709.334                    22836707.1764
        44.100          26.5004
 15  7  8 10 11 30.0000000  0  8G25G17G12G02G06G24G29G14
 114236190.235 7  89015242.63945  21738411.102                    21738411.7604
        46.500          35.0004
 132830686.557 6 103504410.83243  25276848.294                    25276848.6144
        40.500          19.9004
 106127578.941 8  82696836.56947  20195393.230                    20195389.9804
        51.200          43.0004
 118746078.580 7  92529419.66545  22596619.866                    22596616.2804
        45.800          32.3004
 119142934.188 7  92838704.42545  22672128.193                    22672129.1434
        43.000          31.6004
 109362029.538 8  85217178.67447  20810899.869                    20810899.8654
        50.500          42.1004
 123373412.615 7  96135153.79944  23477175.585                    23477177.8864
        44.700          29.8004
 119998220.319 7  93505106.86144  22834891.234                    22834889.4504
        44.100          27.4004
 15  7  8 10 11 45.0000000  0  8G25G17G12G02G06G24G29G14
 114203325.741 7  88989633.98345  21732156.839                    21732157.8444
        45.600          35.7004
 132881168.013 6 103543746.96543  25286454.509                    25286455.1444
        40.900          20.9004
 106126627.915 8  82696095.51647  20195212.408                    20195209.1574
        51.900          42.5004
 118716281.080 7  92506200.88645  22590950.292                    22590945.9264
        45.700          32.1004
 119142343.045 7  92838243.80645  22672015.908                    22672017.2404
        42.200          31.3004
 109389550.331 8  85238623.42946  20816136.702                    20816136.6884
        49.900          41.3004
 123320379.448 7  96093829.31544  23467084.101                    23467086.1254
        45.100          28.6004
 119988812.725 7  93497776.27444  22833101.413                    22833099.2514
        45.200          27.6004
 15  7  8 10 12  0.0000000  0  8G25G17G12G02G06G24G29G14
 114170512.781 7  88964065.48046  21725913.033                    21725913.6074
        46.300          36.0004
 132931657.890 6 103583089.69043  25296062.653                    25296063.2464
        40.800          21.3004
 106125755.604 8  82695415.79547  20195046.247                    20195043.1604
        51.300          42.3004
 118686573.770 7  92483052.36145  22585296.264                    22585292.7294
        44.600          32.1004
 119141898.297 7  92837897.26845  22671930.832                    22671932.7774
        43.600          31.5004
 109417184.070 8  85260156.20046  20821395.542                    20821395.5614
        50.500          41.1004
 123267391.319 7  96052539.91344  23457000.359                    23457001.3224
        44.400          28.9004
 119979545.929 7  93490555.39844  22831337.589                    22831335.9424
        45.500          27.2004
 15  7  8 10 12 15.0000000  0  8G25G17G12G02G06G24G29G14
 114137754.563 7  88938539.62845  21719679.331                    21719679.5114
        46.600          35.9004
 132982158.684 6 103622440.92443  25305672.195                    25305674.0554
        39.400          19.3004
 106124965.084 8  82694799.80847  20194895.918                    20194892.2424
        50.500          42.3004
 118656960.182 7  92459976.88045  22579661.523                    22579657.6494
        44.800          32.2004
 119141603.089 7  92837667.25045  22671875.091                    22671876.5664
        43.400          31.5004
 109444933.638 8  85281779.22446  20826675.861                    20826676.7824
        48.800          41.5004
 123214451.799 7  96011288.39744  23446926.408                    23446928.1154
        45.200          29.4004
 119970423.013 7  93483446.61944  22829601.738                    22829599.6624
        45.200          26.6004
 15  7  8 10 12 30.0000000  0  8G25G17G12G02G06G24G29G14
 114105050.105 7  88913055.64246  21713455.624                    21713456.0694
        46.300          36.0004
 133032669.396 6 103661799.86643  25315284.412                    25315285.7174
        39.600          19.6004
 106124255.400 8  82694246.80347  20194760.964                    20194757.3894
        51.500          42.4004
 118627439.543 7  92436973.81345  22574043.749                    22574039.8414
        43.800          32.3004
 119141456.366 7  92837552.94045  22671847.087                    22671848.3034
        42.200          32.3004
 109472798.129 8  85303491.79346  20831978.447                    20831978.7274
        48.700          41.5004
 123161560.071 7  95970074.11844  23436861.270                    23436863.2694
        44.600          28.6004
 119961443.050 7  93476449.26044  22827893.292                    22827891.0974
        45.000          26.9004
 15  7  8 10 12 45.0000000  0  8G25G17G12G02G06G24G29G14
 114072398.931 7  88887613.17045  21707242.493                    21707242.8194
        45.300          35.5004
 133083189.191 6 103701165.87443  25324898.142                    25324899.2374
        40.500          20.6004
 106123625.859 8  82693756.25847  20194641.088                    20194637.6494
        52.400          42.8004
 118598011.616 7  92414042.99945  22568443.654                    22568440.0774
        44.200          31.4004
 119141457.750 7  92837554.03245  22671847.547                    22671848.5074
        44.300          31.9004
 109500776.703 8  85325293.25846  20837302.470                    20837302.6454
        49.100          41.8004
 123108715.888 7  95928896.91144  23426805.736                    23426807.3504
        45.000          27.9004
 119952605.600 7  93469562.93444  22826211.113                    22826209.5654
        44.400          27.7004
 15  7  8 10 13  0.0000000  0  8G25G17G12G02G06G24G29G14
 114039803.025 7  88862213.80145  21701039.533                    21701039.8554
        45.400          35.1004
 133133719.713 6 103740540.27343  25334513.624                    25334514.9994
        40.300          20.4004
 106123078.433 8  82693329.70247  20194537.030                    20194533.3544
        51.900          42.9004
 118568678.634 7  92391186.16745  22562861.769                    22562858.4724
        44.500          32.4004
 119141609.062 7  92837671.97245  22671876.411                    22671877.6684
        44.800          32.5004
 109528870.783 8  85347184.72946  20842648.640                    20842648.6984
        49.500          41.7004
 123055921.056 7  95887758.13244  23416759.002                    23416760.1024
        44.000          28.1004
 119943912.642 7  93462789.17644  22824557.344                    22824555.4014
        44.700          27.2004
 15  7  8 10 13 15.0000000  0  8G25G17G12G02G06G24G29G14
 114007258.685 7  88836854.60845  21694846.385                    21694847.0704
        45.700          35.1004
 133184257.073 6 103779920.00243  25344130.816                    25344132.3714
        41.300          20.9004
 106122609.265 8  82692964.11747  20194447.959                    20194444.5344
        51.600          43.5004
 118539437.014 7  92368400.52845  22557297.435                    22557293.9084
        44.900          32.0004
 119141906.643 7  92837903.87045  22671932.533                    22671934.3614
        44.900          32.7004
 109557077.028 8  85369163.60046  20848015.828                    20848016.0894
        48.600          41.3004
 123003172.145 7  95846655.13144  23406720.975                    23406722.4514
        43.600          28.4004
 119935360.358 7  93456125.05644  22822930.065                    22822927.9374
        45.000          27.8004
 15  7  8 10 13 30.0000000  0  8G25G17G12G02G06G24G29G14
 113974768.700 7  88811537.77445  21688664.089                    21688664.1614
        46.300          35.6004
 133234803.735 6 103819306.95943  25353750.047                    25353751.4344
        40.800          21.1004
 106122221.046 8  82692661.61547  20194373.935                    20194370.6814
        51.300          43.2004
 118510289.703 7  92345688.37945  22551750.467                    22551747.6044
        44.500          32.0004
 119142353.216 7  92838251.85645  22672017.754                    22672019.2014
        43.200          33.3004
 109585397.920 8  85391231.81246  20853405.456                    20853405.9634
        48.700          41.0004
 122950471.933 7  95805590.12444  23396691.831                    23396694.3734
        45.100          29.4004
 119926951.453 7  93449572.65744  22821329.469                    22821328.1934
        44.400          27.8004
 15  7  8 10 13 45.0000000  0  8G25G17G12G02G06G24G29G14
 113942332.946 7  88786263.16245  21682491.921                    21682491.3794
        47.800          35.9004
 133285359.158 6 103858700.76843  25363370.790                    25363371.6434
        41.700          19.6004
 106121913.498 8  82692421.96147  20194315.393                    20194311.8644
        51.300          42.7004
 118481236.638 7  92323049.66745  22546222.075                    22546218.6294
        45.300          32.8004
 119142948.543 7  92838715.77245  22672130.921                    22672131.9424
        45.000          32.4004
 109613832.762 8  85413388.81046  20858816.514                    20858816.9464
        48.900          41.2004
 122897820.499 7  95764563.09044  23386673.477                    23386674.8614
        43.900          29.2004
 119918685.842 7  93443131.91344  22819756.833                    22819755.3364
        45.400          27.5004
 15  7  8 10 14  0.0000000  0  8G25G17G12G02G06G24G29G14
 113909949.949 8  88761029.65945  21676329.662                    21676328.8714
        48.100          35.7004
 133335921.658 6 103898100.09743  25372992.311                    25372993.8184
        40.900          20.1004
 106121685.086 8  82692243.98747  20194271.981                    20194268.3774
        51.800          42.7004
 118452276.711 7  92300483.52245  22540710.779                    22540707.9564
        46.000          32.8004
 119143691.138 7  92839294.43445  22672272.514                    22672273.5094
        45.600          32.2004
 109642380.019 8  85435633.40547  20864248.675                    20864248.9814
        49.500          42.0004
 122845216.622 7  95723573.10744  23376662.732                    23376665.2164
        44.100          29.7004
 119910561.841 7  93436801.53344  22818210.629                    22818209.0664
        45.300          27.4004
 15  7  8 10 14 15.0000000  0  8G25G17G12G02G06G24G29G14
 113877621.068 7  88735838.33245  21670177.212                    21670177.0324
        46.200          35.5004
 133386492.529 6 103937505.91443  25382614.948                    25382616.4664
        41.300          19.9004
 106121537.197 8  82692128.74647  20194243.824                    20194240.0874
        52.300          42.5004
 118423411.535 7  92277991.20845  22535218.017                    22535214.7654
        46.300          32.5004
 119144582.361 7  92839988.91145  22672442.273                    22672443.2474
        46.600          32.0004
 109671040.965 8  85457966.59746  20869703.018                    20869703.0174
        49.200          41.8004
 122792661.877 7  95682621.43644  23366662.705                    23366663.2914
        45.400          29.6004
 119902580.899 7  93430582.61744  22816691.870                    22816690.4544
        45.400          26.9004
 15  7  8 10 14 30.0000000  0  8G25G17G12G02G06G24G29G14
 113845345.687 7  88710688.72245  21664035.080                    21664035.9634
        45.600          34.6004
 133437070.649 6 103976917.42443  25392240.384                    25392241.8604
        40.200          19.9004
 106121469.004 8  82692075.61047  20194230.986                    20194227.3324
        51.300          42.7004
 118394640.585 7  92255572.31945  22529743.121                    22529739.2354
        45.700          32.3004
 119145621.506 7  92840798.64945  22672639.186                    22672640.4564
        46.400          31.9004
 109699814.840 8  85480387.77646  20875178.706                    20875179.0984
        49.500          41.3004
 122740155.702 7  95641707.57644  23356670.393                    23356671.7374
        45.500          29.6004
 119894742.438 7  93424474.72044  22815200.450                    22815198.9504
        45.500          28.2004
 15  7  8 10 14 45.0000000  0  8G25G17G12G02G06G24G29G14
 113813124.397 7  88685581.26046  21657903.998                    21657904.4594
        47.000          36.5004
 133487656.415 6 104016334.84843  25401866.503                    25401867.7924
        40.600          19.9004
 106121480.916 8  82692084.90347  20194233.428                    20194229.8684
        51.500          43.1004
 118365964.717 7  92233227.52645  22524286.622                    22524282.4794
        45.700          31.9004
 119146809.144 7  92841724.08945  22672865.987                    22672866.5914
        45.200          31.6004
 109728702.054 8  85502897.27847  20880676.024                    20880675.8054
        49.600          42.0004
 122687698.903 7  95600832.20345  23346687.802                    23346690.1374
        46.100          30.3004
 119887046.840 7  93418478.14244  22813735.587                    22813734.1024
        45.800          27.0004
 15  7  8 10 15  0.0000000  0  8G25G17G12G02G06G24G29G14
 113780957.971 7  88660516.54246  21651783.149                    21651783.8384
        47.300          36.8004
 133538250.085 6 104055758.43143  25411494.061                    25411495.2704
        39.800          19.0004
 106121573.661 8  82692157.16747  20194250.668                    20194246.9534
        50.500          42.7004
 118337384.875 7  92210957.56045  22518847.572                    22518844.1664
        46.100          32.6004
 119148145.994 7  92842765.79345  22673120.484                    22673120.3244
        47.000          32.0004
 109757702.841 8  85525495.27946  20886194.376                    20886194.7744
        49.900          41.9004
 122635292.242 7  95559995.91545  23336715.486                    23336717.7044
        46.800          30.5004
 119879495.063 7  93412593.65244  22812299.185                    22812296.7514
        45.400          27.2004
 15  7  8 10 15 15.0000000  0  8G25G17G12G02G06G24G29G14
 113748847.236 8  88635495.20845  21645672.855                    21645672.5604
        48.600          35.7004
 133588852.087 6 104095188.54643  25421123.151                    25421124.1544
        39.800          18.3004
 106121748.087 8  82692293.08047  20194284.259                    20194280.1974
        49.800          43.3004
 118308901.985 7  92188763.14245  22513427.310                    22513423.7554
        47.000          32.8004
 119149632.710 8  92843924.31145  22673403.072                    22673403.7044
        48.200          32.1004
 109786817.920 8  85548182.33647  20891734.770                    20891735.4224
        48.900          42.1004
 122582936.765 7  95519199.50345  23326752.183                    23326753.8634
        46.500          30.9004
 119872087.943 7  93406821.85844  22810889.071                    22810887.0934
        45.800          25.8004
 15  7  8 10 15 30.0000000  0  8G25G17G12G02G06G24G29G14
 113716789.663 7  88610515.28945  21639571.736                    21639571.6284
        47.300          35.1004
 133639459.758 6 104134623.06043  25430753.092                    25430754.4784
        39.900          18.3004
 106122001.544 8  82692490.59547  20194332.110                    20194328.6144
        51.000          43.0004
 118280513.714 7  92166642.43945  22508025.136                    22508021.1644
        46.700          32.3004
 119151266.846 7  92845197.66445  22673713.655                    22673715.2274
        46.200          33.1004
 109816044.798 8  85570956.50646  20897296.191                    20897296.8224
        48.800          41.8004
 122530630.063 7  95478441.10345  23316798.468                    23316800.6474
        46.800          30.2004
 119864822.859 7  93401160.79344  22809506.657                    22809504.2944
        45.600          25.8004
 15  7  8 10 15 45.0000000  0  8G25G17G12G02G06G24G29G14
 113684786.922 7  88585578.12945  21633482.105                    21633480.4944
        46.700          34.9004
 133690074.553 6 104174063.18942  25440385.551                    25440385.6084
        40.100          17.8004
 106122335.485 8  82692750.80247  20194395.647                    20194392.2944
        50.200          42.9004
 118252222.074 7  92144597.05045  22502641.737                    22502638.0834
        45.600          32.1004
 119153050.004 7  92846587.11345  22674053.533                    22674055.2114
        46.900          32.2004
 109845384.815 8  85593818.83446  20902879.539                    20902879.9764
        48.500          41.7004
 122478374.090 7  95437722.20145  23306854.763                    23306856.3424
        46.800          30.8004
 119857701.266 7  93395611.46844  22808151.576                    22808149.4354
        45.500          27.1004
