     2.11           OBSERVATION DATA    G (GPS)             RINEX VERSION / TYPE
teqc  2015Jun23                         20151003 10:10:34UTCPGM / RUN BY / DATE
Linux2.6.32-279.el6.x86_64|x86_64|gcc|Win64-MinGW64|=       COMMENT
BIT 2 OF LLI FLAGS DATA COLLECTED UNDER A/S CONDITION       COMMENT
-Unknown-                                                   MARKER NAME
-Unknown-           -Unknown-                               OBSERVER / AGENCY
-Unknown-           -Unknown-           -Unknown-           REC # / TYPE / VERS
-Unknown-           -Unknown-                               ANT # / TYPE
        0.0000        0.0000        0.0000                  APPROX POSITION XYZ
        0.0000        0.0000        0.0000                  ANTENNA: DELTA H/E/N
     1     1                                                WAVELENGTH FACT L1/2
     7    L1    L2    C1    P1    P2    S1    S2            # / TYPES OF OBSERV
 SNR is mapped to RINEX snr flag value [0-9]                COMMENT
  L1 & L2: min(max(int(snr_dBHz/6), 0), 9)                  COMMENT
  2015     7    10     3     0    0.0000000     GPS         TIME OF FIRST OBS
                                                            END OF HEADER
 15  7 10  3  0  0.0000000  0 11G07G09G28G30G05G06G16G02G23G10G13
 107150741.126 8  83494093.38347  20390093.906                    20390088.7024
        48.900          43.0004
 114582564.654 8  89285148.21146  21804323.172                    21804321.5754
        48.100          37.8004
 125442957.992 7  97747760.91344  23870996.520                    23870992.8474
        43.200          24.5004
 107857791.274 8  84045060.16247  20524640.731                    20524638.6994
        52.200          43.5004
 115901189.811 7  90312606.40946  22055256.679                    22055253.2094
        46.100          38.2004
 130188319.928 6 101445463.52643  24774007.144                    24774008.8124
        39.400          20.9004
 131969636.365 6 102833456.99342  25112991.889                    25112990.9414
        37.000          17.8004
 122763611.685 7  95659941.68744  23361135.771                    23361129.9614
        42.600          24.7004
 128722947.888 5 100303596.51942  24495156.228                    24495153.9844
        35.100          16.9004
 109108099.128 7  85019298.42746  20762574.833                    20762571.0194
        47.500          40.0004
 128762434.691 6 100334317.08543  24502673.097                    24502668.3334
        40.200          21.3004
 15  7 10  3  0 15.0000000  0 11G07G09G28G30G05G06G16G02G23G10G13
 107163029.054 8  83503668.38247  20392432.276                    20392427.4114
        49.600          43.1004
 114615236.410 8  89310606.69346  21810540.682                    21810538.6894
        48.500          37.1004
 125391415.125 7  97707597.64344  23861187.945                    23861184.4334
        43.000          24.4004
 107838799.711 8  84030261.53447  20521026.795                    20521024.3084
        52.500          43.3004
 115867560.571 7  90286401.81846  22048857.520                    22048853.9454
        46.200          37.4004
 130237534.248 6 101483812.31043  24783373.138                    24783373.4944
        38.600          20.1004
 132016827.318 6 102870229.12742  25121973.242                    25121971.1434
        38.400          17.8004
 122792464.128 7  95682424.10544  23366626.432                    23366620.4924
        43.300          26.1004
 128767668.166 5 100338443.44342  24503666.297                    24503663.7164
        35.100          16.3004
 109135611.014 8  85040736.25246  20767809.929                    20767806.4244
        48.100          39.7004
 128715880.999 6 100298041.53943  24493814.218                    24493810.2824
        40.200          20.6004
 15  7 10  3  0 30.0000000  0 11G07G09G28G30G05G06G16G02G23G10G13
 107175418.821 8  83513322.73147  20394789.860                    20394784.9304
        49.200          43.5004
 114647967.629 8  89336111.51446  21816768.878                    21816767.2644
        48.900          37.7004
 125339895.278 7  97667452.31544  23851384.800                    23851380.4284
        42.500          24.2004
 107819921.630 8  84015551.33247  20517434.659                    20517432.1054
        51.500          43.0004
 115834035.595 7  90260278.44846  22042477.976                    22042474.5184
        47.200          37.8004
 130286746.822 6 101522159.76243  24792736.815                    24792739.0714
        38.200          20.9004
 132064099.011 6 102907064.11643  25130967.676                    25130967.2784
        38.200          19.0004
 122821406.499 7  95704976.59344  23372133.772                    23372128.4944
        42.400          25.4004
 128812416.145 5 100373311.87442  24512181.665                    24512178.5134
        34.700          16.9004
 109163249.507 8  85062272.73046  20773069.785                    20773065.6324
        48.100          39.3004
 128669334.368 6 100261771.47743  24484956.026                    24484951.9574
        38.900          19.9004
 15  7 10  3  0 45.0000000  0 11G07G09G28G30G05G06G16G02G23G10G13
 107187910.071 8  83523056.15847  20397166.887                    20397162.1014
        49.600          43.1004
 114680758.094 8  89361662.49246  21823008.750                    21823007.2364
        49.100          37.8004
 125288398.478 7  97627324.95243  23841585.229                    23841581.4234
        42.800          22.8004
 107801156.892 8  84000929.45447  20513863.589                    20513861.3654
        51.300          43.3004
 115800615.079 7  90234236.48546  22036118.365                    22036113.8224
        46.500          38.0004
 130335957.347 6 101560505.54643  24802102.209                    24802103.0944
        38.300          21.1004
 132111451.089 6 102943961.81542  25139978.170                    25139977.2224
        39.200          17.8004
 122850438.314 7  95727598.77244  23377658.844                    23377652.9174
        43.500          26.6004
 128857191.377 5 100408201.61742  24520702.975                    24520698.8794
        34.800          17.4004
 109191014.180 8  85083907.52346  20778352.551                    20778349.0904
        49.500          40.5004
 128622794.587 6 100225506.74443  24476099.828                    24476095.1464
        38.300          20.4004
 15  7 10  3  1  0.0000000  0 11G07G09G28G30G05G06G16G02G23G10G13
 107200502.808 8  83532868.66947  20399563.195                    20399558.8544
        48.200          43.4004
 114713607.940 8  89387259.75546  21829260.061                    21829258.2354
        48.300          36.8004
 125236925.389 7  97587216.06244  23831789.974                    23831786.4024
        43.200          24.7004
 107782505.662 8  83986396.02647  20510314.261                    20510311.9854
        51.500          43.1004
 115767299.375 7  90208276.18346  22029778.214                    22029774.4094
        46.300          37.5004
 130385165.548 6 101598849.55743  24811466.742                    24811466.7204
        40.600          21.1004
 132158883.394 6 102980922.00842  25149005.639                    25149003.2254
        37.100          17.4004
 122879559.707 7  95750290.74544  23383200.780                    23383194.4494
        43.600          26.8004
 128901993.777 6 100443112.52643  24529227.542                    24529224.8384
        36.200          18.3004
 109218905.175 7  85105640.75546  20783660.748                    20783656.9554
        47.500          40.6004
 128576261.963 6 100189247.60143  24467244.549                    24467240.5554
        36.800          20.4004
 15  7 10  3  1 15.0000000  0 11G07G09G28G30G05G06G16G02G23G10G13
 107213197.354 8  83542760.50947  20401979.018                    20401974.6554
        49.300          43.6004
 114746517.474 8  89412903.51746  21835522.304                    21835520.7584
        48.100          37.3004
 125185476.557 7  97547126.08043  23822000.411                    23821996.2964
        43.600          23.9004
 107763968.360 8  83971951.37447  20506786.761                    20506784.6944
        51.300          42.5004
 115734089.253 7  90182398.17246  22023458.764                    22023455.2114
        45.800          38.1004
 130434371.390 6 101637191.78543  24820829.999                    24820830.5404
        41.400          21.8004
 132206395.757 6 103017944.56242  25158047.022                    25158044.2704
        40.000          16.9004
 122908770.319 7  95773052.23644  23388759.261                    23388752.6844
        42.400          26.7004
 128946823.817 6 100478044.91343  24537758.390                    24537755.8654
        37.500          19.0004
 109246922.534 8  85127472.45046  20788991.915                    20788988.3564
        48.900          40.3004
 128529736.904 6 100152994.37043  24458390.735                    24458386.6964
        36.800          19.0004
 15  7 10  3  1 30.0000000  0 11G07G09G28G30G05G06G16G02G23G10G13
 107225992.398 8  83552730.66647  20404413.541                    20404409.3734
        48.600          43.3004
 114779485.713 8  89438593.01346  21841795.720                    21841794.4104
        49.100          37.5004
 125134051.493 7  97507054.61843  23812214.449                    23812210.4644
        43.900          23.5004
 107745544.084 8  83957594.79147  20503280.721                    20503278.2184
        50.500          42.7004
 115700983.945 7  90156601.84846  22017159.224                    22017155.5474
        46.000          37.6004
 130483573.639 6 101675531.14643  24830192.255                    24830193.2534
        38.600          21.8004
 132253986.985 6 103055028.53842  25167102.983                    25167101.0294
        38.300          17.8004
 122938068.869 7  95795882.26644  23394335.099                    23394328.6094
        43.100          27.0004
 128991680.547 6 100512998.14443  24546294.000                    24546291.9434
        36.500          18.6004
 109275065.223 8  85149401.79746  20794347.597                    20794343.7904
        48.200          39.7004
 128483218.527 6 100116746.30043  24449538.482                    24449533.9804
        37.600          19.3004
 15  7 10  3  1 45.0000000  0 11G07G09G28G30G05G06G16G02G23G10G13
 107238889.111 8  83562780.04747  20406867.719                    20406863.6064
        48.500          43.5004
 114812513.774 8  89464329.14046  21848081.756                    21848079.5844
        49.900          37.7004
 125082651.714 7  97467002.86543  23802433.187                    23802429.2234
        43.200          23.0004
 107727234.063 8  83943327.23747  20499796.207                    20499794.6194
        51.300          43.2004
 115667985.001 7  90130888.38946  22010879.716                    22010875.7134
        47.200          38.5004
 130532773.093 6 101713868.34543  24839554.668                    24839555.8854
        39.400          21.5004
 132301658.042 6 103092174.76542  25176174.489                    25176172.2244
        38.300          16.3004
 122967456.261 7  95818781.53144  23399926.739                    23399920.7104
        43.800          26.6004
 129036564.980 6 100547972.93943  24554835.787                    24554832.9054
        38.400          19.9004
 109303334.295 8  85171429.63046  20799726.955                    20799723.4194
        48.200          40.1004
 128436708.089 6 100080504.44243  24440688.840                    24440683.0724
        37.900          20.6004
 15  7 10  3  2  0.0000000  0 11G07G09G28G30G05G06G16G02G23G10G13
 107251886.245 8  83572907.67347  20409341.177                    20409336.9244
        48.500          43.3004
 114845600.607 8  89490111.05846  21854377.510                    21854375.6094
        49.500          38.0004
 125031276.678 7  97426970.38443  23792656.217                    23792652.5804
        44.000          23.6004
 107709037.279 8  83929147.93347  20496333.741                    20496332.0024
        51.500          43.9004
 115635091.752 7  90105257.26146  22004620.188                    22004616.2464
        47.000          38.2004
 130581968.394 6 101752202.29344  24848917.106                    24848917.7054
        40.400          26.2004
 132349407.454 6 103129382.02342  25185260.707                    25185259.0164
        38.600          17.4004
 122996931.218 7  95841749.01144  23405535.732                    23405529.9174
        44.900          28.4004
 129081476.309 6 100582968.63243  24563382.400                    24563380.0274
        38.700          20.9004
 109331728.531 8  85193555.00146  20805130.464                    20805126.5324
        48.800          40.0004
 128390204.775 6 100044268.16143  24431839.294                    24431833.8974
        39.500          20.1004
 15  7 10  3  2 15.0000000  0 11G07G09G28G30G05G06G16G02G23G10G13
 107264984.446 8  83583114.04647  20411833.595                    20411829.3944
        48.900          43.3004
 114878746.942 8  89515939.34546  21860684.970                    21860683.4144
        48.600          37.7004
 124979927.284 7  97386957.87344  23782884.865                    23782881.6504
        43.600          24.9004
 107690954.555 8  83915057.50047  20492892.461                    20492890.7884
        52.000          43.1004
 115602305.211 7  90079709.30646  21998381.188                    21998376.8984
        46.500          37.9004
 130631160.009 6 101790533.36343  24858278.400                    24858279.1574
        40.700          22.2004
 132397235.626 6 103166650.65742  25194362.084                    25194360.3094
        39.000          16.3004
 123026494.290 7  95864785.15644  23411161.883                    23411155.9404
        43.700          27.4004
 129126415.005 6 100617985.74843  24571934.677                    24571931.6614
        38.500          20.1004
 109360248.608 8  85215778.42446  20810557.422                    20810553.4114
        48.600          39.7004
 128343709.545 6 100008038.09643  24422991.162                    24422985.9564
        38.600          18.6004
 15  7 10  3  2 30.0000000  0 11G07G09G28G30G05G06G16G02G23G10G13
 107278183.015 8  83593398.63947  20414345.258                    20414340.8724
        49.000          43.2004
 114911952.143 8  89541813.50046  21867003.477                    21867002.3924
        48.200          37.8004
 124928603.334 7  97346965.19543  23773118.240                    23773115.4494
        42.100          22.8004
 107672985.296 8  83901055.47947  20489473.356                    20489471.0794
        52.200          42.9004
 115569624.955 7  90054244.18046  21992161.864                    21992158.2334
        46.000          37.6004
 130680346.893 6 101828860.74644  24867637.370                    24867639.3754
        39.700          24.5004
 132445141.511 6 103203979.88142  25203477.752                    25203476.4154
        38.500          16.3004
 123056144.443 7  95887889.12944  23416803.706                    23416797.9164
        43.700          27.7004
 129171380.651 6 100653023.80643  24580491.216                    24580488.1254
        38.300          22.0004
 109388893.668 7  85238099.23846  20816008.200                    20816004.3054
        47.900          39.7004
 128297221.748 6  99971813.88843  24414144.072                    24414139.6774
        38.900          18.6004
 15  7 10  3  2 45.0000000  0 11G07G09G28G30G05G06G16G02G23G10G13
 107291482.609 8  83603761.94047  20416876.085                    20416871.4924
        48.500          43.1004
 114945216.937 7  89567734.08246  21873333.670                    21873332.7374
        47.900          37.3004
 124877305.899 7  97306993.19843  23763356.253                    23763354.1264
        42.100          23.9004
 107655130.359 8  83887142.53247  20486075.393                    20486073.3104
        51.200          42.9004
 115537052.084 7  90028862.73446  21985963.672                    21985959.5494
        45.700          37.6004
 130729529.491 6 101867184.84643  24876997.067                    24876997.6214
        40.300          22.3004
 132493125.630 6 103241370.09142  25212610.180                    25212607.0764
        40.400          15.6004
 123085882.173 7  95911061.37344  23422462.416                    23422457.0144
        42.900          26.7004
 129216373.732 6 100688083.27543  24589053.434                    24589050.2214
        38.600          22.6004
 109417664.352 8  85260517.93246  20821483.354                    20821479.2204
        48.200          40.2004
 128250742.282 6  99935596.15043  24405299.646                    24405295.3154
        38.700          19.6004
 15  7 10  3  3  0.0000000  0 11G07G09G28G30G05G06G16G02G23G10G13
 107304881.596 8  83614202.69947  20419425.739                    20419421.4724
        48.500          42.9004
 114978539.916 7  89593700.01746  21879675.438                    21879674.0154
        47.800          37.1004
 124826034.192 7  97267041.24144  23753600.022                    23753597.6634
        42.600          24.4004
 107637388.370 8  83873317.59947  20482699.203                    20482697.1664
        51.700          43.6004
 115504585.563 7  90003564.14946  21979786.118                    21979782.3024
        46.800          37.9004
 130778706.192 6 101905504.29443  24886355.360                    24886355.6094
        39.500          22.5004
 132541186.266 6 103278819.86142  25221754.993                    25221753.6074
        38.700          16.9004
 123115705.851 6  95934300.59144  23428137.549                    23428132.0264
        41.900          27.2004
 129261392.831 6 100723163.06243  24597619.895                    24597616.7774
        38.600          22.0004
 109446559.093 7  85283033.30346  20826982.104                    20826977.4814
        47.300          40.1004
 128204269.681 6  99899383.74543  24396456.107                    24396451.6944
        39.000          20.6004
 15  7 10  3  3 15.0000000  0 11G07G09G28G30G05G06G16G02G23G10G13
 107318380.651 8  83624721.43347  20421994.985                    20421990.4394
        48.700          43.3004
 115011921.909 8  89619711.92746  21886027.430                    21886025.6664
        48.600          36.9004
 124774789.402 7  97227110.23743  23743848.511                    23743845.4184
        43.000          22.9004
 107619760.257 8  83859581.39947  20479344.905                    20479342.9064
        51.300          43.8004
 115472226.696 7  89978349.43846  21973628.362                    21973624.0044
        47.200          38.3004
 130827877.395 6 101943819.48844  24895712.191                    24895712.9384
        40.700          24.3004
 132589323.908 6 103316329.60242  25230915.238                    25230914.3294
        39.200          16.9004
 123145615.874 7  95957607.08244  23433828.923                    23433823.5484
        43.100          27.1004
 129306438.667 6 100758263.65743  24606191.512                    24606188.6284
        37.100          21.5004
 109475578.476 7  85305645.80246  20832503.766                    20832499.7334
        47.100          39.4004
 128157804.891 6  99863177.41743  24387615.117                    24387610.6594
        40.400          20.6004
 15  7 10  3  3 30.0000000  0 11G07G09G28G30G05G06G16G02G23G10G13
 107331980.093 8  83635318.39147  20424582.554                    20424578.0454
        48.200          43.4004
 115045363.215 7  89645770.06446  21892391.016                    21892388.6364
        47.000          36.2004
 124723572.186 7  97187200.74443  23734101.677                    23734099.7964
        43.200          23.5004
 107602246.352 8  83845934.19547  20476012.228                    20476009.7204
        51.300          43.1004
 115439975.966 7  89953218.98946  21967491.010                    21967486.7194
        46.500          38.4004
 130877043.111 6 101982130.37744  24905068.306                    24905069.4124
        38.000          24.0004
 132637538.519 6 103353899.41442  25240091.089                    25240089.3274
        39.200          17.4004
 123175612.401 7  95980980.98744  23439537.364                    23439531.2384
        44.100          26.8004
 129351511.694 6 100793385.40443  24614769.079                    24614766.3974
        37.700          22.0004
 109504722.743 7  85328355.60246  20838049.810                    20838046.0374
        46.800          39.7004
 128111348.761 6  99826977.85543  24378774.005                    24378770.6564
        40.400          21.8004
 15  7 10  3  3 45.0000000  0 11G07G09G28G30G05G06G16G02G23G10G13
 107345679.368 8  83645993.14147  20427189.698                    20427185.0964
        49.100          43.6004
 115078863.541 8  89671874.18545  21898766.264                    21898764.0994
        48.200          35.8004
 124672382.686 7  97147312.82144  23724361.050                    23724358.6374
        43.600          24.7004
 107584846.494 8  83832375.85847  20472700.958                    20472698.9714
        50.800          43.3004
 115407833.385 7  89928172.82146  21961374.282                    21961370.4004
        46.400          37.6004
 130926202.870 6 102020436.62543  24914422.794                    24914423.8824
        39.400          21.7004
 132685829.642 6 103391528.79242  25249280.450                    25249278.8174
        36.900          16.3004
 123205694.808 7  96004421.80544  23445262.462                    23445255.2414
        44.900          27.4004
 129396611.628 6 100828528.09643  24623352.234                    24623348.7674
        37.900          21.5004
 109533991.490 8  85351162.39746  20843619.569                    20843616.0574
        48.900          40.1004
 128064900.917 6  99790784.76543  24369936.329                    24369931.2204
        40.500          21.7004
 15  7 10  3  4  0.0000000  0 11G07G09G28G30G05G06G16G02G23G10G13
 107359478.285 8  83656745.52747  20429815.311                    20429811.1704
        48.400          43.3004
 115112422.685 7  89698024.14146  21905152.146                    21905149.9924
        47.700          36.4004
 124621221.051 7  97107446.62543  23714625.038                    23714622.7794
        43.400          23.9004
 107567560.509 8  83818906.25547  20469411.631                    20469409.7264
        50.600          43.5004
 115375799.110 7  89903211.05946  21955278.522                    21955274.2114
        46.000          37.7004
 130975356.128 6 102058737.82643  24923776.207                    24923777.1784
        40.500          21.5004
 132734196.650 6 103429217.28342  25258483.824                    25258482.9114
        37.900          17.4004
 123235862.638 7  96027929.17844  23451003.183                    23450995.8774
        43.800          27.3004
 129441738.197 6 100863691.58943  24631938.483                    24631936.0964
        36.400          21.1004
 109563384.392 7  85374065.93946  20849212.853                    20849209.1544
        47.500          40.4004
 128018461.251 6  99754598.07043  24361098.995                    24361095.2524
        39.100          21.3004
 15  7 10  3  4 15.0000000  0 11G07G09G28G30G05G06G16G02G23G10G13
 107373376.197 8  83667575.05847  20432460.101                    20432455.9554
        48.100          43.1004
 115146040.094 7  89724219.50446  21911549.480                    21911548.0334
        47.600          36.8004
 124570087.157 7  97067602.04243  23704894.410                    23704891.4514
        42.700          22.6004
 107550387.929 8  83805525.02347  20466143.698                    20466141.2974
        50.200          43.3004
 115343873.065 8  89878333.63746  21949203.353                    21949199.1814
        48.100          39.3004
 131024501.868 6 102097033.22343  24933129.261                    24933129.1174
        41.700          22.3004
 132782638.778 6 103466964.30542  25267702.167                    25267701.4374
        37.500          15.6004
 123266115.026 7  96051502.46144  23456759.933                    23456753.9904
        44.300          26.5004
 129486891.066 5 100898875.54643  24640531.542                    24640527.9094
        35.800          21.1004
 109592900.725 8  85397065.65646  20854829.594                    20854826.3884
        48.100          40.3004
 127972029.322 6  99718417.38343  24352263.184                    24352259.8864
        38.600          21.1004
 15  7 10  3  4 30.0000000  0 10G07G09G28G30G05G06G02G23G10G13
 107387370.664 8  83678479.82147  20435123.337                    20435119.1834
        48.300          42.5004
 115179713.503 8  89750458.49046  21917957.258                    21917956.0444
        48.200          36.7004
 124518979.150 7  97027777.61743  23695168.788                    23695166.5004
        42.500          22.8004
 107533326.584 8  83792230.46847  20462896.965                    20462895.1864
        49.800          43.4004
 115312053.130 8  89853538.86846  21943148.090                    21943143.9954
        48.000          39.6004
 131073637.660 7 102135320.79743  24942479.345                    24942479.6124
        42.100          22.3004
 123296449.403 7  96075139.61644  23462532.837                    23462526.6704
        42.100          25.7004
 129532067.658 6 100934078.04143  24649128.200                    24649124.8684
        36.200          22.5004
 109622538.200 7  85420159.77746  20860469.694                    20860465.9664
        47.600          40.8004
 127925602.890 6  99682240.97443  24343427.698                    24343425.4094
        37.600          21.8004
 15  7 10  3  4 45.0000000  0 10G07G09G28G30G05G06G02G23G10G13
 107401467.413 8  83689464.28147  20437805.217                    20437801.3234
        48.600          43.0004
 115213448.667 8  89776745.59846  21924376.846                    21924375.6394
        48.500          36.6004
 124467902.894 7  96987977.92844  23685449.468                    23685447.1394
        42.800          24.8004
 107516382.247 8  83779027.08347  20459672.691                    20459670.8044
        49.500          43.1004
 115280345.456 7  89828831.58546  21937114.647                    21937109.4804
        47.200          38.8004
 131122768.969 6 102173604.88143  24951828.256                    24951829.4994
        38.600          21.7004
 123326871.288 6  96098844.97344  23468321.755                    23468316.4364
        41.900          26.9004
 129577273.684 6 100969303.40843  24657731.262                    24657727.2914
        37.800          21.7004
 109652302.363 8  85443352.61446  20866133.550                    20866129.8244
        49.000          40.2004
 127879188.107 6  99646073.65843  24334595.396                    24334593.1074
        37.400          22.5004
 15  7 10  3  5  0.0000000  0 10G07G09G28G30G05G06G02G23G10G13
 107415663.291 8  83700525.99847  20440506.984                    20440502.9814
        48.000          43.5004
 115247242.639 7  89803078.53446  21930807.477                    21930806.1294
        47.700          37.3004
 124416856.094 7  96948201.23044  23675735.278                    23675732.5524
        43.600          25.5004
 107499552.090 8  83765912.67447  20456470.341                    20456468.2824
        51.600          43.4004
 115248747.427 7  89804209.74446  21931101.594                    21931096.8054
        47.300          38.5004
 131171892.523 6 102211882.92143  24961175.724                    24961177.6404
        39.400          21.8004
 123357377.474 7  96122615.99644  23474126.493                    23474121.2744
        42.900          27.3004
 129622506.335 6 101004549.53343  24666339.689                    24666335.1214
        38.600          21.8004
 109682190.135 8  85466641.77946  20871821.224                    20871817.2454
        48.600          39.8004
 127832782.117 6  99609913.17643  24325764.933                    24325762.7524
        37.100          21.3004
 15  7 10  3  5 15.0000000  0 10G07G09G28G30G05G06G02G23G10G13
 107429958.595 7  83711665.17747  20443227.355                    20443223.6464
        47.900          43.7004
 115281095.815 7  89829457.58946  21937249.754                    21937248.1354
        47.100          36.2004
 124365839.632 7  96908448.14444  23666027.726                    23666024.4464
        43.600          25.6004
 107482836.523 8  83752887.54847  20453288.954                    20453287.3424
        51.400          43.2004
 115217259.782 7  89779673.91946  21925109.297                    21925105.3164
        45.800          37.8004
 131221008.422 6 102250154.97543  24970522.704                    24970523.8774
        38.700          21.8004
 123387968.035 6  96146452.76044  23479947.466                    23479941.9794
        41.700          27.0004
 129667765.808 6 101039816.57343  24674950.330                    24674948.2094
        38.300          22.3004
 109712201.693 8  85490027.39446  20877532.420                    20877528.1544
        49.600          40.3004
 127786385.393 6  99573759.93543  24316935.040                    24316933.3584
        36.600          22.3004
 15  7 10  3  5 30.0000000  0 10G07G09G28G30G05G06G02G23G10G13
 107444350.228 8  83722879.42747  20445966.039                    20445961.9644
        48.000          43.4004
 115315005.055 8  89855880.34746  21943702.391                    21943700.4764
        48.400          36.4004
 124314850.745 7  96868716.54244  23656324.571                    23656321.3014
        44.200          26.0004
 107466232.489 8  83739949.33947  20450129.412                    20450127.3734
        51.300          43.4004
 115185879.899 7  89755222.05546  21919138.064                    21919134.0414
        46.900          38.8004
 131270113.143 6 102288418.36843  24979867.522                    24979868.6524
        40.500          21.7004
 123418639.469 6  96170352.55944  23485783.624                    23485778.8664
        39.200          25.8004
 129713049.199 6 101075102.25843  24683568.821                    24683565.9074
        38.200          22.2004
 109742333.814 8  85513506.97046  20883266.129                    20883262.1384
        48.300          40.3004
 127739994.932 6  99537611.56543  24308107.636                    24308104.9954
        36.400          20.4004
 15  7 10  3  5 45.0000000  0 10G07G09G28G30G05G06G02G23G10G13
 107458840.194 8  83734170.30347  20448723.878                    20448719.4184
        48.200          42.9004
 115348972.674 8  89882348.58346  21950166.592                    21950164.6534
        48.100          37.3004
 124263892.183 7  96829008.55144  23646627.931                    23646624.2474
        43.800          25.6004
 107449742.400 8  83727099.92547  20446991.592                    20446989.6154
        50.800          43.9004
 115154610.107 7  89730855.97046  21913187.609                    21913184.0164
        47.400          39.3004
 131319208.751 6 102326674.65843  24989209.269                    24989210.6394
        40.000          21.5004
 123449393.910 6  96194317.03944  23491636.147                    23491631.2634
        37.500          25.8004
 129758358.786 6 101110408.33443  24692190.938                    24692188.7244
        38.800          22.3004
 109772588.674 8  85537082.16946  20889023.475                    20889019.7534
        48.500          39.8004
 127693613.249 6  99501470.04443  24299279.396                    24299277.3624
        37.500          20.9004
 15  7 10  3  6  0.0000000  0 10G07G09G28G30G05G06G02G23G10G13
 107473429.712 8  83745538.74547  20451499.856                    20451495.4004
        48.400          42.7004
 115383000.009 8  89908863.36946  21956641.838                    21956639.5494
        48.500          37.3004
 124212965.536 7  96789325.46244  23636936.924                    23636933.4474
        43.600          25.4004
 107433367.597 8  83714340.33547  20443875.598                    20443873.3544
        50.800          43.6004
 115123452.171 7  89706577.06446  21907258.648                    21907255.5364
        47.800          38.6004
 131368296.294 6 102364924.66643  24998550.806                    24998551.7094
        39.200          21.1004
 123480232.439 6  96218347.04244  23497504.534                    23497498.9944
        37.400          24.6004
 129803695.789 6 101145735.76644  24700818.347                    24700816.0484
        39.000          24.2004
 109802967.406 8  85560753.89546  20894804.078                    20894800.3424
        48.400          39.8004
 127647241.657 6  99465336.40143  24290457.008                    24290453.6464
        39.400          20.9004
 15  7 10  3  6 15.0000000  0 10G07G09G28G30G05G06G02G23G10G13
 107488117.700 8  83756983.92447  20454294.545                    20454290.2124
        48.200          43.0004
 115417086.018 8  89935423.87246  21963128.413                    21963125.9034
        49.200          36.6004
 124162070.179 7  96749666.76544  23627252.056                    23627247.8674
        42.900          24.8004
 107417107.222 8  83701669.89847  20440781.332                    20440779.0804
        51.000          43.5004
 115092405.408 7  89682384.79746  21901350.416                    21901346.4414
        46.500          38.2004
 131417374.494 6 102403167.40343  25007890.352                    25007891.7434
        39.400          21.3004
 123511153.720 6  96242441.52344  23503388.906                    23503383.5034
        40.700          24.0004
 129849059.258 6 101181083.83743  24709450.731                    24709447.6264
        39.200          22.6004
 109833468.925 7  85584521.30246  20900608.316                    20900604.4664
        47.700          39.8004
 127600879.505 6  99429210.04643  24281634.680                    24281630.9434
        39.200          21.5004
 15  7 10  3  6 30.0000000  0 10G07G09G28G30G05G06G02G23G10G13
 107502901.855 8  83768504.02447  20457107.779                    20457103.9744
        48.200          43.1004
 115451228.576 8  89962028.43046  21969625.116                    21969623.6024
        48.000          36.2004
 124111204.361 7  96710031.06943  23617572.047                    23617568.4104
        42.500          23.6004
 107400959.095 8  83689086.93147  20437708.328                    20437706.4214
        50.900          43.7004
 115061467.914 7  89658277.67046  21895463.016                    21895458.9014
        46.600          37.8004
 131466440.838 6 102441400.87043  25017226.701                    25017228.2064
        39.800          21.5004
 123542155.311 7  96266598.59044  23509288.641                    23509282.8724
        42.700          25.1004
 129894446.894 6 101216450.79143  24718088.203                    24718084.6874
        39.800          22.8004
 109864090.775 8  85608382.45546  20906435.295                    20906431.6294
        48.200          40.3004
 127554524.624 6  99393089.39043  24272813.787                    24272809.7544
        39.500          21.3004
 15  7 10  3  6 45.0000000  0 10G07G09G28G30G05G06G02G23G10G13
 107517783.066 7  83780099.75947  20459939.679                    20459935.6084
        47.900          43.3004
 115485428.609 8  89988677.76346  21976132.822                    21976131.5534
        48.000          36.1004
 124060369.466 7  96670419.47643  23607898.211                    23607895.0094
        42.000          23.8004
 107384924.260 8  83676592.24347  20434656.946                    20434654.9094
        51.000          43.5004
 115030641.117 7  89634256.78846  21889597.111                    21889592.0704
        46.500          37.9004
 131515495.954 6 102479625.58543  25026562.454                    25026563.6314
        39.200          20.9004
 123573237.792 7  96290818.67544  23515203.704                    23515197.3084
        43.400          26.0004
 129939859.879 6 101251837.45043  24726729.758                    24726726.2834
        39.400          23.2004
 109894833.829 7  85632338.07246  20912285.690                    20912282.3524
        47.800          40.5004
 127508178.176 6  99356975.27543  24263995.117                    24263990.4944
        40.300          21.1004
 15  7 10  3  7  0.0000000  0 10G07G09G28G30G05G06G02G23G10G13
 107532764.583 8  83791773.66147  20462790.548                    20462786.6594
        48.100          43.1004
 115519689.459 8  90015374.48946  21982652.933                    21982651.3734
        48.900          36.7004
 124009569.288 7  96630834.92044  23598231.401                    23598227.7484
        42.000          24.8004
 107369006.136 8  83664188.50347  20431628.246                    20431626.1754
        50.000          43.4004
 114999928.723 7  89610325.02946  21883753.300                    21883747.9274
        47.600          38.2004
 131564543.032 6 102517844.06543  25035894.897                    25035896.0854
        37.300          19.0004
 123604404.312 7  96315104.25944  23521134.678                    23521128.4804
        42.600          26.4004
 129985301.385 6 101287246.29443  24735376.852                    24735373.7874
        39.000          22.0004
 109925701.400 8  85656390.70246  20918159.628                    20918156.1504
        49.500          40.2004
 127461843.435 6  99320870.31843  24255178.065                    24255172.7224
        40.100          20.4004
 15  7 10  3  7 15.0000000  0 10G07G09G28G30G05G06G02G23G10G13
 107547842.080 8  83803522.34547  20465659.875                    20465656.1104
        48.300          42.9004
 115554006.915 8  90042115.33446  21989183.347                    21989181.4984
        48.200          36.8004
 123958799.937 7  96591274.39044  23588570.686                    23588566.7804
        43.000          25.4004
 107353200.508 8  83651872.43647  20428620.224                    20428618.1354
        50.100          43.3004
 114969326.599 7  89586479.19746  21877929.319                    21877925.0834
        46.300          38.3004
 131613577.348 6 102556052.58543  25045226.323                    25045226.8604
        37.700          18.3004
 123635650.262 6  96339451.74644  23527079.913                    23527074.3274
        41.700          26.3004
 130030767.165 6 101322674.09443  24744029.143                    24744024.4224
        39.000          21.8004
 109956688.956 8  85680536.83746  20924056.124                    20924052.8314
        48.100          39.5004
 127415516.437 6  99284771.38343  24246361.296                    24246357.2514
        40.500          21.1004
 15  7 10  3  7 30.0000000  0 10G07G09G28G30G05G06G02G23G10G13
 107563016.998 8  83815346.94647  20468547.754                    20468543.8384
        49.200          43.1004
 115588382.526 8  90068901.49846  21995724.962                    21995723.1924
        49.100          36.6004
 123908063.495 7  96551739.49544  23578915.694                    23578911.8044
        43.600          26.3004
 107337508.996 8  83639645.27747  20425634.150                    20425632.0764
        50.200          43.5004
 114938836.805 7  89562720.91946  21872126.945                    21872123.7084
        46.000          37.6004
 131662600.284 6 102594252.25743  25054554.969                    25054556.1044
        37.900          19.3004
 123666976.922 7  96363862.15044  23533040.649                    23533035.2814
        42.000          25.6004
 130076258.568 6 101358121.83743  24752685.662                    24752681.8324
        38.600          21.3004
 109987797.982 8  85704777.62446  20929976.384                    20929972.5224
        49.700          39.8004
 127369199.004 6  99248679.88843  24237547.450                    24237543.0554
        40.800          21.1004
 15  7 10  3  7 45.0000000  0 10G07G09G28G30G05G06G02G23G10G13
 107578289.378 8  83827247.49447  20471453.876                    20471449.8954
        48.300          43.2004
 115622816.548 8  90095733.16546  22002277.183                    22002275.9174
        48.300          36.5004
 123857360.559 7  96512230.72044  23569267.225                    23569263.6144
        42.700          25.3004
 107321931.927 8  83627507.30947  20422670.097                    20422668.2124
        49.500          43.5004
 114908459.799 7  89539050.54946  21866346.584                    21866343.0984
        46.000          37.7004
 131711611.824 6 102632443.04043  25063881.512                    25063882.9504
        37.400          19.6004
 123698384.368 7  96388335.47844  23539018.162                    23539012.1974
        43.100          27.1004
 130121776.063 6 101393589.90043  24761347.331                    24761343.7544
        37.900          21.1004
 110019028.534 8  85729113.10046  20935919.361                    20935915.1704
        49.100          39.5004
 127322891.350 6  99212596.00943  24228735.172                    24228730.9994
        39.500          19.9004
 15  7 10  3  8  0.0000000  0 10G07G09G28G30G05G06G02G23G10G13
 107593658.649 8  83839223.53347  20474378.558                    20474374.4784
        48.100          43.1004
 115657308.538 7  90122610.00546  22008841.037                    22008839.9294
        47.400          36.7004
 123806691.255 7  96472748.15844  23559625.114                    23559621.6684
        42.900          26.0004
 107306468.998 8  83615458.26747  20419727.390                    20419725.6934
        49.000          43.4004
 114878195.642 7  89515468.10246  21860587.771                    21860584.0964
        46.900          38.2004
 131760611.144 5 102670624.27843  25073205.577                    25073207.7054
        35.300          19.6004
 123729871.911 7  96412871.18744  23545009.087                    23545004.1894
        43.900          26.5004
 130167319.104 6 101429077.93343  24770013.944                    24770011.4524
        37.700          20.9004
 110050380.241 8  85753542.98846  20941885.637                    20941881.7674
        48.700          39.6004
 127276593.309 6  99176519.60843  24219925.871                    24219920.9424
        39.200          20.1004
 15  7 10  3  8 15.0000000  0 10G07G09G28G30G05G06G02G23G10G13
 107609123.939 8  83851274.39647  20477321.626                    20477317.4124
        48.200          43.1004
 115691857.780 8  90149531.43946  22015415.607                    22015413.7834
        48.900          36.9004
 123756054.812 7  96433291.20644  23549989.801                    23549985.6984
        43.400          25.5004
 107291119.448 8  83603497.57147  20416806.630                    20416804.6324
        49.100          43.4004
 114848043.760 7  89491973.11846  21854850.585                    21854845.1374
        47.300          38.6004
 131809597.344 6 102708795.26743  25082527.793                    25082529.2094
        36.800          20.9004
 123761438.475 7  96437468.48244  23551016.697                    23551010.8064
        44.600          26.0004
 130212887.068 6 101464585.28743  24778685.019                    24778682.5374
        37.000          19.3004
 110081852.042 8  85778066.45646  20947874.128                    20947870.6044
        48.600          39.0004
 127230304.178 6  99140450.17343  24211116.866                    24211112.4964
        39.400          20.1004
 15  7 10  3  8 30.0000000  0 10G07G09G28G30G05G06G02G23G10G13
 107624686.308 8  83863400.90647  20480283.107                    20480278.2684
        48.500          42.9004
 115726465.263 8  90176498.28546  22022001.672                    22021999.2564
        49.000          36.8004
 123705452.931 7  96393861.16144  23540360.194                    23540356.6694
        44.000          26.2004
 107275884.402 8  83591626.09947  20413907.398                    20413905.1684
        49.900          43.1004
 114818005.577 7  89468566.72446  21849133.856                    21849129.3174
        47.800          38.5004
 131858570.966 6 102746956.51643  25091847.677                    25091848.2164
        38.300          21.3004
 123793084.781 7  96462127.90844  23557038.381                    23557032.8144
        43.300          26.2004
 130258481.230 5 101500113.13943  24787358.313                    24787357.9764
        33.100          18.6004
 110113444.801 8  85802684.18246  20953886.203                    20953882.4994
        49.600          39.2004
 127184025.384 6  99104388.79143  24202311.024                    24202306.6744
        38.900          21.1004
 15  7 10  3  8 45.0000000  0 10G07G09G28G30G05G06G02G23G10G13
 107640348.396 8  83875605.11047  20483263.203                    20483258.8624
        48.400          42.9004
 115761133.775 8  90203512.68246  22028598.615                    22028596.0024
        48.700          36.6004
 123654888.844 7  96354460.58844  23530737.826                    23530734.4404
        44.400          26.4004
 107260766.631 8  83579846.01247  20411030.519                    20411028.5734
        50.000          43.6004
 114788084.075 7  89445251.27146  21843439.949                    21843435.3964
        46.600          38.2004
 131907534.647 6 102785110.01743  25101165.374                    25101165.8614
        38.300          19.9004
 123824813.146 7  96486851.30244  23563076.763                    23563070.5504
        43.600          27.1004
 130304103.696 5 101535663.06042  24796042.360                    24796040.5374
        33.700          17.8004
 110145161.127 8  85827398.17746  20959921.340                    20959918.2094
        49.800          40.1004
 127137759.380 6  99068337.41143  24193506.323                    24193503.2194
        40.900          21.1004
 15  7 10  3  9  0.0000000  0 10G07G09G28G30G05G06G02G23G10G13
 107656106.372 8  83887884.03647  20486262.195                    20486257.4354
        48.400          43.4004
 115795859.366 8  90230571.56246  22035206.135                    22035204.6064
        48.600          36.0004
 123604358.980 7  96315086.67144  23521122.492                    23521118.7814
        44.700          26.2004
 107245762.330 8  83568154.33947  20408175.385                    20408173.3274
        50.300          43.3004
 114758275.773 7  89422024.02546  21837767.241                    21837763.6884
        45.800          38.0004
 131956484.057 6 102823252.41743  25110479.316                    25110480.7334
        36.600          19.0004
 123856619.333 7  96511635.32444  23569129.163                    23569123.3444
        42.600          27.0004
                 101571201.30952  24804727.072                    24804724.7654
        32.500          16.9004
 110176996.934 8  85852205.29246  20965979.790                    20965976.3314
        50.000          39.7004
 127091502.733 6  99032293.30443  24184703.961                    24184701.3914
        41.700          21.3004
 15  7 10  3  9 15.0000000  0 10G07G09G28G30G05G06G02G23G10G13
 107671955.401 8  83900233.91447  20489278.135                    20489273.9154
        48.100          43.1004
 115830637.741 8  90257671.55445  22041824.453                    22041822.5464
        48.000          35.3004
 123553859.350 7  96275736.29744  23511512.748                    23511508.8464
        46.300          25.8004
 107230867.175 8  83556547.72347  20405340.901                    20405338.8764
        50.200          43.7004
 114728576.595 7  89398881.82146  21832115.721                    21832112.4414
        46.300          38.6004
 132005414.730 6 102861380.18743  25119791.563                    25119791.2044
        38.100          18.3004
 123888499.128 7  96536476.70144  23575195.851                    23575189.8334
        43.400          26.6004
 130395380.529 5 101606786.24442  24813415.825                    24813415.4604
        30.700          16.9004
 110208947.701 8  85877101.97346  20972059.911                    20972055.9174
        49.800          39.9004
 127045251.084 7  98996253.09943  24175902.732                    24175899.7294
        42.300          22.2004
 15  7 10  3  9 30.0000000  0 10G07G09G28G30G05G06G02G23G10G13
 107687903.704 7  83912661.15947  20492312.769                    20492307.9964
        47.900          42.5004
 115865477.315 8  90284819.23745  22048454.380                    22048452.7854
        48.000          35.7004
 123503398.829 7  96236416.40244  23501910.787                    23501905.9824
        45.000          25.9004
 107216089.630 8  83545032.74847  20402528.883                    20402526.5004
        50.200          43.5004
 114698995.302 7  89375831.46046  21826486.914                    21826483.4614
        46.900          38.8004
 132054334.599 6 102899499.55443  25129100.215                    25129100.6644
        39.600          21.1004
 123920460.352 7  96561381.52644  23581277.772                    23581272.3054
        43.700          26.0004
 130441094.82915 101642395.65652  24822115.030                    24822111.1934
        33.300          17.4004
 110241021.756 8  85902094.72446  20978163.205                    20978159.2604
        49.500          39.7004
 126999013.115 7  98960223.54243  24167103.479                    24167100.5854
        43.200          21.8004
 15  7 10  3  9 45.0000000  0 10G07G09G28G30G05G06G02G23G10G13
 107703946.425 8  83925161.96047  20495366.002                    20495361.5204
        48.300          42.2004
 115900373.113 8  90312010.72745  22055094.886                    22055093.1674
        48.100          35.8004
 123452972.965 7  96197123.52944  23492314.708                    23492310.5934
        43.900          25.0004
 107201424.827 8  83533605.61447  20399738.093                    20399736.4804
        50.400          43.5004
 114669527.402 7  89352869.44846  21820879.727                    21820874.8584
        47.700          38.3004
 132103238.466 6 102937606.43643  25138406.457                    25138407.9884
        39.400          21.7004
 123952497.745 7  96586345.71344  23587374.470                    23587368.5454
        43.000          26.8004
 130486817.78715 101678026.51153  24830815.851                    24830812.6354
        34.400          18.6004
 110273213.977 8  85927179.56246  20984289.593                    20984285.5474
        50.000          39.6004
 126952783.990 7  98924200.87043  24158306.936                    24158303.4884
        43.000          22.2004
 15  7 10  3 10  0.0000000  0 10G07G09G28G30G05G06G02G23G10G13
 107720083.689 8  83937736.43147  20498436.822                    20498432.2664
        48.200          42.5004
 115935325.320 8  90339246.18345  22061745.901                    22061744.5524
        48.400          35.9004
 123402582.316 7  96157858.08244  23482725.571                    23482721.8074
        44.300          24.9004
 107186873.048 8  83522266.55647  20396969.645                    20396967.8384
        49.800          43.9004
 114640173.274 7  89329996.09046  21815293.365                    21815288.3524
        46.500          37.6004
 132152126.269 6 102975700.78343  25147708.873                    25147711.5234
        38.100          22.0004
 123984611.427 7  96611369.34244  23593485.527                    23593479.1184
        43.500          26.7004
 130532561.682 5 101713671.02042  24839518.676                    24839516.4494
        33.100          17.8004
 110305524.427 8  85952356.51946  20990437.989                    20990434.1744
        49.900          39.8004
 126906563.947 7  98888185.29243  24149511.040                    24149508.3254
        42.500          22.5004
 15  7 10  3 10 15.0000000  0 10G07G09G28G30G05G06G02G23G10G13
 107736313.016 8  83950382.65047  20501524.978                    20501520.2474
        48.300          42.9004
 115970331.636 8  90366523.80646  22068407.429                    22068405.5984
        48.700          36.6004
 123352224.772 7  96118618.44044  23473142.823                    23473138.6274
        44.100          25.3004
 107172431.971 8  83511013.76647  20394221.506                    20394219.5094
        50.000          43.9004
 114610930.897 7  89307209.82846  21809728.251                    21809723.7524
        46.900          37.4004
 132200995.400 6 103013780.58643  25157009.587                    25157010.4004
        39.200          20.1004
 124016798.581 7  96636450.22044  23599610.426                    23599604.2724
        43.800          24.0004
 130578327.350 5 101749332.41842  24848231.273                    24848226.5924
        35.200          16.9004
 110337950.604 8  85977623.66246  20996608.362                    20996604.8044
        49.900          39.7004
 126860351.018 7  98852175.23043  24140716.816                    24140714.1184
        42.900          22.5004
 15  7 10  3 10 30.0000000  0 10G07G09G28G30G05G06G02G23G10G13
 107752639.542 8  83963104.60447  20504631.860                    20504627.4174
        48.400          42.6004
 116005397.388 8  90393847.73446  22075080.261                    22075078.5784
        48.300          36.3004
 123301906.120 7  96079409.10244  23463567.526                    23463563.4034
        43.600          25.7004
 107158106.978 8  83499851.42947  20391495.160                    20391493.7624
        50.500          43.7004
 114581805.910 7  89284515.03546  21804186.356                    21804183.0154
        47.500          39.0004
 132249850.912 6 103051849.80443  25166305.803                    25166307.7524
        37.000          19.6004
 124049064.428 7  96661592.41944  23605751.175                    23605743.9364
        43.600          26.6004
 130624119.899 5 101785014.80143  24856943.007                    24856939.7384
        34.100          18.3004
 110370497.668 8  86002985.00146  21002801.442                    21002798.1764
        50.000          39.6004
 126814150.504 7  98816174.84743  24131925.591                    24131922.5374
        42.900          22.9004
 15  7 10  3 10 45.0000000  0 10G07G09G28G30G05G06G02G23G10G13
 107769061.844 8  83975901.19447  20507756.580                    20507752.6034
        48.400          42.8004
 116040521.254 7  90421216.93845  22081763.915                    22081762.2484
        47.600          35.6004
 123251625.543 7  96040229.42344  23453999.522                    23453995.3564
        45.200          25.6004
 107143896.814 8  83488778.56847  20388791.135                    20388789.2554
        50.100          44.0004
 114552797.332 7  89261910.94446  21798666.766                    21798663.4024
        47.400          39.5004
 132298691.203 6 103089907.12543  25175598.998                    25175602.2544
        36.800          18.6004
 124081407.237 7  96686794.56644  23611905.356                    23611899.1014
        43.600          26.0004
 130669938.128 5 101820717.24942  24865660.664                    24865658.8874
        33.500          17.8004
 110403164.152 8  86028439.37346  21009017.592                    21009014.4904
        49.600          39.8004
 126767961.081 7  98780183.09243  24123135.818                    24123132.8784
        43.200          22.5004
 15  7 10  3 11  0.0000000  0 10G07G09G28G30G05G06G02G23G10G13
 107785579.680 8  83988772.21847  20510899.733                    20510895.6954
        48.600          42.6004
 116075703.018 7  90448631.26045  22088458.863                    22088457.1264
        47.100          35.7004
 123201383.025 7  96001079.42244  23444438.974                    23444434.6304
        44.700          25.3004
 107129801.325 8  83477795.07547  20386108.689                    20386107.2484
        50.000          43.2004
 114523905.273 8  89239397.64746  21793169.115                    21793165.0814
        48.100          39.5004
 132347515.806 6 103127952.28143  25184890.108                    25184892.4074
        36.500          19.6004
 124113826.406 7  96712056.23344  23618074.584                    23618068.5864
        42.600          25.9004
 130715769.70115 101856439.42152  24874383.903                    24874382.8534
        31.600          16.9004
 110435949.699 8  86053986.54046  21015256.584                    21015253.4284
        49.600          39.5004
 126721782.900 7  98744200.12443  24114348.681                    24114344.4714
        43.300          22.2004
 15  7 10  3 11 15.0000000  0 10G07G09G28G30G05G06G02G23G10G13
 107802193.184 8  84001717.79247  20514061.317                    20514057.4034
        48.300          42.9004
 116110942.934 7  90476090.90345  22095164.407                    22095163.0934
        46.800          35.9004
 123151179.339 7  95961959.66644  23434885.072                    23434881.0834
        44.300          25.9004
 107115820.790 8  83466901.14447  20383448.147                    20383446.5754
        49.400          43.1004
 114495130.358 7  89216975.62746  21787692.769                    21787688.5974
        46.700          38.2004
 132396324.596 6 103165985.09242  25194178.711                    25194180.2474
        36.400          17.8004
 124146321.980 6  96737377.45544  23624258.138                    23624252.1214
        41.600          26.5004
 130761638.970 5 101892181.56542  24883115.480                    24883112.6254
        35.200          17.8004
 110468854.350 8  86079626.51146  21021518.087                    21021514.4824
        49.100          39.0004
 126675616.493 7  98708226.31943  24105562.878                    24105559.1174
        43.300          21.5004
 15  7 10  3 11 30.0000000  0 10G07G09G28G30G05G06G02G23G10G13
 107818899.625 8  84014735.78647  20517240.880                    20517236.6804
        48.800          42.9004
 116146238.440 8  90503593.86246  22101881.523                    22101879.6904
        48.700          36.6004
 123101012.468 7  95922868.60244  23425339.187                    23425334.4724
        45.000          24.9004
 107101952.730 8  83456094.85847  20380809.467                    20380807.6924
        49.500          42.4004
 114466470.336 8  89194643.14746  21782239.073                    21782234.2234
        48.100          37.7004
 132445114.827 5 103204003.49042  25203462.928                    25203464.8574
        35.400          16.9004
 124178891.253 6  96762756.06844  23630455.227                    23630450.5394
        41.500          26.2004
 130807531.335 5 101927941.75743  24891847.493                    24891844.2424
        35.400          19.3004
 110501875.403 7  86105357.18946  21027802.293                    21027798.2954
        47.700          39.4004
 126629459.304 7  98672259.69843  24096779.526                    24096774.9384
        43.000          21.7004
 15  7 10  3 11 45.0000000  0 10G07G09G28G30G05G06G02G23G10G13
 107835700.305 8  84027827.20447  20520437.514                    20520433.3734
        48.600          42.5004
 116181590.880 7  90531141.19246  22108609.092                    22108607.5264
        47.700          36.3004
 123050884.146 7  95883807.56044  23415799.738                    23415795.4164
        44.200          26.0004
 107088198.530 8  83445377.29447  20378192.049                    20378190.3084
        49.500          43.1004
 114437926.800 7  89172401.43246  21776807.613                    21776802.4224
        47.200          38.0004
 132493887.462 5 103242008.10643  25212744.166                    25212745.3514
        33.800          18.6004
 124211535.074 6  96788192.80544  23636667.464                    23636661.7304
        40.100          25.5004
 130853448.037 5 101963720.89742  24900585.724                    24900583.0284
        33.400          16.9004
 110535014.054 8  86131179.49946  21034108.238                    21034104.7254
        48.500          39.2004
 126583312.779 7  98636301.35843  24087998.224                    24087993.2304
        42.300          20.4004
 15  7 10  3 12  0.0000000  0  9G07G09G28G30G05G02G23G10G13
 107852594.521 8  84040991.52047  20523652.610                    20523647.8154
        48.700          42.8004
 116216999.755 7  90558732.48545  22115346.912                    22115346.1274
        47.300          35.7004
 123000794.118 7  95844776.37044  23406268.128                    23406263.9074
        44.600          26.1004
 107074557.703 8  83434748.06947  20375596.579                    20375594.2494
        49.900          43.2004
 114409499.531 7  89150250.29446  21771398.388                    21771393.7334
        47.700          38.7004
 124244252.630 6  96813686.99544  23642893.770                    23642888.1054
        39.700          26.3004
 130899388.640 6 101999518.63543  24909328.796                    24909325.5474
        36.000          18.6004
 110568269.515 8  86157092.83346  21040436.628                    21040432.8614
        49.300          39.3004
 126537176.674 7  98600351.15443  24079219.575                    24079213.1204
        42.700          20.1004
 15  7 10  3 12 15.0000000  0  9G07G09G28G30G05G02G23G10G13
 107869581.033 8  84054227.75347  20526885.045                    20526880.2744
        48.600          42.6004
 116252464.043 7  90586366.95945  22122095.547                    22122094.9844
        46.300          35.7004
 122950741.768 7  95805774.52744  23396743.786                    23396739.4834
        45.200          25.3004
 107061029.304 8  83424206.44947  20373022.196                    20373019.7324
        49.900          43.6004
 114381187.999 7  89128189.34246  21766010.890                    21766006.9504
        47.900          38.8004
 124277042.568 6  96839237.56344  23649133.916                    23649128.4564
        40.500          27.1004
 130945352.143 6 102035334.23143  24918075.928                    24918072.4824
        36.800          19.3004
 110601640.737 8  86183096.36046  21046786.865                    21046783.4694
        49.300          39.1004
 126491049.967 7  98564408.30243  24070441.075                    24070434.2954
        42.300          19.0004
 15  7 10  3 12 30.0000000  0  9G07G09G28G30G05G02G23G10G13
 107886662.618 8  84067538.06147  20530135.564                    20530131.4774
        48.300          42.0004
 116287986.494 7  90614046.74146  22128855.706                    22128854.8134
        47.600          36.4004
 122900730.421 7  95766804.64544  23387226.838                    23387222.8484
        45.500          26.0004
 107047616.158 8  83413754.64547  20370469.628                    20370467.1474
        50.000          44.1004
 114352995.145 8  89106220.87246  21760645.879                    21760642.5844
        48.300          39.0004
 124309907.509 6  96864846.58544  23655387.356                    23655381.8414
        41.600          24.9004
 130991341.153 6 102071169.70343  24926826.984                    24926823.9454
        36.000          18.3004
 110635130.344 8  86209192.13946  21053159.452                    21053156.3184
        49.300          39.3004
 126444935.731 7  98528475.13343  24061665.920                    24061659.7224
        42.600          19.6004
 15  7 10  3 12 45.0000000  0  9G07G09G28G30G05G02G23G10G13
 107903836.841 8  84080920.55947  20533403.994                    20533399.3514
        48.400          42.7004
 116323564.876 7  90641770.11946  22135625.488                    22135624.9654
        47.800          36.4004
 122850758.087 7  95727865.17244  23377717.268                    23377713.5424
        45.300          26.9004
 107034316.045 8  83403390.91147  20367938.735                    20367936.5954
        50.000          43.7004
 114324919.066 7  89084343.42746  21755302.864                    21755299.3324
        46.300          38.8004
 124342844.959 6  96890512.10544  23661655.310                    23661649.3924
        39.800          24.8004
 131037353.582 6 102107023.41243  24935583.409                    24935579.9254
        36.900          18.3004
 110668735.796 8  86235378.19346  21059554.669                    21059551.0614
        49.800          38.9004
 126398831.731 7  98492549.94343  24052892.754                    24052886.2294
        43.100          20.4004
 15  7 10  3 13  0.0000000  0  9G07G09G28G30G05G02G23G10G13
 107921104.582 8  84094375.92847  20536689.552                    20536685.2024
        48.600          42.9004
 116359200.100 7  90669537.79446  22142407.129                    22142406.0904
        47.900          36.5004
 122800826.130 7  95688957.15344  23368215.562                    23368211.7824
        46.400          26.3004
 107021129.917 8  83393115.99347  20365429.569                    20365427.4444
        49.700          43.7004
 114296960.794 7  89062557.77646  21749982.174                    21749978.4744
        46.500          37.8004
 124375855.485 6  96916234.55144  23667936.838                    23667930.8494
        39.400          25.6004
 131083390.123 6 102142895.98043  24944343.767                    24944340.6824
        36.000          21.3004
 110702457.919 8  86261655.15746  21065971.584                    21065968.7994
        49.700          39.3004
 126352739.127 7  98456633.64543  24044121.573                    24044116.0694
        42.800          21.3004
 15  7 10  3 13 15.0000000  0  9G07G09G28G30G05G02G23G10G13
 107938465.674 8  84107904.04447  20539993.413                    20539988.7914
        48.800          43.6004
 116394892.147 7  90697349.74046  22149198.832                    22149197.6204
        47.500          36.3004
 122750934.958 7  95650080.91144  23358722.055                    23358718.0294
        45.700          26.0004
 107008057.813 8  83382929.93647  20362941.958                    20362939.7334
        49.800          43.9004
 114269120.974 8  89040864.39946  21744684.746                    21744679.6614
        48.100          38.0004
 124408938.815 6  96942013.77244  23674232.417                    23674226.9934
        39.800          26.3004
 131129450.867 6 102178787.37043  24953108.514                    24953105.6724
        38.200          22.0004
 110736296.552 8  86288022.90446  21072411.017                    21072407.5024
        49.900          39.4004
 126306657.957 7  98420726.26543  24035352.373                    24035347.7284
        43.400          21.5004
 15  7 10  3 13 30.0000000  0  9G07G09G28G30G05G02G23G10G13
 107955921.333 8  84121505.83747  20543315.165                    20543311.1024
        48.400          43.1004
 116430642.391 7  90725207.03946  22156001.745                    22156000.8564
        47.900          36.6004
 122701086.361 7  95611237.84744  23349235.419                    23349232.2604
        45.300          27.3004
 106995101.155 8  83372833.83647  20360476.549                    20360474.2144
        50.200          43.8004
 114241401.171 8  89019264.53146  21739409.913                    21739405.1294
        48.000          38.2004
 124442095.912 6  96967850.45044  23680541.913                    23680536.3134
        40.400          27.5004
 131175537.182 6 102214698.65943  24961879.168                    24961877.3324
        39.400          21.5004
 110770252.881 8  86314482.36646  21078872.764                    21078869.1684
        49.900          39.4004
 126260589.686 7  98384828.92643  24026586.043                    24026581.2444
        43.700          22.6004
 15  7 10  3 13 45.0000000  0  9G07G09G28G30G05G02G23G10G13
 107973469.250 8  84135179.52947  20546654.469                    20546650.0904
        48.700          43.2004
 116466448.757 7  90753108.08046  22162815.595                    22162814.2194
        47.300          36.5004
 122651278.515 7  95572426.52944  23339757.608                    23339754.0984
        45.500          25.9004
 106982257.872 8  83362826.08047  20358032.235                    20358030.2384
        49.200          43.4004
 114213799.590 8  88997756.78846  21734157.586                    21734153.8574
        48.500          38.9004
 124475324.451 6  96993742.77044  23686865.004                    23686859.8104
        40.000          26.7004
 131221646.951 6 102250628.21443  24970653.867                    24970651.0594
        39.900          22.6004
 110804324.587 8  86341031.73146  21085356.374                    21085352.8624
        50.000          39.6004
 126214532.604 7  98348940.30543  24017821.810                    24017817.1554
        43.400          22.6004
 15  7 10  3 14  0.0000000  0  9G07G09G28G30G05G02G23G10G13
 107991109.533 8  84148925.19047  20550011.008                    20550007.4314
        49.000          42.9004
 116502311.339 8  90781052.91146  22169640.461                    22169638.6134
        48.100          36.2004
 122601512.003 7  95533647.41944  23330287.050                    23330284.1274
        44.000          27.2004
 106969528.134 8  83352906.80647  20355609.758                    20355608.2714
        49.300          43.2004
 114186316.489 7  88976341.38946  21728927.056                    21728924.5244
        47.300          39.2004
 124508624.180 6  97019690.57144  23693201.977                    23693196.1704
        39.600          25.3004
 131267780.281 6 102286576.16543  24979432.092                    24979430.0804
        40.100          22.6004
 110838511.665 8  86367671.00346  21091862.292                    21091858.4774
        50.000          39.5004
 126168486.875 7  98313060.54543  24009058.973                    24009055.7344
        43.100          23.2004
 15  7 10  3 14 15.0000000  0  9G07G09G28G30G05G02G23G10G13
 108008842.442 8  84162743.02547  20553385.587                    20553381.5464
        48.800          42.5004
 116538230.372 8  90809041.73646  22176475.064                    22176473.9774
        48.100          36.3004
 122551787.578 7  95494901.13544  23320824.869                    23320821.4084
        43.700          25.0004
 106956912.214 8  83343076.21347  20353209.188                    20353207.3724
        49.100          43.6004
 114158952.478 7  88955018.80946  21723719.649                    21723717.8034
        46.500          38.8004
 124541995.066 6  97045693.87844  23699552.245                    23699546.4974
        39.200          26.5004
 131313937.381 6 102322542.65743  24988215.857                    24988213.5114
        40.300          22.3004
 110872814.154 8  86394400.19146  21098389.704                    21098386.1324
        49.900          38.8004
 126122452.901 7  98277189.93543  24000299.659                    24000295.1174
        43.100          22.2004
 15  7 10  3 14 30.0000000  0  9G07G09G28G30G05G02G23G10G13
 108026667.234 8  84176632.46447  20556777.767                    20556773.2664
        48.400          42.7004
 116574205.327 7  90837074.14246  22183321.045                    22183319.6734
        47.800          36.7004
 122502105.145 7  95456187.53344  23311370.852                    23311367.1094
        44.200          27.0004
 106944409.650 8  83333333.94347  20350829.912                    20350828.2844
        49.200          43.9004
 114131707.596 8  88933789.05146  21718535.738                    21718532.2674
        48.600          39.7004
 124575436.335 6  97071751.99944  23705915.683                    23705910.1324
        40.200          26.8004
 131360117.763 6 102358527.23743  24997003.485                    24997001.4314
        40.800          22.2004
 110907231.276 8  86421218.71446  21104938.775                    21104935.2634
        49.400          38.3004
 126076430.279 7  98241328.16043  23991541.552                    23991537.8314
        42.700          22.5004
 15  7 10  3 14 45.0000000  0  9G07G09G28G30G05G02G23G10G13
 108044584.812 8  84190594.19947  20560187.404                    20560183.0724
        49.300          42.5004
 116610237.279 7  90865150.95246  22190177.808                    22190176.6874
        47.200          36.7004
 122452466.120 7  95417507.77044  23301924.785                    23301921.5084
        43.200          26.8004
 106932021.535 8  83323680.86347  20348472.418                    20348470.4694
        49.600          43.5004
 114104583.114 8  88912653.07446  21713374.478                    21713369.2294
        48.400          39.3004
 124608948.741 6  97097865.53844  23712293.333                    23712286.8144
        40.400          25.3004
 131406322.481 6 102394530.83943  25005796.315                    25005794.0064
        41.700          22.9004
 110941764.083 8  86448127.38346  21111510.197                    21111506.4314
        49.300          38.9004
 126030420.248 7  98205476.20043  23982786.366                    23982781.7174
        42.500          22.8004
 15  7 10  3 15  0.0000000  0  9G07G09G28G30G05G02G23G10G13
 108062592.962 8  84204626.50747  20563614.177                    20563609.7614
        48.900          42.1004
 116646324.053 8  90893270.48946  22197045.588                    22197043.1684
        48.700          36.2004
 122402868.651 7  95378860.40044  23292486.857                    23292483.6234
        43.100          26.7004
 106919745.727 8  83314115.29047  20346136.512                    20346134.9594
        50.500          44.0004
 114077577.196 8  88891609.47446  21708234.907                    21708229.1614
        48.900          38.2004
 124642529.775 6  97124032.56344  23718683.123                    23718677.4284
        39.200          25.6004
 131452549.347 7 102430551.67143  25014593.253                    25014590.7334
        42.700          22.5004
 110976410.189 8  86475124.32946  21118103.360                    21118099.4914
        49.900          38.3004
 125984420.723 7  98169632.44343  23974033.325                    23974028.6094
        43.000          22.6004
 15  7 10  3 15 15.0000000  0  9G07G09G28G30G05G02G23G10G13
 108080693.398 8  84218730.72647  20567058.261                    20567054.0514
        49.900          42.4004
 116682467.593 8  90921434.25346  22203922.565                    22203921.0784
        48.300          36.8004
 122353315.128 7  95340247.24744  23283056.989                    23283052.9384
        43.200          25.4004
 106907584.216 8  83304638.78047  20343822.264                    20343820.4944
        51.200          43.9004
 114050691.903 7  88870659.87946  21703118.570                    21703113.3624
        46.600          37.4004
 124676181.242 6  97150254.43844  23725086.905                    23725081.4114
        39.800          25.1004
 131498800.236 6 102466591.23043  25023393.688                    25023392.0034
        41.300          23.0004
 111011171.380 8  86502210.95946  21124718.249                    21124714.6854
        49.600          38.2004
 125938433.827 7  98133798.51043  23965281.556                    23965276.7134
        43.500          21.8004
 15  7 10  3 15 30.0000000  0  9G07G09G28G30G05G02G23G10G13
 108098885.914 8  84232906.70447  20570520.487                    20570516.0294
        50.100          42.6004
 116718667.898 7  90949642.25045  22210811.414                    22210809.8524
        47.800          35.3004
 122303805.980 7  95301668.71344  23273635.145                    23273631.6824
        43.200          26.6004
 106895537.037 8  83295251.36647  20341529.870                    20341528.2124
        51.100          44.4004
 114023927.593 7  88849804.59146  21698025.411                    21698021.9954
        46.700          38.9004
 124709902.634 6  97176530.82344  23731502.975                    23731498.9604
        39.800          25.4004
 131545075.115 6 102502649.51043  25032199.302                    25032197.6724
        40.300          22.6004
 111046047.469 8  86529387.11146  21131354.602                    21131351.5144
        49.200          38.4004
 125892459.591 7  98097974.43943  23956533.440                    23956527.7864
        43.000          21.8004
 15  7 10  3 15 45.0000000  0  9G07G09G28G30G05G02G23G10G13
 108117169.461 8  84247153.60147  20573999.919                    20573995.3774
        50.000          42.0004
 116754923.915 8  90977893.65946  22217710.759                    22217709.3384
        48.000          36.6004
 122254340.514 7  95263124.20044  23264223.278                    23264218.9404
        43.900          27.5004
 106883603.151 8  83285952.22747  20339259.153                    20339257.1144
        51.500          43.9004
 113997283.586 8  88829043.03646  21692955.832                    21692953.7554
        48.500          40.0004
 124743692.704 6  97202860.74244  23737934.065                    23737928.9294
        38.600          25.3004
 131591373.068 6 102538725.72943  25041009.804                    25041007.6874
        41.100          22.5004
 111081037.164 8  86556651.80346  21138012.695                    21138009.2714
        49.200          38.5004
 125846497.274 7  98062159.68143  23947786.856                    23947780.5234
        42.300          21.1004
 15  7 10  3 16  0.0000000  0  8G07G09G28G30G05G02G10G13
 108135549.193 8  84261475.45947  20577497.629                    20577492.5584
        48.800          42.5004
 116791240.874 8  91006192.57546  22224622.055                    22224619.9634
        48.800          36.0004
 122204924.460 7  95224618.19844  23254819.474                    23254815.2634
        45.000          26.9004
 106871787.898 8  83276745.52547  20337010.624                    20337008.4224
        50.900          43.8004
 113970765.446 8  88808379.55746  21687909.948                    21687907.0024
        50.100          40.8004
 124777556.337 6  97229247.96144  23744378.148                    23744373.0044
        39.200          25.6004
 111116145.564 8  86584008.96846  21144694.138                    21144690.6264
        49.900          38.9004
 125800552.322 7  98026358.44643  23939042.810                    23939036.9834
        42.100          21.1004
 15  7 10  3 16 15.0000000  0  8G07G09G28G30G05G02G10G13
 108154015.215 8  84275864.56447  20581011.227                    20581006.5874
        50.200          42.5004
 116827609.081 7  91034531.41046  22231542.932                    22231541.4034
        46.700          36.3004
 122155548.427 7  95186143.36144  23245423.345                    23245419.0044
        44.900          26.8004
 106860081.588 8  83267623.71447  20334783.140                    20334780.9414
        50.900          43.8004
 113944363.801 8  88787806.83446  21682886.183                    21682882.2174
        49.300          39.4004
 124811483.592 6  97255684.74744  23750834.662                    23750828.8604
        39.400          24.8004
 111151362.832 8  86611450.98146  21151396.003                    21151392.5804
        48.600          39.0004
 125754614.895 6  97990563.04043  23930301.417                    23930295.3454
        41.300          20.1004
 15  7 10  3 16 30.0000000  0  8G07G09G28G30G05G02G10G13
 108172572.240 8  84290324.56347  20584542.436                    20584538.3524
        49.500          42.4004
 116864033.279 7  91062913.86446  22238474.183                    22238473.0204
        46.400          36.5004
 122106217.604 7  95147703.74844  23236036.662                    23236032.5084
        45.400          27.8004
 106848488.993 8  83258590.51847  20332577.102                    20332575.2054
        50.200          43.2004
 113918083.615 7  88767328.75246  21677884.371                    21677880.1154
        46.400          38.0004
 124845478.855 6  97282174.55444  23757303.023                    23757297.0974
        38.700          25.8004
 111186693.497 8  86638981.34346  21158119.120                    21158115.1824
        48.800          38.9004
 125708690.416 7  97954777.74843  23921561.568                    23921556.6974
        42.100          20.1004
 15  7 10  3 16 45.0000000  0  8G07G09G28G30G05G02G10G13
 108191219.899 8  84304855.19647  20588091.321                    20588086.8474
        50.800          42.3004
 116900513.204 8  91091339.74346  22245416.221                    22245415.2074
        48.800          36.9004
 122056932.075 7  95109299.45544  23226657.004                    23226653.7044
        44.400          28.4004
 106837009.878 8  83249645.74347  20330392.458                    20330390.8324
        50.800          43.5004
 113891924.938 7  88746945.37746  21672906.384                    21672900.7854
        45.800          37.0004
 124879541.502 6  97308716.86844  23763785.415                    23763779.2094
        40.400          25.1004
 111222137.077 8  86666599.70546  21164863.916                    21164860.1794
        50.000          38.9004
 125662778.473 6  97919002.23043  23912825.574                    23912820.1174
        40.700          21.3004
 15  7 10  3 17  0.0000000  0  8G07G09G28G30G05G02G10G13
 108209958.114 8  84319456.38947  20591657.233                    20591652.7564
        49.800          42.7004
 116937048.959 8  91119809.10846  22252368.777                    22252367.8694
        48.200          36.8004
 122007692.528 7  95070930.98044  23217287.256                    23217283.1074
        44.400          28.0004
 106825644.386 8  83240789.51347  20328229.909                    20328228.3404
        50.800          43.5004
 113865888.222 7  88726657.01846  21667951.445                    21667946.8914
        46.800          38.3004
 124913671.450 6  97335311.62644  23770279.460                    23770273.8204
        40.800          26.4004
 111257693.468 8  86694305.97046  21171629.943                    21171626.3054
        50.300          39.2004
 125616879.391 6  97883236.71443  23904090.906                    23904085.9024
        41.700          20.4004
 15  7 10  3 17 15.0000000  0  8G07G09G28G30G05G02G10G13
 108228786.288 8  84334127.67347  20595239.722                    20595235.6824
        48.900          42.3004
 116973640.134 8  91148321.67046  22259331.758                    22259330.8304
        48.200          37.2004
 121958498.611 7  95032598.05044  23207925.909                    23207921.8904
        44.900          27.6004
 106814392.146 8  83232021.53447  20326088.535                    20326086.6884
        49.800          43.5004
 113839973.267 8  88706463.52546  21663021.085                    21663017.2434
        49.100          40.7004
 124947868.003 6  97361958.31044  23776788.091                    23776781.5844
        40.400          25.7004
 111293362.109 8  86722099.70546  21178417.306                    21178413.5654
        50.600          38.6004
 125570992.795 6  97847480.92543  23895359.756                    23895354.1584
        41.700          21.7004
 15  7 10  3 17 30.0000000  0  8G07G09G28G30G05G02G10G13
 108247705.549 8  84348869.93647  20598840.275                    20598835.7864
        49.400          42.9004
 117010287.869 8  91176878.31646  22266305.610                    22266304.6354
        48.400          36.6004
 121909352.095 7  94994302.05944  23198573.514                    23198569.7554
        45.800          28.5004
 106803254.310 8  83223342.70247  20323968.905                    20323967.1724
        49.900          43.6004
 113814181.630 8  88686366.13146  21658113.893                    21658110.9274
        49.300          41.3004
 124982132.181 6  97388657.62244  23783307.949                    23783301.8994
        39.900          24.2004
 111329144.054 8  86749981.72846  21185226.454                    21185222.4454
        49.900          38.2004
 125525120.073 6  97811735.94743  23886630.639                    23886625.2254
        41.900          22.2004
 15  7 10  3 17 45.0000000  0  8G07G09G28G30G05G02G10G13
 108266714.354 8  84363681.99047  20602457.049                    20602452.7824
        50.200          42.6004
 117046990.727 8  91205477.91446  22273289.910                    22273289.0164
        48.300          36.7004
 121860252.014 7  94956042.25844  23189230.143                    23189226.4084
        45.000          28.0004
 106792229.545 8  83214751.97047  20321871.116                    20321869.0044
        49.700          43.8004
 113788512.177 8  88666363.96746  21653228.203                    21653225.5274
        48.000          40.6004
 125016461.931 6  97415408.05343  23789839.979                    23789833.6024
        39.400          22.6004
 111365037.749 8  86777950.82446  21192056.538                    21192053.3084
        49.200          37.9004
 125479259.984 7  97776000.82743  23877903.469                    23877898.2454
        42.300          22.5004
 15  7 10  3 18  0.0000000  0  8G07G09G28G30G05G02G10G13
 108285813.023 8  84378564.05147  20606091.885                    20606087.5954
        49.700          42.5004
 117083749.256 8  91234120.88546  22280285.165                    22280283.9664
        48.500          37.0004
 121811199.217 7  94917819.28844  23179895.776                    23179892.0334
        45.700          28.1004
 106781318.326 8  83206249.71647  20319794.800                    20319792.8234
        50.700          44.0004
 113762965.728 7  88646457.66446  21648366.524                    21648363.7324
        46.700          39.2004
 125050857.560 6  97442209.81544  23796385.569                    23796380.1284
        39.300          24.0004
 111401043.480 8  86806007.22246  21198908.389                    21198904.7364
        49.400          37.5004
 125433413.192 7  97740276.07743  23869179.425                    23869174.7234
        42.500          22.0004
 15  7 10  3 18 15.0000000  0  8G07G09G28G30G05G02G10G13
 108305001.266 8  84393515.92047  20609743.481                    20609738.9814
        50.100          42.4004
 117120563.344 8  91262807.14946  22287290.435                    22287288.7984
        48.000          36.9004
 121762193.976 7  94879633.40444  23170570.153                    23170566.4644
        45.900          27.9004
 106770520.605 8  83197835.90147  20317740.269                    20317738.6544
        51.400          44.0004
 113737542.431 7  88626647.32646  21643528.252                    21643523.6044
        45.900          38.1004
 125085318.666 6  97469062.58543  23802943.622                    23802938.6074
        39.600          23.3004
 111437160.914 8  86834150.65646  21205781.169                    21205777.6034
        49.400          38.2004
 125387579.651 7  97704561.62443  23860457.529                    23860452.7364
        43.500          22.6004
 15  7 10  3 18 30.0000000  0  8G07G09G28G30G05G02G10G13
 108324278.000 8  84408536.73647  20613411.302                    20613406.9324
        49.800          42.5004
 117157431.837 7  91291535.79845  22294306.048                    22294304.7184
        46.900          35.9004
 121713235.640 7  94841484.06444  23161253.759                    23161250.1804
        45.600          27.3004
 106759835.315 8  83189509.69247  20315706.772                    20315704.9774
        50.700          44.0004
 113712241.599 7  88606932.37246  21638714.203                    21638707.7184
        47.300          38.1004
 125119843.833 6  97495965.30243  23809513.897                    23809508.5434
        39.100          22.8004
 111473388.682 8  86862380.07946  21212675.476                    21212672.0294
        49.500          38.4004
 125341758.397 6  97668856.75143  23851737.965                    23851733.4274
        41.700          22.5004
 15  7 10  3 18 45.0000000  0  8G07G09G28G30G05G02G10G13
 108343644.178 8  84423627.25247  20617096.492                    20617092.3824
        48.400          42.4004
 117194355.985 7  91320307.83045  22301332.626                    22301331.2764
        47.500          35.7004
 121664325.716 7  94803372.43744  23151946.725                    23151943.0774
        46.100          27.6004
 106749263.704 8  83181272.06247  20313695.412                    20313693.2814
        51.000          44.4004
 113687064.694 8  88587313.96646  21633923.680                    21633917.7224
        48.900          39.0004
 125154434.033 6  97522918.66843  23816096.259                    23816089.8754
        39.200          22.6004
 111509727.859 8  86890696.30146  21219590.366                    21219587.0354
        49.600          38.5004
 125295950.920 7  97633162.63643  23843021.204                    23843016.6114
        42.600          22.5004
 15  7 10  3 19  0.0000000  0  8G07G09G28G30G05G02G10G13
 108363099.469 8  84438787.20047  20620798.652                    20620794.6844
        48.700          42.1004
 117231335.513 7  91349123.00945  22308369.640                    22308368.6194
        47.000          35.9004
 121615464.383 7  94765298.66644  23142648.663                    23142644.8114
        46.700          28.0004
 106738805.511 8  83173122.81747  20311705.141                    20311703.2874
        50.600          43.8004
 113662011.649 8  88567792.07746  21629156.190                    21629152.0434
        48.800          39.8004
 125189088.637 6  97549922.23143  23822688.513                    23822682.4344
        39.400          22.9004
 111546178.017 8  86919099.00546  21226526.710                    21226523.5624
        49.500          38.6004
 125250157.025 6  97597479.09843  23834307.000                    23834302.3294
        41.400          22.6004
 15  7 10  3 19 15.0000000  0  8G07G09G28G30G05G02G10G13
 108382644.413 8  84454017.01347  20624518.161                    20624514.3574
        48.800          42.2004
 117268371.044 7  91377981.83946  22315417.335                    22315415.8704
        47.900          36.6004
 121566652.636 7  94727263.54744  23133359.898                    23133356.2404
        44.600          28.0004
 106728461.361 8  83165062.44547  20309736.505                    20309734.7254
        50.400          43.8004
 113637083.358 7  88548367.44146  21624411.972                    21624409.2694
        47.000          40.1004
 125223808.088 6  97576976.30843  23829297.644                    23829291.0904
        39.200          22.2004
 111582739.648 8  86947588.57046  21233484.161                    21233480.6314
        49.900          38.6004
 125204377.466 6  97561806.72643  23825594.698                    23825590.4984
        41.800          22.3004
 15  7 10  3 19 30.0000000  0  8G07G09G28G30G05G02G10G13
 108402278.569 8  84469316.33647  20628254.449                    20628249.8884
        48.900          42.2004
 117305462.096 8  91406883.91745  22322475.897                    22322473.9884
        48.800          35.9004
 121517890.523 7  94689267.10944  23124080.744                    23124077.5024
        45.200          28.5004
 106718230.919 8  83157090.65447  20307789.573                    20307788.0774
        51.300          43.6004
 113612279.764 7  88529039.99846  21619691.670                    21619689.7204
        45.500          39.7004
 125258591.436 6  97604080.22343  23835917.412                    23835910.7034
        40.400          22.8004
 111619412.053 8  86976164.44546  21240463.021                    21240459.3174
        50.000          39.3004
 125158612.225 6  97526145.48543  23816885.788                    23816881.6704
        40.600          22.2004
 15  7 10  3 19 45.0000000  0  8G07G09G28G30G05G02G10G13
 108422000.395 8  84484683.98146  20632007.242                    20632003.3344
        48.300          41.8004
 117342607.498 7  91435828.35645  22329544.036                    22329542.5974
        47.600          35.7004
 121469177.271 7  94651308.71244  23114810.804                    23114807.7674
        44.500          28.6004
 106708112.940 8  83149206.50947  20305864.369                    20305862.5634
        50.800          44.2004
 113587599.827 7  88509808.90146  21614995.326                    21614992.5714
        46.500          38.8004
 125293437.288 6  97631232.85243  23842547.482                    23842541.3084
        40.100          22.6004
 111656193.843 8  87004825.56646  21247462.089                    21247458.5154
        49.000          39.2004
 125112859.880 6  97490494.34043  23808179.303                    23808175.4824
        41.400          22.5004
 15  7 10  3 20  0.0000000  0  8G07G09G28G30G05G02G10G13
 108441810.097 8  84500120.09946  20635776.505                    20635772.7384
        48.100          41.9004
 117379807.487 7  91464815.33045  22336622.660                    22336621.7064
        47.000          35.4004
 121420513.447 7  94613388.86244  23105550.568                    23105547.4024
        44.700          28.7004
 106698107.700 8  83141410.21547  20303960.298                    20303958.5044
        50.200          43.9004
 113563044.270 8  88490674.69046  21610323.300                    21610318.3544
        48.100          39.7004
 125328345.619 6  97658434.12843  23849190.016                    23849184.5904
        39.300          22.9004
 111693084.997 8  87033571.89646  21254482.493                    21254479.3194
        50.300          39.0004
 125067121.014 6  97454853.66343  23799476.159                    23799472.4274
        41.100          22.3004
 15  7 10  3 20 15.0000000  0  8G07G09G28G30G05G02G10G13
 108461707.144 8  84515624.27047  20639562.894                    20639558.9524
        48.400          42.1004
 117417061.723 7  91493844.56445  22343711.748                    22343710.7744
        47.100          35.0004
 121371899.146 7  94575507.58545  23096300.353                    23096296.3074
        45.400          30.1004
 106688214.852 8  83133701.49747  20302077.716                    20302076.1464
        50.000          43.8004
 113538612.992 8  88471637.29846  21605674.280                    21605668.1674
        48.300          38.9004
 125363315.841 6  97685683.62243  23855844.993                    23855839.1454
        38.800          23.8004
 111730085.105 8  87062403.12746  21261522.797                    21261519.7104
        49.600          38.1004
 125021395.386 7  97419223.32543  23790774.756                    23790770.6544
        42.000          22.2004
 15  7 10  3 20 30.0000000  0  8G07G09G28G30G05G02G10G13
 108481692.234 7  84531197.05346  20643366.332                    20643362.3524
        47.900          41.4004
 117454371.046 7  91522916.73146  22350812.036                    22350810.5124
        47.800          36.0004
 121323335.703 7  94537665.93644  23087058.437                    23087055.2354
        46.300          29.7004
 106678435.372 8  83126081.11947  20300216.975                    20300215.3984
        50.000          43.9004
 113514306.949 7  88452697.49146  21601048.849                    21601043.0384
        47.600          38.8004
 125398348.267 6  97712981.59844  23862511.022                    23862505.1364
        38.600          24.1004
 111767194.840 8  87091319.79146  21268584.862                    21268581.5264
        50.200          38.3004
 124975684.198 6  97383604.23243  23782075.611                    23782072.2234
        41.400          22.6004
 15  7 10  3 20 45.0000000  0  8G07G09G28G30G05G02G10G13
 108501766.226 8  84546839.10746  20647186.031                    20647182.0974
        48.100          41.2004
 117491736.333 7  91552032.50946  22357922.856                    22357921.4224
        47.800          36.6004
 121274824.278 7  94499864.82344  23077827.516                    23077823.9834
        46.800          29.9004
 106668770.091 8  83118549.72247  20298377.693                    20298376.1224
        51.300          43.8004
 113490127.543 8  88433856.38846  21596447.039                    21596443.3474
        48.200          38.4004
 125433443.611 6  97740328.60043  23869189.205                    23869184.0754
        37.200          22.5004
 111804414.835 8  87120322.37146  21275667.262                    21275663.7004
        50.000          38.3004
 124929988.313 7  97347997.07043  23773379.580                    23773376.4624
        42.100          21.5004
 15  7 10  3 21  0.0000000  0  8G07G09G28G30G05G02G10G13
 108521926.967 7  84562548.76246  20651022.259                    20651018.5434
        47.600          41.5004
 117529155.583 8  91581190.32146  22365042.687                    22365041.8844
        48.500          36.5004
 121226363.277 7  94462103.01044  23068605.420                    23068602.3244
        47.000          29.9004
 106659217.046 8  83111105.78947  20296559.709                    20296558.2894
        50.000          44.5004
 113466072.993 7  88415112.59746  21591869.324                    21591867.1684
        46.300          39.5004
 125468599.555 6  97767722.81643  23875879.354                    23875873.8684
        37.100          22.0004
 111841742.906 8  87149409.16046  21282771.051                    21282767.3204
        48.900          38.0004
 124884305.974 7  97312400.44743  23764687.424                    23764684.2454
        43.200          22.6004
 15  7 10  3 21 15.0000000  0  8G07G09G28G30G05G02G10G13
 108542175.176 7  84578326.56546  20654875.569                    20654871.9864
        47.900          41.5004
 117566629.595 7  91610390.82045  22372173.725                    22372173.3294
        47.300          35.3004
 121177953.952 7  94424381.46345  23059393.028                    23059390.0514
        46.700          30.4004
 106649777.094 8  83103749.98547  20294763.427                    20294761.9834
        50.900          44.2004
 113442144.439 7  88396466.98946  21587316.277                    21587313.9444
        47.400          40.6004
 125503816.556 6  97795164.62643  23882580.844                    23882575.4554
        38.400          22.3004
 111879179.720 8  87178580.69546  21289895.103                    21289891.7184
        49.400          38.0004
 124838638.216 7  97276815.18743  23755996.595                    23755993.3514
        42.900          23.0004
 15  7 10  3 21 30.0000000  0  8G07G09G28G30G05G02G10G13
 108562510.048 7  84594171.89846  20658745.196                    20658741.4334
        47.900          41.0004
 117604157.821 7  91639633.52645  22379315.250                    22379314.6254
        47.300          35.2004
 121129596.032 7  94386699.95045  23050191.483                    23050187.6404
        46.100          30.9004
 106640449.599 8  83096481.80247  20292988.548                    20292986.8464
        50.100          44.0004
 113418341.588 8  88377919.31846  21582786.998                    21582784.1374
        48.100          40.5004
 125539093.800 6  97822653.36843  23889293.800                    23889288.9334
        38.900          23.0004
 111916724.439 8  87207836.30046  21297039.094                    21297035.6714
        49.300          37.1004
 124792984.528 7  97241240.87143  23747309.649                    23747306.1884
        42.700          22.3004
 15  7 10  3 21 45.0000000  0  8G07G09G28G30G05G02G10G13
 108582931.912 8  84610085.02146  20662631.475                    20662627.4114
        48.000          41.5004
 117641740.601 7  91668918.78345  22386467.163                    22386466.4934
        45.800          35.8004
 121081290.265 7  94349059.10145  23040998.499                    23040995.2934
        46.300          30.2004
 106631235.048 8  83089301.62247  20291234.986                    20291233.2264
        50.500          44.1004
 113394665.178 8  88359470.15146  21578281.633                    21578276.8594
        48.500          39.5004
 125574431.488 6  97850189.19244  23896018.664                    23896014.0454
        38.900          25.1004
 111954377.294 8  87237176.16746  21304204.699                    21304201.0154
        48.600          37.4004
 124747345.492 7  97205678.00143  23738624.983                    23738620.8594
        43.400          22.6004
 15  7 10  3 22  0.0000000  0  8G07G09G28G30G05G02G10G13
 108603440.944 8  84626066.07446  20666534.188                    20666530.1724
        48.400          41.3004
 117679378.241 7  91698246.76746  22393630.095                    22393628.7154
        47.400          36.3004
 121033037.474 7  94311459.51944  23031816.844                    23031813.2504
        46.900          29.4004
 106622133.693 8  83082209.65047  20289503.115                    20289501.3274
        50.200          44.2004
 113371115.639 8  88341119.84046  21573799.970                    21573794.5644
        48.800          38.3004
 125609829.333 6  97877771.92044  23902754.779                    23902749.7014
        39.300          25.2004
 111992138.329 8  87266600.33846  21311389.803                    21311386.9064
        48.800          38.1004
 124701721.605 7  97170126.90943  23729943.422                    23729938.1054
        43.900          22.9004
 15  7 10  3 22 15.0000000  0  8G07G09G28G30G05G02G10G13
 108624036.159 7  84642114.27846  20670453.498                    20670449.1724
        47.800          41.3004
 117717069.883 8  91727616.83546  22400802.025                    22400800.9564
        48.200          36.4004
 120984837.232 7  94273900.90045  23022644.171                    23022641.0534
        46.200          30.6004
 106613144.755 8  83075205.28147  20287792.726                    20287790.9174
        50.200          44.8004
 113347692.496 7  88322868.03146  21569342.537                    21569337.5454
        46.600          38.2004
 125645286.492 6  97905400.86044  23909502.091                    23909497.6304
        38.100          24.2004
 112030006.530 8  87296108.01346  21318596.164                    21318593.1234
        49.600          38.1004
 124656112.084 7  97134587.03043  23721264.231                    23721258.6974
        44.400          23.8004
 15  7 10  3 22 30.0000000  0  8G07G09G28G30G05G02G10G13
 108644718.423 7  84658230.30546  20674388.847                    20674384.5684
        47.900          41.5004
 117754816.482 7  91757029.74245  22407985.567                    22407983.6884
        47.700          35.6004
 120936690.885 7  94236384.26545  23013482.449                    23013479.1554
        46.000          30.9004
 106604269.230 8  83068289.28447  20286103.857                    20286101.9024
        50.200          44.8004
 113324396.975 7  88304715.67146  21564909.376                    21564905.5054
        46.900          39.1004
 125680803.468 6  97933076.42244  23916261.338                    23916256.4164
        38.600          26.5004
 112067982.754 8  87325699.85046  21325823.281                    21325819.6774
        49.100          38.4004
 124610517.961 7  97099059.14743  23712587.635                    23712582.9774
        44.900          22.9004
 15  7 10  3 22 45.0000000  0  8G07G09G28G30G05G02G10G13
 108665486.994 7  84674413.59046  20678341.331                    20678337.2354
        47.600          41.1004
 117792617.457 7  91786484.99745  22415178.317                    22415176.6374
        45.800          35.8004
 120888598.074 7  94198909.35244  23004330.271                    23004326.6434
        45.300          29.4004
 106595506.413 8  83061461.10247  20284436.152                    20284434.2054
        50.000          44.4004
 113301228.728 7  88286662.50146  21560501.121                    21560497.8244
        47.600          39.8004
 125716379.172 6  97960797.72944  23923030.869                    23923025.9914
        39.400          25.3004
 112106066.144 8  87355375.19146  21333070.217                    21333066.8004
        49.400          38.1004
 124564939.023 7  97063543.08743  23703914.528                    23703909.0424
        44.600          22.3004
 15  7 10  3 23  0.0000000  0  8G07G09G28G30G05G02G10G13
 108686341.710 7  84690663.99846  20682309.587                    20682305.2434
        47.500          41.2004
 117830472.637 7  91815982.52445  22422381.979                    22422380.8014
        45.900          35.2004
 120840559.155 7  94161476.44944  22995189.126                    22995185.2374
        45.200          28.3004
 106586856.324 8  83054720.76647  20282789.941                    20282788.4454
        50.200          44.5004
 113278187.892 8  88268708.60046  21556116.681                    21556113.3624
        49.000          40.5004
 125752013.443 6  97988564.65944  23929811.143                    23929806.2404
        38.900          25.9004
 112144256.374 8  87385133.79246  21340337.488                    21340333.9614
        49.700          38.5004
 124519375.363 7  97028038.94143  23695243.902                    23695238.7514
        43.800          22.3004
 15  7 10  3 23 15.0000000  0  8G07G09G28G30G05G02G10G13
 108707281.642 8  84706980.81146  20686294.231                    20686290.2884
        48.000          41.8004
 117868381.364 7  91845521.73745  22429595.504                    22429594.1944
        44.300          35.1004
 120792573.940 7  94124085.36245  22986057.254                    22986053.7614
        45.600          30.5004
 106578318.239 8  83048067.71847  20281165.289                    20281163.6234
        50.300          44.4004
 113255274.076 7  88250853.67446  21551755.876                    21551752.9364
        47.700          40.1004
 125787705.160 6  98016376.37444  23936603.267                    23936597.6344
        39.200          25.8004
 112182552.445 8  87414974.86946  21347624.909                    21347621.5724
        49.500          38.6004
 124473826.376 7  96992546.21943  23686575.712                    23686571.2454
        42.700          23.4004
 15  7 10  3 23 30.0000000  0  8G07G09G28G30G05G02G10G13
 108728307.418 7  84723364.51546  20690295.330                    20690291.6264
        47.500          41.4004
 117906344.380 7  91875103.26745  22436819.447                    22436817.8684
        44.400          34.8004
 120744643.639 7  94086737.09544  22976936.378                    22976933.1824
        46.300          29.9004
 106569892.905 8  83041502.51847  20279561.932                    20279560.2754
        49.800          44.4004
 113232488.292 7  88233098.52146  21547419.781                    21547416.2804
        46.900          39.7004
 125823454.713 6  98044233.10444  23943406.242                    23943400.6444
        39.700          24.5004
 112220955.005 8  87444898.92646  21354932.886                    21354928.9964
        49.500          38.4004
 124428292.975 7  96957065.62643  23677910.974                    23677906.6554
        42.400          22.8004
 15  7 10  3 23 45.0000000  0  8G07G09G28G30G05G02G10G13
 108749419.000 8  84739815.08646  20694313.079                    20694309.2674
        48.000          41.3004
 117944361.750 7  91904727.15645  22444054.328                    22444052.7044
        45.800          34.4004
 120696768.543 7  94049431.83644  22967826.355                    22967822.8394
        46.400          29.8004
 106561580.447 8  83035025.27147  20277980.168                    20277978.5984
        50.600          44.5004
 113209830.865 7  88215443.38146  21543108.284                    21543103.8044
        47.800          38.7004
 125859261.909 6  98072134.81143  23950219.926                    23950213.0294
        38.800          22.9004
 112259463.887 8  87474905.82746  21362261.048                    21362257.0674
        49.200          38.1004
 124382775.174 7  96921597.22843  23669249.538                    23669245.2404
        43.000          22.2004
 15  7 10  3 24  0.0000000  0  8G07G09G28G30G05G02G10G13
 108770616.492 7  84756332.59646  20698346.673                    20698342.9564
        47.100          41.2004
 117982433.792 7  91934393.64345  22451298.871                    22451297.7144
        45.500          35.8004
 120648949.482 7  94012170.23445  22958726.517                    22958723.4054
        46.500          30.9004
 106553381.150 8  83028636.20447  20276420.018                    20276418.4334
        50.400          44.6004
 113187302.457 7  88197888.76846  21538821.477                    21538816.9484
        47.400          39.8004
 125895126.761 6  98100081.42544  23957044.767                    23957038.6594
        38.700          24.0004
 112298079.319 8  87504995.76046  21369609.218                    21369605.4414
        49.600          37.6004
 124337273.502 7  96886141.40243  23660590.717                    23660587.0774
        42.800          22.8004
 15  7 10  3 24 15.0000000  0  8G07G09G28G30G05G02G10G13
 108791898.356 7  84772915.84046  20702396.513                    20702392.9034
        47.100          41.3004
 118020558.916 7  91964101.49846  22458554.606                    22458553.0604
        45.000          36.2004
 120601185.180 7  93974951.30445  22949637.332                    22949634.3364
        47.100          30.9004
 106545293.532 8  83022334.15747  20274881.138                    20274879.2454
        50.700          44.5004
 113164901.933 8  88180433.79246  21534559.044                    21534554.9634
        48.000          40.6004
 125931047.590 6  98128071.68343  23963880.579                    23963873.9484
        39.900          22.5004
 112336799.475 8  87535167.29446  21376977.008                    21376973.5924
        49.200          37.7004
 124291786.783 6  96850697.23643  23651934.285                    23651931.1754
        41.800          22.8004
 15  7 10  3 24 30.0000000  0  8G07G09G28G30G05G02G10G13
 108813265.033 7  84789565.18746  20706462.537                    20706458.5384
        47.400          41.5004
 118058737.673 7  91993851.14045  22465819.940                    22465818.2144
        45.900          35.6004
 120553476.671 7  93937775.84845  22940558.948                    22940554.9684
        47.600          30.9004
 106537318.075 8  83016119.51047  20273363.415                    20273361.7164
        50.100          44.7004
 113142630.069 8  88163079.08346  21530320.707                    21530317.5724
        48.400          40.5004
 125967024.408 6  98156105.57243  23970726.801                    23970721.0644
        39.900          23.4004
 112375624.658 8  87565420.67446  21384365.387                    21384362.0674
        48.900          37.6004
 124246315.702 7  96815265.22443  23643281.343                    23643278.5684
        42.700          22.8004
 15  7 10  3 24 45.0000000  0  8G07G09G28G30G05G02G10G13
 108834716.528 7  84806280.61946  20710544.278                    20710540.9654
        47.700          40.5004
 118096970.281 7  92023642.74145  22473095.465                    22473093.9474
        46.000          35.6004
 120505824.555 7  93900644.31745  22931491.184                    22931487.6164
        47.500          31.3004
 106529455.065 8  83009992.47947  20271867.146                    20271865.6274
        50.300          44.4004
 113120487.305 7  88145824.97546  21526107.281                    21526104.3554
        47.800          40.3004
 126003057.189 6  98184183.04643  23977583.700                    23977578.0634
        41.800          22.8004
 112414554.979 8  87595755.97046  21391773.692                    21391769.8764
        49.200          36.9004
 124200860.525 6  96779845.61843  23634631.693                    23634628.2674
        41.300          23.5004
 15  7 10  3 25  0.0000000  0  8G07G09G28G30G05G02G10G13
 108856252.036 8  84823061.51946  20714642.405                    20714639.0594
        48.300          40.8004
 118135256.093 7  92053475.80345  22480380.379                    22480378.6294
        45.600          34.9004
 120458228.561 7  93863556.52845  22922434.089                    22922430.0674
        47.600          30.9004
 106521703.870 8  83003952.58047  20270392.224                    20270390.6374
        51.500          44.7004
 113098473.217 8  88128671.13946  21521917.569                    21521915.2784
        48.300          40.1004
 126039144.846 6  98212303.27344  23984451.669                    23984445.4514
        40.800          25.1004
 112453589.490 8  87626172.45446  21399201.469                    21399198.1784
        48.100          36.7004
 124155420.870 6  96744438.10843  23625985.230                    23625981.4434
        41.400          22.9004
 15  7 10  3 25 15.0000000  0  8G07G09G28G30G05G02G10G13
 108877871.806 7  84839908.06246  20718756.626                    20718753.0254
        47.200          41.2004
 118173595.443 7  92083350.57445  22487676.107                    22487674.2524
        45.600          35.3004
 120410689.321 7  93826512.95945  22913387.291                    22913383.8144
        47.000          30.9004
 106514064.818 8  82998000.07047  20268938.513                    20268936.9544
        50.700          44.5004
 113076588.419 7  88111618.06346  21517753.085                    21517750.4114
        47.000          40.7004
 126075287.570 6  98240466.40144  23991329.030                    23991323.2054
        40.600          26.6004
 112492728.387 8  87656670.26846  21406649.205                    21406645.8554
        48.500          36.2004
 124109997.183 7  96709043.03844  23617340.982                    23617336.5544
        42.300          25.1004
 15  7 10  3 25 30.0000000  0  8G07G09G28G30G05G02G10G13
 108899576.096 7  84856820.47546  20722887.091                    20722883.5794
        47.000          40.9004
 118211988.807 7  92113267.44645  22494982.162                    22494980.5854
        44.900          34.6004
 120363207.722 7  93789514.31645  22904352.442                    22904348.5794
        47.100          31.5004
 106506538.318 8  82992135.26247  20267506.353                    20267504.6434
        50.300          44.7004
 113054833.653 7  88094666.30346  21513613.414                    21513609.7924
        46.800          39.5004
 126111485.563 6  98268672.63044  23998216.715                    23998211.8104
        39.800          26.4004
 112531971.922 8  87687249.62446  21414116.809                    21414113.7864
        48.000          36.2004
 124064589.993 7  96673660.83144  23608700.298                    23608696.2544
        42.200          25.3004
 15  7 10  3 25 45.0000000  0  8G07G09G28G30G05G02G10G13
 108921364.236 7  84873798.23146  20727033.391                    20727029.4944
        47.200          41.0004
 118250435.543 7  92143225.89946  22502298.864                    22502297.3384
        46.400          36.0004
 120315783.774 7  93752560.58145  22895327.725                    22895324.0784
        46.700          30.9004
 106499123.894 8  82986357.79047  20266095.273                    20266093.3544
        50.300          44.7004
 113033208.661 7  88077815.65546  21509498.299                    21509494.8614
        47.300          40.1004
 126147737.934 6  98296921.20544  24005115.477                    24005110.6164
        40.100          24.5004
 112571319.200 8  87717909.81846  21421604.537                    21421601.2954
        48.600          36.9004
 124019199.050 7  96638291.27144  23600062.667                    23600058.5824
        42.900          24.7004
 15  7 10  3 26  0.0000000  0  8G07G09G28G30G05G02G10G13
 108943236.214 8  84890841.31246  20731195.225                    20731191.9794
        48.200          41.2004
 118288935.763 7  92173226.03746  22509625.386                    22509624.2564
        46.800          36.3004
 120268417.832 7  93715652.05944  22886314.258                    22886310.7904
        46.400          29.9004
 106491821.594 8  82980667.67347  20264705.611                    20264703.8514
        50.500          44.7004
 113011713.743 8  88061066.33746  21505408.709                    21505403.8864
        48.500          40.1004
 126184044.292 6  98325211.87243  24012023.595                    24012019.1654
        39.400          22.6004
 112610770.162 7  87748650.80346  21429112.318                    21429108.7464
        47.200          37.7004
 123973824.557 7  96602934.54544  23591428.867                    23591424.3264
        42.000          26.1004
 15  7 10  3 26 15.0000000  0  8G07G09G28G30G05G02G10G13
 108965191.772 8  84907949.52346  20735373.740                    20735369.7624
        48.400          41.2004
 118327489.249 7  92203267.67245  22516961.069                    22516960.5514
        44.500          35.6004
 120221110.138 7  93678788.92445  22877311.672                    22877308.1424
        46.600          30.4004
 106484631.236 8  82975064.79247  20263337.466                    20263335.3444
        50.500          44.3004
 112990348.978 8  88044418.44846  21501342.706                    21501338.1864
        48.200          40.4004
 126220404.319 6  98353544.32043  24018943.346                    24018937.8514
        38.500          22.5004
 112650324.468 7  87779472.32446  21436638.850                    21436635.3874
        47.000          36.9004
 123928466.568 6  96567590.65543  23582797.179                    23582793.0754
        40.900          22.8004
 15  7 10  3 26 30.0000000  0  8G07G09G28G30G05G02G10G13
 108987231.588 7  84925123.38646  20739567.470                    20739563.7854
        47.500          41.2004
 118366096.865 7  92233351.48645  22524308.016                    22524307.0084
        43.600          35.3004
 120173861.839 7  93641972.07944  22868321.099                    22868316.7934
        45.600          29.4004
 106477553.688 8  82969549.80947  20261990.586                    20261988.6404
        50.200          44.5004
 112969115.550 7  88027872.90746  21497301.778                    21497299.2254
        46.400          40.1004
 126256818.319 6  98381918.85443  24025872.615                    24025867.4924
        39.500          22.2004
 112689982.805 7  87810374.91146  21444186.012                    21444182.3624
        47.000          37.3004
 123883126.185 6  96532260.48444  23574168.854                    23574165.4834
        41.700          24.4004
 15  7 10  3 26 45.0000000  0  8G07G09G28G30G05G02G10G13
 109009354.169 8  84942361.75146  20743777.261                    20743773.0624
        48.900          40.9004
 118404757.246 7  92263476.39645  22531664.731                    22531664.3374
        44.400          34.7004
 120126672.032 7  93605200.80945  22859340.996                    22859337.4914
        46.900          30.5004
 106470587.510 8  82964121.61747  20260664.763                    20260662.9724
        50.900          44.3004
 112948012.254 7  88011428.80646  21493285.954                    21493283.3634
        46.100          39.7004
 126293284.874 6  98410334.32843  24032811.601                    24032807.0234
        37.900          22.6004
 112729743.498 8  87841357.26146  21451752.042                    21451748.0934
        48.800          37.4004
 123837802.080 7  96496943.00243  23565544.024                    23565540.0084
        42.400          23.3004
 15  7 10  3 27  0.0000000  0  8G07G09G28G30G05G02G10G13
 109031559.927 8  84959664.91746  20748003.146                    20747999.0794
        48.600          41.6004
 118443470.979 7  92293642.90445  22539031.986                    22539030.9234
        42.800          34.8004
 120079541.632 7  93568475.82245  22850372.300                    22850368.6364
        46.400          30.9004
 106463733.427 8  82958780.77047  20259360.665                    20259359.2984
        50.200          44.0004
 112927040.088 7  87995086.86946  21489294.567                    21489291.8214
        46.600          40.0004
 126329804.141 6  98438790.88043  24039761.789                    24039756.4294
        39.400          22.5004
 112769606.938 8  87872419.66446  21459337.939                    21459334.5774
        48.800          37.8004
 123792495.003 7  96461638.77543  23556922.816                    23556918.7634
        42.500          23.8004
 15  7 10  3 27 15.0000000  0  9G07G09G28G30G05G20G02G10G13
 109053847.626 8  84977031.93746  20752244.196                    20752240.3294
        48.600          41.7004
 118482236.841 7  92323850.02345  22546409.453                    22546408.2484
        43.700          35.6004
 120032469.957 7  93531796.60545  22841415.305                    22841411.4194
        47.300          31.5004
 106456990.163 8  82953526.27947  20258077.403                    20258075.6114
        50.200          44.3004
 112906198.069 7  87978846.33546  21485328.901                    21485325.8824
        47.700          39.8004
 131414927.82215                  25007429.242
        32.300
 126366374.586 6  98467287.33243  24046721.000                    24046715.8014
        39.000          23.5004
 112809571.767 7  87903561.06746  21466942.983                    21466939.3354
        47.900          37.7004
 123747203.780 7  96426346.94044  23548303.998                    23548300.1824
        43.700          25.2004
 15  7 10  3 27 30.0000000  0  9G07G09G28G30G05G20G02G10G13
 109076218.483 8  84994463.75446  20756501.353                    20756497.6294
        48.700          41.7004
 118521056.190 7  92354098.82245  22553796.692                    22553795.1994
        44.600          35.7004
 119985458.828 7  93495164.55745  22832469.081                    22832465.1834
        46.900          31.6004
 106450359.163 8  82948359.26247  20256815.332                    20256813.9634
        50.800          44.0004
 112885487.893 8  87962708.52246  21481388.376                    21481384.5794
        48.200          40.3004
 131363715.48515 102361332.98053  24997683.967                    24997683.0204
        33.200          18.3004
 126402997.382 6  98495824.56343  24053689.539                    24053684.9774
        40.700          22.3004
 112849639.060 7  87934782.30746  21474567.081                    21474563.9594
        46.300          37.0004
 123701930.115 7  96391068.75143  23539688.808                    23539684.4974
        43.500          23.5004
 15  7 10  3 27 45.0000000  0  9G07G09G28G30G05G20G02G10G13
 109098671.839 8  85011959.86146  20760773.868                    20760770.1274
        48.300          41.8004
 118559928.541 7  92384388.93245  22561193.608                    22561192.8744
        44.400          35.7004
 119938507.945 7  93458579.45645  22823534.899                    22823531.1194
        47.400          32.3004
 106443839.858 8  82943279.26947  20255575.137                    20255573.3034
        50.300          44.3004
 112864909.172 8  87946673.12746  21477472.128                    21477468.1574
        48.300          40.4004
 131312552.136 5 102321465.44743  24987948.745                    24987946.4144
        33.900          19.6004
 126439671.520 6  98524401.78043  24060668.988                    24060663.9744
        37.900          22.3004
 112889808.141 7  87966082.87346  21482210.811                    21482207.9494
        45.900          36.7004
 123656673.609 7  96355803.93443  23531076.696                    23531073.1284
        43.600          23.6004
 15  7 10  3 28  0.0000000  0  9G07G09G28G30G05G20G02G10G13
 109121207.711 8  85029520.26046  20765062.486                    20765058.5764
        49.800          41.8004
 118598853.885 7  92414720.32945  22568600.857                    22568599.3564
        44.600          35.2004
 119891617.729 8  93422041.63945  22814612.102                    22814608.3134
        48.100          32.4004
 106437432.287 8  82938286.35347  20254355.658                    20254353.8634
        50.800          44.7004
 112844462.389 7  87930740.55246  21473581.392                    21473576.9714
        46.900          40.5004
 131261435.111 5 102281634.02343  24978221.728                    24978219.6084
        35.500          20.1004
 126476396.819 6  98553018.88143  24067657.288                    24067652.7254
        40.300          22.6004
 112930078.956 7  87997462.70346  21489874.532                    21489871.2764
        45.700          36.5004
 123611434.658 7  96320552.80844  23522468.362                    23522464.1184
        42.900          25.6004
 15  7 10  3 28 15.0000000  0  9G07G09G28G30G05G20G02G10G13
 109143825.964 8  85047144.86247  20769366.388                    20769363.0714
        50.200          42.1004
 118637832.376 7  92445093.14045  22576017.846                    22576016.6114
        44.400          34.7004
 119844788.855 7  93385551.60645  22805700.530                    22805696.5824
        47.900          32.4004
 106431136.593 8  82933380.61347  20253158.071                    20253155.8544
        51.200          44.4004
 112824147.717 7  87914910.94546  21469715.428                    21469711.8784
        46.000          39.6004
 131210364.901 5 102241839.07543  24968502.621                    24968500.3454
        35.900          18.3004
 126513173.077 6  98581675.67843  24074655.466                    24074650.2854
        41.000          22.6004
 112970451.352 7  88028921.69646  21497556.927                    21497553.8304
        45.900          36.4004
 123566213.568 7  96285315.60643  23513862.711                    23513859.0674
        43.400          23.5004
 15  7 10  3 28 30.0000000  0  9G07G09G28G30G05G20G02G10G13
 109166525.182 8  85064832.52147  20773685.832                    20773682.5784
        50.000          42.2004
 118676862.641 7  92475506.29745  22583445.458                    22583443.8064
        44.700          34.6004
 119798020.366 7  93349108.63845  22796800.731                    22796797.3674
        47.700          32.3004
 106424951.462 8  82928561.01847  20251981.061                    20251979.1294
        51.200          44.7004
 112803964.199 7  87899183.53146  21465874.599                    21465871.6184
        46.900          40.1004
 131159340.621 6 102202079.91443  24958794.165                    24958791.4404
        36.500          20.4004
 126549998.488 6  98610370.78943  24081662.820                    24081658.2154
        40.000          22.5004
 113010923.639 7  88060458.50846  21505258.652                    21505255.9234
        45.800          36.6004
 123521008.957 7  96250091.23544  23505260.810                    23505256.9794
        43.200          24.8004
 15  7 10  3 28 45.0000000  0  9G07G09G28G30G05G20G02G10G13
 109189307.105 8  85082584.65546  20778021.062                    20778017.5974
        49.900          41.4004
 118715946.579 7  92505961.28545  22590883.195                    22590880.9294
        44.700          34.9004
 119751314.490 7  93312714.45145  22787913.115                    22787909.1174
        47.600          31.5004
 106418878.720 8  82923828.99847  20250825.447                    20250823.7924
        50.900          44.3004
 112783913.904 8  87883559.92546  21462059.250                    21462056.4264
        48.000          40.6004
 131108364.527 6 102162358.28843  24949093.096                    24949090.8484
        38.500          20.4004
 126586875.108 6  98639105.82243  24088680.428                    24088675.6664
        41.100          22.3004
 113051497.544 7  88092074.51546  21512979.489                    21512976.8244
        45.300          36.9004
 123475822.873 7  96214881.32144  23496662.227                    23496658.2504
        43.700          24.3004
 15  7 10  3 29  0.0000000  0  9G07G09G28G30G05G20G02G10G13
 109212170.073 8  85100399.93946  20782372.343                    20782368.4144
        49.200          41.5004
 118755082.534 7  92536456.81445  22598330.369                    22598329.0404
        45.000          34.9004
 119704670.022 7  93276368.12045  22779036.608                    22779032.7764
        47.800          31.9004
 106412916.830 8  82919183.36247  20249690.551                    20249688.8214
        51.100          44.4004
 112763995.622 8  87868039.17946  21458269.217                    21458266.1734
        49.300          41.1004
 131057435.414 6 102122673.28843  24939402.392                    24939399.0774
        38.700          20.4004
 126623800.807 6  98667879.08643  24095707.349                    24095701.6124
        40.900          22.2004
 113092171.322 7  88123768.34646  21520719.759                    21520716.8644
        47.200          36.5004
 123430654.077 7  96179684.86044  23488066.275                    23488063.1824
        43.800          24.3004
 15  7 10  3 29 15.0000000  0  9G07G09G28G30G05G20G02G10G13
 109235114.994 8  85118279.07846  20786738.497                    20786734.0654
        50.200          40.9004
 118794271.689 7  92566993.79945  22605787.444                    22605785.8204
        44.400          35.7004
 119658088.477 7  93240070.81245  22770171.949                    22770168.4974
        47.700          31.8004
 106407066.909 8  82914624.97947  20248577.161                    20248576.0134
        50.900          44.2004
 112744210.724 8  87852622.35546  21454504.359                    21454501.0624
        48.900          41.1004
 131006554.704 6 102083025.97243  24929719.546                    24929716.2144
        38.100          21.7004
 126660776.248 6  98696691.11144  24102743.397                    24102738.5894
        40.200          24.0004
 113132945.838 7  88155540.66646  21528478.939                    21528475.5324
        45.900          36.4004
 123385503.757 7  96144502.78244  23479474.484                    23479472.0234
        44.300          27.1004
 15  7 10  3 29 30.0000000  0  9G07G09G28G30G05G20G02G10G13
 109258141.235 8  85136221.58846  20791120.470                    20791116.0074
        51.000          41.7004
 118833513.493 7  92597571.78745  22613254.713                    22613254.1084
        45.000          35.3004
 119611569.745 7  93203822.45345  22761320.205                    22761316.4224
        46.700          30.8004
 106401328.395 8  82910153.39547  20247485.227                    20247483.6524
        51.800          44.1004
 112724558.798 8  87837309.15946  21450764.530                    21450760.9674
        48.200          40.3004
 130955722.287 6 102043416.31043  24920046.512                    24920043.1264
        38.400          20.9004
 126697800.608 6  98725541.26143  24109788.754                    24109783.8244
        40.400          22.6004
 113173820.410 7  88187390.96146  21536257.206                    21536254.0954
        46.000          36.5004
 123340371.575 7  96109334.86444  23470886.478                    23470882.9854
        44.500          24.5004
 15  7 10  3 29 45.0000000  0  9G07G09G28G30G05G20G02G10G13
 109281248.466 8  85154227.20346  20795517.468                    20795513.4954
        50.300          41.7004
 118872807.673 7  92628190.60045  22620732.576                    22620732.3704
        44.300          35.7004
 119565113.888 7  93167623.09045  22752479.596                    22752476.0104
        46.700          30.5004
 106395701.042 8  82905768.44647  20246414.765                    20246413.0684
        50.300          44.4004
 112705040.100 7  87822099.77646  21447049.990                    21447045.9404
        46.800          39.8004
 130904938.302 6 102003844.34943  24910382.285                    24910379.5104
        38.000          20.6004
 126734873.380 6  98754429.09943  24116843.076                    24116838.5094
        39.200          22.3004
 113214794.623 7  88219318.90645  21544054.363                    21544050.7674
        46.000          35.9004
 123295257.546 7  96074181.07544  23462301.119                    23462297.8154
        44.400          27.0004
 15  7 10  3 30  0.0000000  0  9G07G09G28G30G05G20G02G10G13
 109304436.267 8  85172295.60846  20799929.955                    20799926.3394
        50.200          41.7004
 118912154.004 7  92658850.04245  22628219.733                    22628219.5354
        44.600          35.7004
 119518721.121 8  93131472.89245  22743651.530                    22743647.7294
        48.100          32.0004
 106390184.646 8  82901469.94147  20245364.714                    20245363.4024
        51.700          44.2004
 112685654.515 7  87806994.13146  21443361.377                    21443357.0404
        47.900          39.5004
 130854202.772 6 101964310.19243  24900727.845                    24900724.7084
        36.600          19.3004
 126771994.104 6  98783354.30443  24123907.328                    24123902.3224
        39.600          22.0004
 113255867.953 7  88251324.07745  21551870.503                    21551866.6054
        46.800          35.6004
 123250161.626 7  96039041.39644  23453719.924                    23453716.3104
        45.500          24.7004
 15  7 10  3 30 15.0000000  0  9G07G09G28G30G05G20G02G10G13
 109327704.242 8  85190426.46346  20804357.397                    20804353.7484
        50.700          41.8004
 118951552.131 7  92689549.82945  22635716.609                    22635716.6704
        44.800          35.1004
 119472391.564 7  93095371.94545  22734835.325                    22734831.5194
        47.100          31.4004
 106384778.802 8  82897257.59147  20244336.098                    20244334.4694
        51.700          44.5004
 112666401.909 7  87791992.09346  21439697.462                    21439693.5294
        47.600          39.8004
 130803515.929 5 101924813.92842  24891082.559                    24891078.7064
        35.800          17.8004
 126809162.069 6  98812316.31943  24130980.187                    24130975.2404
        39.200          22.3004
 113297039.789 7  88283406.01146  21559705.610                    21559701.7404
        47.400          36.1004
 123205083.490 7  96003915.57044  23445142.085                    23445137.9884
        45.300          25.9004
 15  7 10  3 30 30.0000000  0  9G07G09G28G30G05G20G02G10G13
 109351052.650 8  85208620.03546  20808800.779                    20808796.7494
        50.500          41.3004
 118991002.563 7  92720290.37645  22643224.266                    22643224.0944
        44.100          34.2004
 119426126.173 8  93059320.99545  22726031.738                    22726027.6614
        48.100          32.4004
 106379484.087 8  82893131.82847  20243328.245                    20243326.8354
        50.900          44.6004
 112647283.126 7  87777094.33046  21436059.554                    21436055.6994
        47.600          40.5004
 130752878.542 5 101885356.26242  24881446.861                    24881442.9454
        35.600          17.8004
 126846377.412 6  98841315.28543  24138062.113                    24138057.1364
        40.600          21.7004
 113338310.449 7  88315564.96346  21567559.049                    21567554.9564
        46.900          37.6004
 123160023.853 7  95968804.16744  23436567.573                    23436563.4144
        44.300          24.6004
 15  7 10  3 30 45.0000000  0  9G07G09G28G30G05G20G02G10G13
 109374481.471 8  85226876.24546  20813259.303                    20813255.0144
        50.000          41.2004
 119030505.235 7  92751071.64045  22650740.793                    22650741.2314
        43.900          34.6004
 119379925.078 7  93023320.14645  22717239.813                    22717235.5284
        47.900          31.9004
 106374300.425 8  82889092.60247  20242342.180                    20242340.6384
        50.700          44.4004
 112628298.372 8  87762301.00346  21432446.965                    21432443.4774
        48.700          40.9004
 130702290.822 5 101845937.23243  24871818.683                    24871814.9564
        35.000          18.6004
 126883639.879 6  98870350.94143  24145152.895                    24145147.9414
        41.600          21.8004
 113379679.728 7  88347800.74146  21575431.075                    21575427.2814
        46.600          36.8004
 123114982.746 7  95933707.20044  23427996.915                    23427992.1724
        45.500          26.7004
 15  7 10  3 31  0.0000000  0  9G07G09G28G30G05G20G02G10G13
 109397990.516 8  85245194.97146  20817732.396                    20817728.5534
        50.600          41.2004
 119070060.069 7  92781893.55245  22658268.489                    22658268.3204
        44.600          35.2004
 119333788.657 7  92987369.68745  22708460.518                    22708455.9894
        47.900          31.8004
 106369227.734 8  82885139.84547  20241376.799                    20241375.2864
        51.200          43.8004
 112609447.805 8  87747612.23846  21428859.403                    21428856.4714
        49.300          40.7004
 130651753.276 5 101806557.33542  24862203.197                    24862199.3884
        35.000          16.3004
 126920948.960 7  98899422.94943  24152253.007                    24152247.0614
        42.300          22.3004
 113421147.259 7  88380113.08546  21583322.184                    21583318.6164
        46.800          36.4004
 123069960.442 7  95898624.87844  23419429.327                    23419424.8434
        44.600          25.6004
 15  7 10  3 31 15.0000000  0  9G07G09G28G30G05G20G02G10G13
 109421579.113 8  85263575.67946  20822221.335                    20822217.2894
        50.700          41.2004
 119109666.658 7  92812755.79045  22665804.907                    22665804.6884
        44.800          35.1004
 119287716.965 7  92951469.67145  22699693.538                    22699689.8154
        47.200          32.3004
 106364265.642 8  82881273.27647  20240432.497                    20240430.8254
        51.800          44.0004
 112590731.317 8  87733027.95946  21425297.959                    21425294.4534
        49.700          40.4004
 130601265.849 5 101767216.54042  24852596.012                    24852592.2524
        35.000          16.3004
 126958304.025 7  98928530.80543  24159361.703                    24159355.6484
        42.100          21.3004
 113462712.495 7  88412501.56346  21591231.414                    21591228.6684
        47.300          36.5004
 123024956.894 7  95863557.18244  23410865.250                    23410861.0344
        45.700          26.3004
 15  7 10  3 31 30.0000000  0  9G07G09G28G30G05G20G02G10G13
 109445247.492 8  85282018.55346  20826725.454                    20826721.9124
        50.700          41.2004
 119149325.315 7  92843658.60745  22673351.456                    22673351.0694
        43.200          34.7004
 119241710.667 7  92915620.61445  22690938.458                    22690934.2214
        47.500          31.3004
 106359414.382 8  82877493.06147  20239509.372                    20239507.5314
        50.700          44.5004
 112572149.426 7  87718548.56046  21421761.520                    21421758.0214
        46.700          39.4004
 130550829.210 5 101727915.22842  24842997.693                    24842994.7464
        35.400          17.4004
 126995705.124 6  98957674.53043  24166478.427                    24166473.1204
        40.400          21.8004
 113504375.524 7  88444966.23546  21599159.958                    21599156.7574
        47.400          36.3004
 122979972.471 7  95828504.37144  23402305.084                    23402301.0454
        45.700          26.4004
 15  7 10  3 31 45.0000000  0  9G07G09G28G30G05G20G02G10G13
 109468995.428 8  85300523.39946  20831244.248                    20831240.7614
        50.400          41.1004
 119189035.715 7  92874601.71845  22680908.633                    22680908.4814
        43.400          34.2004
 119195769.867 7  92879822.58045  22682196.395                    22682192.1214
        47.300          32.2004
 106354673.691 8  82873799.00647  20238607.309                    20238605.5814
        51.900          44.5004
 112553701.784 8  87704173.77946  21418251.104                    21418246.9494
        49.400          39.7004
 130500443.266 5 101688653.51743  24833409.261                    24833406.8354
        35.600          19.0004
 127033151.613 6  98986853.58043  24173604.071                    24173598.2694
        41.100          21.7004
 113546135.810 7  88477506.68346  21607106.402                    21607103.4694
        47.500          36.0004
 122935006.882 7  95793466.25544  23393748.024                    23393744.2374
        44.200          25.1004
 15  7 10  3 32  0.0000000  0  9G07G09G28G30G05G20G02G10G13
 109492822.504 8  85319089.93946  20835778.544                    20835774.8674
        50.500          41.1004
 119228797.627 7  92905584.99145  22688475.770                    22688473.9504
        44.100          34.2004
 119149894.797 7  92844075.79045  22673466.289                    22673462.7004
        46.600          32.7004
 106350043.374 8  82870190.94947  20237726.502                    20237724.6414
        51.300          44.3004
 112535388.809 8  87689903.92146  21414766.438                    21414761.5644
        49.400          39.3004
 130450108.410 6 101649431.56243  24823831.097                    24823828.5594
        36.000          19.9004
 127070642.972 6  99016067.60443  24180738.107                    24180732.3014
        40.500          22.0004
 113587992.902 7  88510122.57545  21615071.213                    21615068.8394
        46.600          35.5004
 122890060.242 7  95758442.90644  23385195.008                    23385191.6324
        43.600          24.2004
 15  7 10  3 32 15.0000000  0  9G07G09G28G30G05G20G02G10G13
 109516729.581 8  85337718.80446  20840327.768                    20840324.2144
        50.200          40.9004
 119268612.369 7  92936609.42945  22696052.173                    22696050.9004
        44.800          34.7004
 119104086.978 7  92808381.38845  22664749.432                    22664745.1054
        45.600          31.1004
 106345524.687 8  82866669.88947  20236866.315                    20236864.8044
        51.900          44.0004
 112517212.195 8  87675740.30246  21411307.784                    21411303.7424
        50.500          40.3004
 130399826.400 6 101610250.82743  24814261.196                    24814258.2284
        36.900          19.9004
 127108180.149 6  99045317.34443  24187881.678                    24187875.3324
        40.700          21.7004
 113629948.028 8  88542814.84746  21623055.585                    21623052.6364
        48.000          36.6004
 122845133.877 7  95723435.34844  23376645.867                    23376641.6794
        43.500          25.0004
 15  7 10  3 32 30.0000000  0  9G07G09G28G30G05G20G02G10G13
 109540715.313 8  85356408.96646  20844892.096                    20844888.4254
        51.300          41.3004
 119308478.511 7  92967673.92545  22703638.284                    22703637.4464
        44.100          34.4004
 119058345.498 7  92772738.68545  22656045.157                    22656041.4574
        44.500          31.2004
 106341116.202 8  82863234.69647  20236027.328                    20236025.6814
        51.700          44.7004
 112499170.563 8  87661681.87946  21407874.852                    21407871.4284
        50.800          40.9004
 130349596.131 6 101571110.36543  24804703.318                    24804701.0844
        36.000          19.9004
 127145761.355 6  99074601.39743  24195032.814                    24195026.9864
        41.100          22.6004
 113671999.375 8  88575582.10046  21631057.647                    21631054.2854
        48.700          36.2004
 122800226.819 6  95688442.85344  23368099.709                    23368096.8094
        41.600          24.2004
 15  7 10  3 32 45.0000000  0  9G07G09G28G30G05G20G02G10G13
 109564779.145 8  85375159.98946  20849471.720                    20849468.1864
        48.600          41.4004
 119348395.491 7  92998778.03445  22711234.034                    22711232.9554
        44.300          34.4004
 119012670.251 7  92737147.59045  22647353.178                    22647349.4064
        43.900          30.4004
 106336817.398 8  82859884.97047  20235209.301                    20235208.1144
        51.700          44.2004
 112481263.652 8  87647728.43846  21404466.880                    21404464.0844
        50.600          41.6004
 130299417.188 5 101532009.91443  24795155.736                    24795151.5444
        35.300          19.3004
 127183385.869 6  99103919.14743  24202192.485                    24202187.7874
        40.500          21.7004
 113714146.216 8  88608423.78046  21639077.753                    21639074.7694
        48.400          36.5004
 122755338.509 6  95653464.96144  23359557.988                    23359554.4364
        40.900          24.5004
 15  7 10  3 33  0.0000000  0  9G07G09G28G30G05G20G02G10G13
 109588922.535 8  85393973.00146  20854065.583                    20854061.8114
        51.000          40.6004
 119388364.913 7  93029922.99445  22718839.902                    22718839.4014
        45.200          34.0004
 118967063.073 7  92701609.53545  22638674.592                    22638671.1884
        46.000          32.3004
 106332629.876 8  82856621.96047  20234412.545                    20234411.4304
        51.200          44.2004
 112463493.198 8  87633881.33046  21401085.146                    21401082.4314
        50.100          41.0004
 130249291.897 5 101492951.26742  24785617.702                    24785612.7384
        35.000          17.8004
 127221054.945 7  99133271.61743  24209360.485                    24209356.6754
        42.000          22.5004
 113756390.026 8  88641341.00446  21647116.759                    21647113.6794
        49.100          36.5004
 122710470.859 7  95618503.15244  23351019.969                    23351016.9134
        42.800          25.8004
 15  7 10  3 33 15.0000000  0  9G07G09G28G30G05G20G02G10G13
 109613143.768 8  85412846.67746  20858674.955                    20858671.1224
        50.200          40.5004
 119428385.443 7  93061107.77845  22726455.911                    22726455.2604
        45.300          34.3004
 118921523.149 7  92666123.88945  22630008.801                    22630005.0204
        46.800          31.6004
 106328552.212 8  82853444.55047  20233636.559                    20233635.1714
        51.500          44.2004
 112445858.111 8  87620139.71346  21397729.694                    21397726.2484
        49.800          40.6004
 130199219.101 5 101453933.50043  24776087.886                    24776083.8544
        34.400          18.6004
 127258767.016 7  99162657.61343  24216537.641                    24216533.6004
        42.400          23.0004
 113798729.084 8  88674332.46246  21655173.628                    21655170.2764
        48.800          36.6004
 122665622.595 7  95583556.46044  23342485.487                    23342482.0354
        43.600          24.1004
 15  7 10  3 33 30.0000000  0  9G07G09G28G30G05G20G02G10G13
 109637442.946 8  85431781.08246  20863298.744                    20863294.7614
        48.900          40.3004
 119468457.058 7  93092332.36545  22734081.246                    22734081.0134
        45.000          34.7004
 118876050.911 7  92630690.97645  22621356.075                    22621352.2414
        47.600          33.0004
 106324584.461 8  82850352.79247  20232881.479                    20232880.2384
        52.200          44.2004
 112428358.787 8  87606503.87646  21394399.669                    21394396.1944
        50.200          39.6004
 130149199.273 5 101414957.05143  24766569.865                    24766565.2614
        34.000          19.0004
 127296521.668 6  99192076.80043  24223722.105                    24223718.3994
        41.700          23.0004
 113841163.208 8  88707397.98846  21663248.677                    21663244.7454
        48.600          36.2004
 122620793.944 7  95548625.05244  23333955.079                    23333951.6464
        43.700          26.5004
 15  7 10  3 33 45.0000000  0 10G07G09G28G30G05G20G27G02G10G13
 109661820.397 8  85450776.49546  20867938.000                    20867933.6054
        49.500          40.8004
 119508580.302 7  93123597.18745  22741716.795                    22741716.4094
        45.300          34.8004
 118830647.235 7  92595311.49745  22612715.443                    22612711.8124
        46.900          32.6004
 106320727.183 8  82847347.10447  20232147.585                    20232145.7464
        51.600          44.2004
 112410996.031 8  87592974.44246  21391095.402                    21391091.1914
        49.800          40.3004
 130099233.242 5 101376022.45742  24757062.438                    24757057.2374
        33.600          17.4004
 132411175.63616                  25197008.850
        37.100
 127334319.043 7  99221529.28343  24230914.797                    24230910.4434
        42.300          22.9004
 113883692.907 8  88740538.00746  21671342.092                    21671338.1104
        48.300          36.8004
 122575985.652 7  95513709.49544  23325427.989                    23325424.4824
        43.400          25.0004
 15  7 10  3 34  0.0000000  0 10G07G09G28G30G05G20G27G02G10G13
 109686275.332 8  85469832.28646  20872591.566                    20872587.3414
        50.200          40.7004
 119548754.418 7  93154901.65745  22749361.449                    22749361.3314
        46.200          34.6004
 118785311.865 7  92559985.24045  22604088.634                    22604084.8114
        47.000          33.2004
 106316979.584 8  82844426.89147  20231434.477                    20231432.4474
        51.900          43.8004
 112393769.215 8  87579550.94046  21387817.511                    21387812.8464
        49.500          40.2004
 130049320.731 5 101337129.65242  24747563.066                    24747559.3414
        34.100          17.4004
 132404004.544 6 103171959.82153  25195644.488                    25195646.3934
        37.600          18.3004
 127372158.293 6  99251014.39143  24238115.431                    24238111.6264
        41.700          22.8004
 113926317.074 7  88773751.63846  21679452.967                    21679449.4964
        47.900          36.7004
 122531197.145 7  95478809.35144  23316905.390                    23316901.8274
        43.000          25.1004
 15  7 10  3 34 15.0000000  0 10G07G09G28G30G05G20G27G02G10G13
 109710814.549 8  85488953.73946  20877261.055                    20877257.0364
        49.500          40.8004
 119588986.370 7  93186251.18745  22757016.789                    22757017.6214
        43.700          33.8004
 118740052.011 7  92524717.82845  22595475.890                    22595472.3134
        47.600          33.1004
 106313348.612 8  82841597.55247  20230743.576                    20230741.8334
        52.100          44.3004
 112376685.455 8  87566238.90546  21384566.296                    21384562.0314
        49.900          40.7004
 129999469.088 5 101298284.23642  24738076.543                    24738072.7144
        34.700          17.8004
 132396969.476 6 103166477.96442  25194304.954                    25194307.9874
        38.900          16.3004
 127410045.935 7  99280537.22043  24245325.855                    24245320.5464
        42.200          22.8004
 113969042.508 7  88807044.15946  21687583.409                    21687579.8784
        47.600          36.1004
 122486435.577 7  95443930.22244  23308387.475                    23308384.8104
        43.400          25.9004
 15  7 10  3 34 30.0000000  0 10G07G09G28G30G05G20G27G02G10G13
 109735424.170 8  85508130.05446  20881944.340                    20881939.7094
        49.800          40.6004
 119629262.319 7  93217634.98545  22764680.919                    22764681.6774
        43.900          34.1004
 118694854.353 7  92489498.86145  22586875.433                    22586871.8074
        47.500          33.5004
 106309820.417 8  82838848.29747  20230072.288                    20230070.6964
        51.900          44.2004
 112359731.270 8  87553027.83746  21381340.166                    21381336.4914
        49.100          40.5004
 129949664.832 5 101259475.75243  24728599.297                    24728595.2544
        35.200          18.6004
 132390056.920 6 103161091.55142  25192989.856                    25192992.5034
        38.300          15.6004
 127447967.835 6  99310086.73543  24252541.200                    24252536.4044
        40.000          21.7004
 114011855.083 7  88840404.58445  21695730.374                    21695726.9414
        45.900          35.8004
 122441687.381 7  95409061.51644  23299871.741                    23299869.5644
        44.200          26.8004
 15  7 10  3 34 45.0000000  0 10G07G09G28G30G05G20G27G02G10G13
 109760111.459 8  85527366.88746  20886642.245                    20886637.7654
        50.600          40.4004
 119669589.686 7  93249058.85645  22772355.355                    22772355.1774
        44.600          34.3004
 118649726.527 7  92454334.33745  22578287.404                    22578284.4674
        47.200          33.5004
 106306402.453 8  82836184.93547  20229422.018                    20229420.2254
        52.000          44.4004
 112342914.362 8  87539923.74846  21378139.646                    21378137.0024
        49.200          40.5004
 129899915.823 6 101220710.30542  24719131.768                    24719128.4604
        36.000          17.8004
 132383274.575 6 103155806.59242  25191699.945                    25191702.4094
        39.200          17.4004
 127485931.201 6  99339668.56443  24259765.798                    24259760.2774
        39.900          22.6004
 114054762.060 7  88873838.57746  21703894.846                    21703892.1544
        46.300          36.1004
 122396960.021 7  95374209.02844  23291360.738                    23291358.0594
        43.800          25.8004
 15  7 10  3 35  0.0000000  0 10G07G09G28G30G05G20G27G02G10G13
 109784875.788 8  85546663.74946  20891354.526                    20891350.3004
        50.100          41.0004
 119709968.004 7  93280522.44045  22780039.219                    22780038.9374
        44.000          34.0004
 118604668.457 7  92419224.15945  22569712.988                    22569709.6164
        47.100          33.3004
 106303094.228 8  82833607.09547  20228792.317                    20228790.8324
        51.900          44.1004
 112326234.468 8  87526926.43546  21374965.997                    21374962.4864
        49.100          40.9004
 129850221.901 6 101181987.78743  24709676.053                    24709672.8594
        37.300          18.3004
 132376622.028 6 103150622.76242  25190433.367                    25190436.7764
        37.900          16.9004
 127523935.259 6  99369282.06443  24266997.825                    24266991.9404
        40.400          22.3004
 114097762.836 7  88907345.63945  21712077.841                    21712075.1394
        44.700          35.6004
 122352253.327 7  95339372.64044  23282853.476                    23282850.3344
        43.200          25.5004
 15  7 10  3 35 15.0000000  0 10G07G09G28G30G05G20G27G02G10G13
 109809717.799 8  85566021.14146  20896081.879                    20896077.8124
        51.200          41.1004
 119750397.910 7  93312026.22645  22787733.197                    22787732.6134
        46.200          34.1004
 118559681.322 7  92384169.26445  22561152.397                    22561149.3014
        47.300          32.4004
 106299896.381 8  82831115.25347  20228183.617                    20228182.2394
        53.000          44.1004
 112309692.470 8  87514036.56946  21371818.202                    21371814.7024
        48.900          41.2004
 129800584.309 6 101143309.14143  24700230.456                    24700227.6924
        38.900          20.6004
 132370100.163 6 103145540.76542  25189192.708                    25189195.0404
        37.400          17.8004
 127561980.320 6  99398927.52743  24274237.729                    24274231.0674
        40.200          21.8004
 114140857.692 7  88940926.00845  21720278.416                    21720275.6334
        45.100          35.9004
 122307568.127 7  95304553.02844  23274349.775                    23274347.5394
        42.700          26.2004
 15  7 10  3 35 30.0000000  0 10G07G09G28G30G05G20G27G02G10G13
 109834635.574 8  85585437.56546  20900823.811                    20900819.6524
        49.700          40.6004
 119790877.818 7  93343568.98445  22795436.438                    22795435.5264
        47.300          34.8004
 118514763.927 7  92349168.69445  22552604.816                    22552601.0894
        47.500          32.1004
 106296807.340 8  82828708.20047  20227595.896                    20227594.3964
        51.900          44.5004
 112293287.122 8  87501253.18046  21368696.536                    21368692.6014
        49.300          40.7004
 129751001.630 6 101104673.28543  24690794.988                    24690791.9494
        39.900          21.5004
 132363707.648 6 103140559.58942  25187975.805                    25187978.2524
        37.600          16.9004
 127600064.359 6  99428603.36243  24281484.926                    24281478.4674
        40.200          19.9004
 114184044.933 7  88974578.37846  21728497.182                    21728494.0534
        45.800          36.2004
 122262903.097 7  95269749.10744  23265849.880                    23265847.4264
        42.300          25.6004
 15  7 10  3 35 45.0000000  0 10G07G09G28G30G05G20G27G02G10G13
 109859629.383 8  85604913.26746  20905580.096                    20905575.3984
        49.900          40.7004
 119831408.105 7  93375150.99545  22803149.347                    22803147.8684
        47.600          34.9004
 118469916.892 7  92314222.96645  22544070.542                    22544067.8844
        46.200          32.7004
 106293827.436 8  82826386.18847  20227028.729                    20227027.1704
        52.100          44.5004
 112277019.082 8  87488576.77646  21365600.445                    21365596.4504
        49.300          40.2004
 129701474.716 6 101066080.90443  24681370.134                    24681368.1774
        39.600          22.6004
 132357444.996 6 103135679.60542  25186784.739                    25186786.2484
        39.400          17.8004
 127638187.523 6  99458309.69843  24288738.471                    24288732.8964
        40.300          21.5004
 114227324.502 7  89008302.69846  21736733.038                    21736729.7554
        46.000          36.6004
 122218258.696 7  95234961.28244  23257354.870                    23257351.9534
        42.500          25.6004
 15  7 10  3 36  0.0000000  0 10G07G09G28G30G05G20G27G02G10G13
 109884699.713 8  85624448.57546  20910350.438                    20910346.3484
        50.500          40.2004
 119871989.131 7  93406772.54045  22810871.167                    22810870.5154
        47.100          35.1004
 118425141.178 7  92279332.81945  22535550.449                    22535546.8174
        46.000          31.8004
 106290957.083 8  82824149.53947  20226482.932                    20226481.1004
        50.900          44.5004
 112260888.758 8  87476007.67846  21362531.473                    21362527.0664
        49.500          40.1004
 129652004.290 6 101027532.53043  24671956.938                    24671954.3474
        39.200          22.2004
 132351312.769 6 103130901.25942  25185617.103                    25185619.4734
        39.100          17.8004
 127676349.906 6  99488046.60443  24296001.442                    24295995.9474
        40.500          21.8004
 114270696.743 7  89042099.22946  21744986.625                    21744983.3144
        46.400          36.5004
 122173635.526 7  95200189.96544  23248863.457                    23248859.9254
        42.600          25.4004
 15  7 10  3 36 15.0000000  0 10G07G09G28G30G05G20G27G02G10G13
 109909846.187 8  85644043.21546  20915136.029                    20915131.6904
        50.300          40.5004
 119912620.680 7  93438433.43445  22818603.341                    22818603.0174
        46.700          35.0004
 118380436.857 7  92244498.27145  22527043.563                    22527039.9764
        46.700          32.0004
 106288195.999 8  82821998.03547  20225956.920                    20225955.1924
        51.300          44.4004
 112244896.351 8  87463546.04046  21359487.886                    21359483.3404
        48.800          40.6004
 129602590.435 6 100989028.21543  24662553.619                    24662550.5014
        39.700          22.3004
 132345311.008 6 103126224.52243  25184475.721                    25184476.6084
        38.300          19.0004
 127714551.129 6  99517813.73043  24303271.444                    24303266.0354
        40.800          20.6004
 114314161.225 7  89075967.63146  21753257.778                    21753254.0984
        47.600          36.5004
 122129033.578 7  95165435.20644  23240376.018                    23240373.2054
        42.000          26.5004
 15  7 10  3 36 30.0000000  0 10G07G09G28G30G05G20G27G02G10G13
 109935068.320 8  85663696.82046  20919935.341                    20919931.5824
        50.100          40.6004
 119953302.427 7  93470133.47145  22826344.515                    22826344.5274
        46.000          34.8004
 118335804.107 7  92209719.50745  22518550.014                    22518546.2214
        46.600          32.1004
 106285543.875 8  82819931.43647  20225452.452                    20225450.5574
        51.900          44.6004
 112229041.639 7  87451191.71146  21356470.860                    21356466.3794
        47.700          40.7004
 129553233.520 6 100950568.28643  24653161.065                    24653158.2664
        40.500          22.0004
 132339439.546 6 103121649.34642  25183357.643                    25183359.6294
        37.900          17.8004
 127752790.406 7  99547610.53443  24310548.940                    24310543.0894
        42.400          22.6004
 114357717.348 7  89109907.45146  21761546.259                    21761542.6384
        47.000          36.5004
 122084452.785 6  95130696.93244  23231892.392                    23231889.8284
        40.900          25.8004
 15  7 10  3 36 45.0000000  0 10G07G09G28G30G05G20G27G02G10G13
 109960366.458 8  85683409.63146  20924749.550                    20924745.4274
        51.100          40.4004
 119994034.956 7  93501873.05145  22834096.270                    22834096.0094
        47.000          35.0004
 118291243.739 7  92174997.12545  22510070.594                    22510066.6104
        47.000          31.6004
 106283001.228 8  82817950.14647  20224968.512                    20224967.3844
        51.300          44.2004
 112213325.455 7  87438945.33446  21353480.087                    21353476.3994
        47.100          40.5004
 129503934.356 6 100912153.38043  24643779.261                    24643776.8834
        37.800          22.8004
 132333699.057 6 103117176.26543  25182266.621                    25182267.2844
        38.600          18.3004
 127791068.187 6  99577437.35143  24317831.652                    24317826.8104
        41.100          22.3004
 114401365.475 7  89143918.96246  21769851.868                    21769848.9874
        46.600          36.3004
 122039893.752 6  95095975.60244  23223412.759                    23223410.7454
        41.600          26.7004
 15  7 10  3 37  0.0000000  0 10G07G09G28G30G05G20G27G02G10G13
 109985739.697 8  85703180.97346  20929577.926                    20929573.7194
        49.100          40.8004
 120034817.243 7  93533651.42045  22841856.180                    22841856.3444
        44.300          34.4004
 118246755.200 7  92140330.72445  22501604.429                    22501600.8994
        47.000          31.6004
 106280567.128 8  82816053.43447  20224505.657                    20224503.8824
        51.900          44.2004
 112197747.196 7  87426806.41846  21350515.878                    21350512.5504
        47.300          40.9004
 129454692.383 6 100873783.01843  24634409.251                    24634406.5524
        37.900          22.2004
 132328088.841 6 103112804.68342  25181197.283                    25181199.9084
        37.900          17.4004
 127829383.012 6  99607293.00643  24325122.671                    24325117.7874
        40.700          22.5004
 114445104.423 7  89178001.23446  21778175.577                    21778171.6474
        46.300          36.8004
 121995355.886 7  95061270.76944  23214937.739                    23214934.9874
        42.300          25.6004
 15  7 10  3 37 15.0000000  0 10G07G09G28G30G05G20G27G02G10G13
 110011188.689 8  85723011.35546  20934420.555                    20934416.6994
        49.900          40.9004
 120075650.245 7  93565469.30245  22849626.410                    22849626.7774
        45.000          34.9004
 118202339.860 7  92105721.36145  22493152.353                    22493147.9464
        46.200          31.3004
 106278242.461 8  82814242.00247  20224063.309                    20224061.6454
        51.700          44.4004
 112182307.817 8  87414775.73147  21347577.900                    21347574.3944
        48.300          42.0004
 129405508.597 6 100835458.04343  24625049.409                    24625047.0334
        38.600          21.3004
 132322609.947 6 103108535.41342  25180155.415                    25180156.9664
        38.300          17.4004
 127867735.467 6  99637178.02743  24332421.652                    24332416.6674
        39.000          22.3004
 114488934.856 7  89212154.80646  21786516.170                    21786512.9484
        46.400          36.4004
 121950840.157 6  95026583.18244  23206466.981                    23206463.5984
        41.000          25.3004
 15  7 10  3 37 30.0000000  0 10G07G09G28G30G05G20G27G02G10G13
 110036712.584 8  85742900.08046  20939277.883                    20939273.7404
        49.300          40.6004
 120116533.186 7  93597326.08045  22857406.578                    22857406.0654
        43.200          34.5004
 118157997.328 7  92071168.74245  22484714.809                    22484710.6464
        44.800          32.3004
 106276026.414 8  82812515.20647  20223641.397                    20223639.8414
        52.300          44.5004
 112167006.913 8  87402852.93946  21344666.233                    21344663.0784
        48.600          41.8004
 129356382.954 6 100797178.26543  24615701.274                    24615698.1804
        37.000          20.6004
 132317261.864 6 103104368.05742  25179137.538                    25179137.7324
        37.800          17.8004
 127906124.612 6  99667091.59943  24339726.539                    24339721.2994
        39.200          21.7004
 114532855.847 7  89246378.92745  21794873.639                    21794870.4384
        46.400          35.3004
 121906346.096 7  94991912.50344  23198000.441                    23197997.1304
        42.600          25.8004
 15  7 10  3 37 45.0000000  0 10G07G09G28G30G05G20G27G02G10G13
 110062311.952 8  85762847.63046  20944149.207                    20944145.6804
        50.000          41.2004
 120157466.631 7  93629222.21845  22865195.360                    22865196.1014
        45.200          34.5004
 118113728.636 7  92036673.65345  22476290.043                    22476286.5164
        45.200          32.6004
 106273919.651 8  82810873.55447  20223240.622                    20223238.7354
        51.900          44.2004
 112151845.232 8  87391038.63546  21341781.324                    21341778.0394
        48.500          41.3004
 129307316.410 6 100758944.58543  24606363.955                    24606360.7314
        38.000          19.6004
 132312045.354 6 103100303.22043  25178145.280                    25178145.5474
        36.600          18.3004
 127944550.614 6  99697033.92943  24347038.891                    24347033.7054
        36.100          20.6004
 114576867.814 7  89280673.93845  21803248.537                    21803245.7424
        45.600          34.4004
 121861874.457 7  94957259.27644  23189538.024                    23189534.0384
        42.800          26.5004
 15  7 10  3 38  0.0000000  0 10G07G09G28G30G05G20G27G02G10G13
 110087986.044 8  85782853.38346  20949034.927                    20949031.0324
        50.800          40.8004
 120198450.144 7  93661157.38345  22872994.963                    22872994.7854
        46.500          35.5004
 118069533.543 7  92002235.92845  22467880.354                    22467876.1194
        45.300          31.7004
 106271921.657 8  82809316.66447  20222860.466                    20222858.9934
        50.800          44.5004
 112136822.584 8  87379332.66046  21338922.505                    21338918.4254
        48.400          41.1004
 129258308.879 6 100720756.91743  24597037.579                    24597035.3704
        37.200          18.6004
 132306960.140 6 103096340.70742  25177177.700                    25177177.8044
        37.700          16.9004
 127983012.793 6  99727004.44343  24354357.550                    24354351.8304
        37.500          21.1004
 114620970.011 7  89315039.25945  21811640.894                    21811638.7264
        45.500          34.9004
 121817424.824 7  94922623.19444  23181079.443                    23181075.6384
        43.500          27.7004
 15  7 10  3 38 15.0000000  0 10G07G09G28G30G05G20G27G02G10G13
 110113734.509 8  85802917.11246  20953934.643                    20953930.6224
        51.200          40.7004
 120239483.444 7  93693131.32246  22880803.055                    22880803.5734
        46.700          36.0004
 118025412.218 7  91967855.69545  22459484.033                    22459480.7524
        44.900          32.4004
 106270032.152 8  82807844.31347  20222500.953                    20222499.3394
        51.500          45.1004
 112121938.898 7  87367734.98246  21336089.914                    21336085.6834
        47.500          40.5004
 129209360.408 6 100682615.23443  24587723.050                    24587720.4904
        36.700          19.0004
 132302006.091 6 103092480.41842  25176234.526                    25176234.1534
        37.300          17.4004
 128021510.602 6  99757002.70443  24361682.578                    24361678.0844
        38.400          19.9004
 114665161.950 7  89349474.50945  21820050.352                    21820047.4874
        45.100          34.7004
 121772997.454 7  94888004.44544  23172624.924                    23172621.0924
        43.200          28.7004
 15  7 10  3 38 30.0000000  0 10G07G09G28G30G05G20G27G02G10G13
 110139557.338 8  85823038.78346  20958848.316                    20958844.4814
        49.000          40.9004
 120280566.601 7  93725144.13945  22888621.532                    22888621.4534
        45.600          34.9004
 117981365.268 7  91933533.40445  22451102.197                    22451098.6584
        46.000          32.5004
 106268251.171 8  82806456.52947  20222161.918                    20222160.1114
        51.200          44.8004
 112107194.569 7  87356245.88646  21333283.960                    21333279.2914
        47.900          39.9004
 129160471.572 6 100644520.05543  24578419.805                    24578416.7714
        36.100          20.4004
 132297183.461 6 103088722.50742  25175317.238                    25175316.2754
        36.100          17.8004
 128060043.843 6  99787028.56943  24369015.994                    24369010.2724
        38.700          21.3004
 114709443.508 7  89383979.59245  21828477.129                    21828474.2094
        45.600          34.8004
 121728592.425 7  94853403.11844  23164174.886                    23164171.6284
        42.500          28.3004
 15  7 10  3 38 45.0000000  0 10G07G09G28G30G05G20G27G02G10G13
 110165454.778 8  85843218.59246  20963776.164                    20963772.8834
        49.600          40.4004
 120321699.978 7  93757196.07945  22896448.736                    22896448.8314
        45.300          34.6004
 117937393.371 7  91899269.61045  22442734.445                    22442731.9664
        45.200          33.3004
 106266579.078 8  82805153.59347  20221843.683                    20221841.9334
        52.200          44.4004
 112092590.046 8  87344865.73246  21330504.519                    21330500.5504
        49.300          40.5004
 129111643.131 5 100606471.95443  24569128.726                    24569124.7574
        35.900          19.3004
 132292492.856 5 103085067.50342  25174424.911                    25174423.1324
        35.800          15.6004
 128098612.393 6  99817081.94043  24376355.153                    24376350.0154
        40.400          21.7004
 114753814.810 7  89418554.60545  21836921.120                    21836918.1214
        45.900          35.5004
 121684210.293 7  94818819.64344  23155729.154                    23155726.1324
        43.400          28.5004
 15  7 10  3 39  0.0000000  0 10G07G09G28G30G05G20G27G02G10G13
 110191425.153 8  85863455.22046  20968718.660                    20968714.6804
        49.300          40.7004
 120362881.939 7  93789285.86945  22904285.275                    22904285.2084
        46.400          34.9004
 117893495.362 7  91865063.38845  22434380.729                    22434377.6874
        45.700          33.1004
 106265014.241 8  82803934.22247  20221545.740                    20221544.1444
        52.100          44.6004
 112078124.051 8  87333593.52146  21327752.242                    21327747.8734
        48.900          40.9004
 129062873.887 6 100568469.91943  24559848.008                    24559844.6294
        36.700          19.3004
 132287932.779 5 103081514.17742  25173557.067                    25173555.4794
        35.900          17.4004
 128137214.457 6  99847161.43043  24383700.918                    24383696.5854
        41.400          22.8004
 114798273.905 7  89453198.03445  21845381.176                    21845378.1854
        46.000          34.9004
 121639849.716 7  94784252.97144  23147287.676                    23147284.6234
        42.200          27.5004
 15  7 10  3 39 15.0000000  0 10G07G09G28G30G05G20G27G02G10G13
 110217469.714 8  85883749.66146  20973674.549                    20973670.7524
        49.000          40.8004
 120404113.932 7  93821414.64845  22912131.271                    22912131.0884
        45.200          34.2004
 117849672.851 7  91830915.96445  22426042.140                    22426038.9994
        46.900          32.8004
 106263558.065 8  82802799.53947  20221268.599                    20221266.8504
        52.000          44.5004
 112063798.261 8  87322430.55846  21325026.081                    21325022.2534
        49.100          41.1004
 129014165.527 6 100530515.39243  24550579.393                    24550575.7694
        37.100          19.0004
 132283504.880 6 103078063.87942  25172713.758                    25172713.4814
        36.000          16.3004
 128175851.178 6  99877267.94943  24391052.875                    24391049.1234
        40.300          22.8004
 114842822.128 7  89487910.90945  21853858.495                    21853855.0834
        45.500          35.8004
 121595512.344 7  94749704.38644  23138850.759                    23138848.2414
        42.700          28.6004
 15  7 10  3 39 30.0000000  0 10G07G09G28G30G05G20G27G02G10G13
 110243588.705 8  85904102.11146  20978644.854                    20978641.1064
        49.800          40.8004
 120445396.200 7  93853582.59745  22919987.493                    22919987.1794
        45.800          33.6004
 117805926.540 7  91796827.93345  22417717.691                    22417713.7094
        46.700          33.2004
 106262210.801 8  82801749.70647  20221012.333                    20221010.7194
        51.100          44.3004
 112049613.078 8  87311377.15546  21322326.953                    21322323.5494
        49.400          41.5004
 128965518.786 6 100492608.81743  24541322.201                    24541318.5164
        36.900          19.0004
 132279209.525 5 103074716.83342  25171896.372                    25171896.0124
        35.200          16.3004
 128214522.483 6  99907401.39843  24398412.139                    24398408.2294
        40.700          21.8004
 114887459.390 7  89522693.17745  21862352.701                    21862349.2734
        45.500          35.4004
 121551198.544 7  94715174.13544  23130417.987                    23130414.6344
        42.600          27.9004
 15  7 10  3 39 45.0000000  0 10G07G09G28G30G05G20G27G02G10G13
 110269780.736 8  85924511.46446  20983629.152                    20983625.2404
        48.700          40.3004
 120486727.508 7  93885788.77245  22927852.580                    22927852.8064
        45.500          34.4004
 117762255.741 7  91762798.74145  22409407.271                    22409403.2494
        45.900          32.2004
 106260971.221 8  82800783.79147  20220776.541                    20220774.7634
        52.100          44.8004
 112035567.614 8  87300432.63146  21319654.272                    21319650.9034
        48.200          41.5004
 128916932.647 6 100454749.50343  24532076.951                    24532072.6814
        37.100          18.6004
 132275045.780 5 103071472.37442  25171103.290                    25171104.5954
        35.500          14.8004
 128253226.862 6  99937560.57943  24405777.142                    24405772.9674
        40.900          22.0004
 114932184.298 7  89557543.74245  21870864.100                    21870860.6274
        46.600          35.6004
 121506907.369 7  94680661.53744  23121989.823                    23121986.1674
        43.000          28.0004
 15  7 10  3 40  0.0000000  0 10G07G09G28G30G05G20G27G02G10G13
 110296046.614 8  85944978.35746  20988627.444                    20988622.9574
        50.100          40.3004
 120528108.823 7  93918033.91045  22935727.103                    22935727.0284
        47.000          35.1004
 117718661.786 7  91728829.41145  22401111.936                    22401107.7744
        47.300          31.5004
 106259840.265 8  82799902.51847  20220561.477                    20220559.7034
        52.400          44.2004
 112021662.942 8  87289597.81946  21317008.076                    21317005.0174
        49.200          41.7004
 128868408.871 6 100416938.76143  24522842.292                    24522839.2364
        36.600          19.6004
 132271014.616 6 103068331.23242  25170336.604                    25170337.1454
        36.300          16.3004
 128291964.973 6  99967746.10943  24413148.446                    24413145.0394
        39.700          21.8004
 114976997.647 7  89592463.21145  21879391.239                    21879388.1394
        46.400          35.6004
 121462640.034 6  94646167.49544  23113565.826                    23113562.3414
        41.300          26.8004
 15  7 10  3 40 15.0000000  0 10G07G09G28G30G05G20G27G02G10G13
 110322384.499 8  85965501.37446  20993639.099                    20993635.3914
        50.400          39.8004
 120569538.501 7  93950316.73845  22943611.074                    22943611.5524
        46.400          34.9004
 117675143.381 7  91694918.97345  22392830.491                    22392826.3474
        47.400          31.9004
 106258816.286 8  82799104.61047  20220366.374                    20220364.9134
        51.900          43.9004
 112007897.660 8  87278871.62646  21314388.148                    21314385.2874
        49.800          41.1004
 128819945.864 6 100379175.38843  24513620.228                    24513617.3804
        38.000          19.0004
 132267114.760 5 103065292.34942  25169595.592                    25169594.5654
        35.700          16.9004
 128330734.878 6  99997956.36043  24420527.825                    24420523.2824
        39.000          20.9004
 115021897.541 7  89627450.11945  21887935.813                    21887932.2544
        46.500          35.6004
 121418394.956 6  94611690.82244  23105146.059                    23105142.5784
        41.700          27.2004
 15  7 10  3 40 30.0000000  0 10G07G09G28G30G05G20G27G02G10G13
 110348795.620 8  85986081.43946  20998664.879                    20998661.5634
        48.900          40.3004
 120611017.789 7  93982638.21845  22951503.630                    22951504.5354
        44.300          34.1004
 117631702.211 7  91661068.69245  22384564.055                    22384559.1334
        45.900          32.3004
 106257900.459 8  82798390.96847  20220192.464                    20220190.6104
        51.600          44.9004
 111994273.298 8  87268255.23546  21311795.858                    21311792.3814
        49.000          40.5004
 128771545.428 6 100341460.80943  24504410.142                    24504407.0904
        38.900          18.3004
 132263347.452 5 103062356.80842  25168878.133                    25168878.8434
        35.900          16.9004
 128369537.493 6 100028192.14243  24427911.125                    24427906.6474
        38.100          20.6004
 115066884.988 7  89662505.24745  21896496.207                    21896493.0594
        46.400          34.9004
 121374173.782 6  94577232.74044  23096730.930                    23096727.2994
        41.700          27.1004
 15  7 10  3 40 45.0000000  0 10G07G09G28G30G05G20G27G02G10G13
 110375279.695 8  86006718.36246  21003704.194                    21003701.2264
        49.900          39.7004
 120652546.302 7  94014998.04245  22959406.913                    22959407.1754
        45.800          33.6004
 117588338.153 7  91627278.51245  22376311.876                    22376307.7114
        45.700          30.8004
 106257092.463 8  82797761.35047  20220038.473                    20220037.1564
        51.200          44.4004
 111980789.632 8  87257748.47246  21309230.303                    21309226.5744
        49.600          41.2004
 128723207.553 6 100303794.94543  24495211.827                    24495209.1714
        37.500          18.6004
 132259712.618 6 103059524.48042  25168186.303                    25168187.6224
        36.900          16.3004
 128408372.202 6 100058452.92143  24435301.463                    24435296.2744
        39.500          21.8004
 115111959.378 7  89697628.12445  21905073.307                    21905071.1204
        46.300          35.3004
 121329976.145 6  94542793.03644  23088320.816                    23088317.5464
        41.600          27.1004
 15  7 10  3 41  0.0000000  0 10G07G09G28G30G05G20G27G02G10G13
 110401836.153 8  86027411.68746  21008758.461                    21008754.7194
        48.500          39.9004
 120694123.822 7  94047396.06145  22967318.576                    22967318.5364
        44.100          33.8004
 117545051.448 7  91593548.62545  22368074.445                    22368070.4214
        46.200          31.2004
 106256392.012 8  82797215.53647  20219905.345                    20219903.7504
        50.200          44.8004
 111967446.731 8  87247351.38546  21306691.376                    21306687.6804
        49.800          40.9004
 128674932.305 6 100266177.89343  24486024.947                    24486021.8224
        37.200          19.6004
 132256210.127 6 103056795.33642  25167520.123                    25167520.1924
        36.400          16.9004
 128447238.419 6 100088738.26243  24442697.014                    24442691.8094
        40.600          22.5004
 115157120.243 7  89732818.38445  21913667.294                    21913664.5024
        45.000          35.0004
 121285802.132 6  94508371.73944  23079914.327                    23079911.2674
        41.800          27.0004
 15  7 10  3 41 15.0000000  0 10G07G09G28G30G05G20G27G02G10G13
 110428465.470 8  86048161.77246  21013825.908                    21013822.0654
        48.700          39.8004
 120735750.838 7  94079832.64145  22975240.116                    22975240.1054
        44.800          32.9004
 117501842.948 7  91559879.67445  22359851.928                    22359848.7824
        45.800          31.8004
 106255799.624 8  82796753.91947  20219792.626                    20219790.9154
        50.900          44.9004
 111954245.189 8  87237064.46446  21304178.823                    21304174.6304
        49.500          40.8004
 128626720.827 6 100228610.51843  24476850.791                    24476847.6914
        38.800          20.1004
 132252840.644 6 103054169.71842  25166878.449                    25166879.4014
        36.500          17.8004
 128486136.429 6 100119048.34743  24450099.162                    24450094.0354
        39.200          21.5004
 115202367.886 7  89768076.26345  21922277.490                    21922275.0094
        44.900          34.9004
 121241652.396 7  94473969.35044  23071513.440                    23071510.3374
        43.600          27.7004
 15  7 10  3 41 30.0000000  0 10G07G09G28G30G05G20G27G02G10G13
 110455166.635 8  86068967.85646  21018906.638                    21018903.4454
        49.300          39.8004
 120777426.596 7  94112307.22045  22983170.366                    22983170.5134
        46.200          34.0004
 117458712.322 7  91526271.40945  22351644.011                    22351641.6054
        45.700          32.1004
 106255314.498 8  82796375.89147  20219700.315                    20219698.3964
        52.100          44.6004
 111941184.534 8  87226887.32746  21301693.692                    21301689.6924
        49.800          40.6004
 128578572.592 6 100191092.43643  24467688.128                    24467685.3894
        39.400          21.3004
 132249603.607 6 103051647.33243  25166262.049                    25166263.7534
        37.500          18.3004
 128525065.111 6 100149382.33743  24457506.957                    24457501.6484
        40.700          22.3004
 115247701.283 7  89803400.95345  21930904.710                    21930901.6124
        44.200          34.1004
 121197526.384 7  94439585.44044  23063116.691                    23063113.1724
        43.800          27.0004
 15  7 10  3 41 45.0000000  0 10G07G09G28G30G05G20G27G02G10G13
 110481939.147 8  86089829.52546  21024001.138                    21023997.9544
        49.300          39.4004
 120819150.640 7  94144819.40745  22991110.735                    22991110.4604
        46.700          33.4004
 117415659.607 7  91492723.86245  22343451.582                    22343449.0354
        46.200          33.3004
 106254936.176 8  82796081.08447  20219628.404                    20219626.4114
        52.400          44.7004
 111928264.684 8  87216819.89546  21299235.118                    21299231.3844
        50.000          41.1004
 128530487.626 6 100153623.66143  24458538.878                    24458534.9264
        40.000          21.5004
 132246498.772 6 103049228.01642  25165672.159                    25165673.6804
        37.300          17.8004
 128564023.707 7 100179739.65843  24464920.274                    24464915.7024
        42.300          22.3004
 115293119.860 7  89838792.02245  21939547.608                    21939544.4544
        44.900          34.3004
 121153423.934 7  94405219.90844  23054724.027                    23054721.0204
        43.900          28.6004
 15  7 10  3 42  0.0000000  0 10G07G09G28G30G05G20G27G02G10G13
 110508784.678 8  86110748.09646  21029110.318                    21029106.2154
        48.500          39.0004
 120860924.686 7  94177370.56645  22999060.375                    22999059.9334
        46.700          33.4004
 117372686.699 7  91459238.48945  22335274.215                    22335271.6754
        46.400          33.7004
 106254666.341 8  82795870.80847  20219576.962                    20219574.9764
        52.100          44.4004
 111915487.445 8  87206863.58846  21296803.707                    21296800.4534
        49.000          41.2004
 128482468.007 6 100116205.76043  24449400.871                    24449396.7594
        40.900          21.3004
 132243527.897 6 103046913.04342  25165107.089                    25165108.8824
        37.000          17.4004
 128603013.618 7 100210121.39343  24472340.019                    24472335.5404
        42.100          22.9004
 115338625.064 7  89874250.58945  21948206.849                    21948203.6024
        44.300          33.9004
 121109346.990 7  94370874.23944  23046336.451                    23046333.0824
        43.900          28.9004
 15  7 10  3 42 15.0000000  0 10G07G09G28G30G05G20G27G02G10G13
 110535700.627 8  86131721.54746  21034232.055                    21034228.2214
        48.700          40.0004
 120902746.284 7  94209958.78645  23007018.661                    23007018.0994
        45.000          33.9004
 117329791.670 7  91425813.81545  22327112.125                    22327108.8254
        46.900          34.9004
 106254502.555 8  82795743.17147  20219545.663                    20219543.8334
        52.200          44.5004
 111902850.652 8  87197016.74446  21294399.112                    21294395.7244
        49.100          41.4004
 128434511.689 6 100078837.22543  24440275.496                    24440271.3824
        40.500          21.7004
 132240688.851 6 103044700.78642  25164566.723                    25164569.3904
        37.300          16.9004
 128642032.128 6 100240525.37543  24479764.699                    24479760.6804
        41.300          22.2004
 115384214.191 7  89909774.56145  21956882.134                    21956878.3414
        44.600          34.1004
 121065293.263 7  94336546.66144  23037953.201                    23037949.8104
        43.700          27.0004
 15  7 10  3 42 30.0000000  0 10G07G09G28G30G05G20G27G02G10G13
 110562688.095 8  86152750.71846  21039367.378                    21039363.3684
        48.700          39.5004
 120944616.627 7  94242584.97945  23014986.321                    23014986.1094
        45.200          33.6004
 117286976.102 8  91392451.04345  22318964.591                    22318961.7064
        48.100          34.8004
 106254445.962 8  82795699.06247  20219534.919                    20219533.1914
        52.000          44.3004
 111890355.570 8  87187280.31046  21292021.204                    21292018.1494
        50.300          41.0004
 128386620.199 6 100041519.17843  24431162.129                    24431157.9264
        41.100          22.2004
 132237982.878 6 103042592.28042  25164051.649                    25164053.3824
        36.900          17.8004
 128681080.180 6 100270952.39843  24487195.118                    24487190.7614
        41.900          22.0004
 115429888.290 7  89945364.73345  21965573.370                    21965569.9804
        45.300          33.7004
 121021264.171 7  94302238.28444  23029574.619                    23029571.1404
        43.700          26.9004
 15  7 10  3 42 45.0000000  0 10G07G09G28G30G05G20G27G02G10G13
 110589746.325 8  86173835.03146  21044516.999                    21044512.6134
        48.700          39.5004
 120986535.064 7  94275248.64645  23022963.363                    23022962.8284
        46.200          33.5004
 117244239.749 7  91359150.00345  22310832.429                    22310828.8344
        46.600          34.7004
 106254495.955 8  82795738.01247  20219544.621                    20219542.6784
        51.600          44.5004
 111878001.749 8  87177653.96046  21289670.455                    21289666.7944
        48.900          41.0004
 128338793.220 6 100004251.40743  24422060.715                    24422056.2314
        40.900          22.3004
 132235409.471 6 103040586.99543  25163561.196                    25163564.5494
        37.900          18.3004
 128720156.732 6 100301401.61743  24494631.680                    24494627.2264
        41.100          22.0004
 115475646.432 7  89981020.41845  21974281.078                    21974277.0224
        45.800          33.6004
 120977259.231 7  94267948.71344  23021201.153                    23021196.9124
        43.400          27.6004
 15  7 10  3 43  0.0000000  0 10G07G09G28G30G05G20G27G02G10G13
 110616876.725 7  86194975.58746  21049679.224                    21049675.2594
        47.900          39.7004
 121028503.077 7  94307950.95045  23030949.663                    23030949.3214
        45.800          33.4004
 117201584.346 7  91325912.02245  22302715.069                    22302711.3474
        46.800          34.4004
 106254653.931 8  82795861.10047  20219574.442                    20219572.7174
        51.200          44.5004
 111865791.059 8  87168139.13046  21287346.609                    21287343.6304
        49.600          40.6004
 128291032.771 6  99967035.48343  24412972.112                    24412968.0964
        40.500          22.0004
 132232970.375 6 103038686.42843  25163097.363                    25163100.8614
        36.500          18.3004
 128759263.103 6 100331874.08443  24502073.275                    24502068.7824
        40.500          21.3004
 115521489.903 7  90016742.57645  21983005.189                    21983001.2134
        46.200          34.0004
 120933280.212 7  94233679.32244  23012832.306                    23012828.3674
        43.000          26.8004
 15  7 10  3 43 15.0000000  0 10G07G09G28G30G05G20G27G02G10G13
 110644077.461 8  86216170.95246  21054855.649                    21054851.3934
        50.300          39.9004
 121070519.012 7  94340690.59245  23038944.992                    23038944.1434
        46.500          33.7004
 117159008.658 7  91292736.15945  22294613.342                    22294609.0934
        46.400          33.5004
 106254918.215 8  82796067.02147  20219625.042                    20219623.4744
        50.600          44.4004
 111853721.849 8  87158734.54746  21285050.352                    21285046.3104
        50.300          40.6004
 128243337.676 6  99929870.49543  24403896.356                    24403892.3284
        38.700          21.3004
 132230664.044 6 103036889.30043  25162659.356                    25162662.1774
        36.300          19.0004
 128798397.309 6 100362368.24643  24509520.173                    24509515.9534
        41.100          20.6004
 115567416.804 7  90052529.75845  21991745.058                    21991740.5134
        45.800          34.5004
 120889325.696 6  94199429.04244  23004467.134                    23004463.6954
        41.900          25.8004
 15  7 10  3 43 30.0000000  0 10G07G09G28G30G05G20G27G02G10G13
 110671348.528 8  86237421.11346  21060045.043                    21060041.0604
        48.800          39.7004
 121112582.915 7  94373467.61145  23046949.438                    23046949.0734
        45.100          33.9004
 117116513.154 7  91259622.77245  22286526.700                    22286522.4514
        45.200          31.9004
 106255288.873 8  82796355.83947  20219695.465                    20219693.8754
        50.500          44.7004
 111841794.513 8  87149440.50546  21282780.722                    21282776.0124
        50.900          40.9004
 128195708.371 6  99892756.76643  24394832.889                    24394829.1284
        39.200          21.5004
 132228490.638 6 103035195.73342  25162245.133                    25162248.3794
        37.000          17.8004
 128837559.038 7 100392883.83343  24516973.150                    24516968.1404
        42.600          21.7004
 115613426.978 7  90088381.82645  22000500.524                    22000496.4334
        46.300          34.0004
 120845395.899 7  94165198.02544  22996108.433                    22996104.4024
        42.600          28.2004
 15  7 10  3 43 45.0000000  0 10G07G09G28G30G05G20G27G02G10G13
 110698690.583 8  86258726.59246  21065248.271                    21065243.8124
        48.300          40.1004
 121154695.599 7  94406282.65145  23054963.468                    23054962.7944
        45.300          33.6004
 117074099.017 7  91226572.78845  22278455.339                    22278451.1484
        45.100          31.4004
 106255766.629 8  82796728.11147  20219786.515                    20219784.6924
        50.800          44.5004
 111830010.072 8  87140257.80446  21280538.129                    21280533.8634
        49.200          41.0004
 128148145.811 6  99855695.05943  24385781.656                    24385778.1734
        38.500          22.0004
 132226451.213 6 103033606.56543  25161857.190                    25161860.1894
        36.500          19.3004
 128876748.873 6 100423421.35143  24524430.486                    24524425.2584
        41.200          21.3004
 115659520.938 7  90124299.17645  22009271.556                    22009268.0164
        46.300          34.0004
 120801491.781 7  94130987.02644  22987753.540                    22987749.3004
        42.200          27.1004
 15  7 10  3 44  0.0000000  0 10G07G09G28G30G05G20G27G02G10G13
 110726102.630 8  86280086.60946  21070465.069                    21070460.6414
        50.300          39.9004
 121196856.107 7  94439134.94845  23062985.757                    23062985.7284
        45.400          33.6004
 117031765.792 7  91193585.84745  22270399.097                    22270395.4814
        46.000          30.7004
 106256350.642 8  82797183.16447  20219897.679                    20219895.4114
        51.200          44.4004
 111818367.657 8  87131185.78746  21278322.405                    21278318.7354
        49.700          41.0004
 128100649.665 6  99818685.09043  24376742.900                    24376739.8014
        38.400          21.8004
 132224544.869 6 103032121.12843  25161495.652                    25161497.7254
        37.300          19.0004
 128915965.488 6 100453979.73243  24531892.523                    24531889.1214
        40.500          21.5004
 115705697.521 7  90160280.90645  22018058.840                    22018055.7934
        45.800          34.9004
 120757612.726 7  94096795.55844  22979403.185                    22979399.6034
        42.400          27.5004
 15  7 10  3 44 15.0000000  0 10G07G09G28G30G05G20G27G02G10G13
 110753584.822 8  86301501.27946  21075694.425                    21075690.1344
        50.000          39.7004
 121239064.714 7  94472024.73045  23071017.838                    23071017.5074
        44.700          33.3004
 116989514.027 7  91160662.40244  22262358.225                    22262354.3204
        45.000          29.4004
 106257041.074 8  82797721.15947  20220029.018                    20220027.2594
        51.500          44.7004
 111806867.927 8  87122224.95846  21276134.322                    21276130.6824
        49.500          41.0004
 128053220.641 6  99781727.44943  24367717.480                    24367714.3154
        39.300          21.8004
 132222772.210 6 103030739.82843  25161157.171                    25161160.5214
        38.000          19.3004
 128955208.999 6 100484559.07443  24539360.639                    24539355.8554
        40.900          21.1004
 115751956.844 7  90196327.09945  22026861.323                    22026858.0464
        44.700          34.5004
 120713758.871 7  94062623.72744  22971058.215                    22971054.8834
        42.400          27.3004
 15  7 10  3 44 30.0000000  0 10G07G09G28G30G05G20G27G02G10G13
 110781136.986 8  86322970.48546  21080937.638                    21080933.2244
        49.100          40.1004
 121281321.355 7  94504951.92745  23079059.142                    23079058.5094
        43.900          32.6004
 116947343.966 7  91127802.63844  22254334.192                    22254330.4334
        44.500          29.9004
 106257837.837 8  82798341.99847  20220180.556                    20220178.6484
        51.200          44.4004
 111795511.016 8  87113375.41046  21273972.953                    21273969.3374
        50.200          41.0004
 128005859.019 6  99744822.30543  24358705.210                    24358702.1344
        38.400          21.5004
 132221133.123 6 103029462.65043  25160845.240                    25160848.3004
        37.000          19.9004
 128994478.931 6 100515158.98043  24546833.181                    24546828.5994
        40.600          20.6004
 115798298.642 7  90232437.56845  22035679.502                    22035677.0564
        45.300          34.3004
 120669930.823 7  94028472.00744  22962717.733                    22962713.9614
        42.100          27.4004
 15  7 10  3 44 45.0000000  0 10G07G09G28G30G05G20G27G02G10G13
 110808759.724 8  86344494.68546  21086193.908                    21086189.4904
        49.300          39.9004
 121323626.718 7  94537917.09145  23087109.836                    23087109.5274
        45.100          33.4004
 116905256.898 7  91095007.51645  22246325.342                    22246322.3354
        44.100          31.8004
 106258741.670 8  82799046.27347  20220352.556                    20220351.0354
        50.700          44.5004
 111784297.867 8  87104637.89146  21271839.047                    21271835.6324
        49.900          41.2004
 127958565.943 6  99707970.57643  24349705.111                    24349702.2334
        37.900          22.8004
 132219628.579 6 103028290.27743  25160558.636                    25160562.2754
        36.900          18.6004
 129033775.699 6 100545779.80543  24554310.793                    24554306.6734
        41.100          20.6004
 115844723.417 7  90268612.67445  22044514.203                    22044511.7504
        44.300          34.7004
 120626129.431 7  93994341.05344  22954382.787                    22954379.2104
        43.000          27.4004
 15  7 10  3 45  0.0000000  0 10G07G09G28G30G05G20G27G02G10G13
 110836450.717 8  86366072.05746  21091463.097                    21091459.0404
        50.000          40.1004
 121365978.712 7  94570918.59545  23095169.228                    23095169.2394
        45.400          33.3004
 116863250.956 7  91062275.63345  22238331.946                    22238328.7094
        46.100          33.3004
 106259750.352 8  82799832.24747  20220544.424                    20220542.9164
        50.200          44.4004
 111773226.507 8  87096010.84646  21269732.394                    21269728.9994
        50.800          41.8004
 127911339.626 6  99671170.88043  24340718.672                    24340715.1694
        38.500          22.0004
 132218256.595 6 103027221.21443  25160297.143                    25160300.0224
        37.900          18.6004
 129073096.984 6 100576419.68243  24561795.027                    24561788.8414
        39.400          18.6004
 115891228.673 7  90304850.50945  22053363.683                    22053361.2914
        43.700          33.4004
 120582352.771 7  93960229.36644  22946052.491                    22946049.0874
        43.800          28.7004
 15  7 10  3 45 15.0000000  0 10G07G09G28G30G05G20G27G02G10G13
 110864211.466 8  86387703.78846  21096745.924                    21096741.9064
        49.100          39.4004
 121408378.937 7  94603957.67645  23103237.410                    23103237.7824
        44.900          32.6004
 116821328.164 7  91029608.54245  22230354.583                    22230351.6404
        47.600          34.8004
 106260865.531 8  82800701.20947  20220756.730                    20220755.1144
        52.000          44.7004
 111762298.790 8  87087495.72546  21267653.112                    21267649.6054
        51.500          41.5004
 127864182.048 6  99634424.74543  24331744.744                    24331741.5834
        36.900          22.0004
 132217018.960 6 103026256.79142  25160062.117                    25160064.0784
        37.500          17.4004
 129112444.043 6 100607079.72543  24569280.776                    24569276.4394
        39.600          19.3004
 115937815.884 7  90341152.18545  22062229.082                    22062226.5594
        44.900          34.2004
 120538602.695 7  93926138.39644  22937727.446                    22937723.7524
        43.600          29.4004
 15  7 10  3 45 30.0000000  0 10G07G09G28G30G05G20G27G02G10G13
 110892041.124 8  86409389.21546  21102041.969                    21102037.5404
        49.900          39.7004
 121450826.525 7  94637033.66045  23111315.126                    23111315.0574
        45.600          33.4004
 116779488.181 8  90997005.95946  22222392.758                    22222389.6984
        48.300          36.2004
 106262086.362 8  82801652.48847  20220989.157                    20220987.3454
        51.200          44.9004
 111751513.900 8  87079091.90646  21265600.774                    21265596.5264
        50.900          41.7004
 127817092.721 6  99597731.77843  24322783.584                    24322780.7864
        36.600          20.6004
 132215914.910 6 103025396.50843  25159851.435                    25159854.1874
        38.300          18.6004
 129151815.661 6 100637758.86043  24576774.018                    24576769.0584
        40.500          19.9004
 115984483.989 7  90377516.89745  22071110.425                    22071107.4224
        44.200          33.2004
 120494878.470 7  93892067.58044  22929406.991                    22929403.5734
        44.000          29.0004
 15  7 10  3 45 45.0000000  0 10G07G09G28G30G05G20G27G02G10G13
 110919939.530 8  86431128.22546  21107350.800                    21107345.9824
        48.500          39.3004
 121493321.447 7  94670146.53345  23119401.745                    23119401.9364
        45.700          33.6004
 116737731.112 8  90964468.00046  22214446.747                    22214443.9604
        48.800          36.1004
 106263412.706 8  82802685.99847  20221241.539                    20221239.7534
        51.200          44.9004
 111740871.929 8  87070799.46346  21263575.205                    21263571.5664
        51.100          41.1004
 127770071.996 6  99561092.26743  24313836.024                    24313832.9514
        36.500          19.6004
 132214944.510 6 103024640.34943  25159666.644                    25159669.8274
        38.900          18.3004
 129191211.577 6 100668456.93043  24584271.621                    24584265.6854
        40.800          21.1004
 116031232.681 7  90413944.42445  22080006.664                    22080003.8074
        44.600          34.1004
 120451180.266 7  93858017.02844  22921092.258                    22921088.4064
        43.900          28.3004
 15  7 10  3 46  0.0000000  0 10G07G09G28G30G05G20G27G02G10G13
 110947906.648 8  86452920.77046  21112673.035                    21112668.1474
        48.600          39.5004
 121535863.718 7  94703296.31245  23127497.375                    23127497.4364
        45.400          33.2004
 116696057.510 8  90931995.07145  22206516.516                    22206513.1934
        49.100          35.9004
 106264844.627 8  82803801.77147  20221513.893                    20221512.2934
        51.200          44.9004
 111730373.132 8  87062618.57146  21261577.658                    21261574.0084
        50.800          40.4004
 127723120.523 5  99524506.72843  24304900.883                    24304898.6274
        35.900          21.1004
 132214108.054 6 103023988.54943  25159508.029                    25159510.0964
        39.200          19.0004
 129230631.585 6 100699173.78543  24591772.874                    24591768.0794
        39.600          21.1004
 116078061.840 7  90450434.64645  22088917.611                    22088913.9724
        45.400          33.7004
 120407508.454 7  93823987.04544  22912781.253                    22912778.0454
        42.900          28.1004
 15  7 10  3 46 15.0000000  0 10G07G09G28G30G05G20G27G02G10G13
 110975942.897 8  86474767.18446  21118007.659                    21118003.8294
        48.500          39.6004
 121578454.014 7  94736483.50245  23135602.269                    23135602.2934
        46.200          32.8004
 116654468.425 8  90899587.99845  22198602.676                    22198599.6974
        48.700          35.7004
 106266382.728 8  82805000.27447  20221806.671                    20221805.3744
        50.800          44.9004
 111720018.493 8  87054550.01546  21259607.129                    21259603.7084
        50.300          40.6004
 127676239.392 5  99487976.02643  24295980.934                    24295977.5024
        35.700          20.4004
 132213406.219 6 103023441.65543  25159374.746                    25159376.4634
        38.100          19.3004
 129270075.969 6 100729909.59743  24599278.532                    24599273.9124
        39.900          20.6004
 116124971.703 7  90486987.77545  22097844.172                    22097840.6624
        44.900          34.0004
 120363863.754 7  93789978.18944  22904475.470                    22904471.9844
        42.800          28.7004
 15  7 10  3 46 30.0000000  0 10G07G09G28G30G05G20G27G02G10G13
 111004047.345 8  86496666.72546  21123355.471                    21123352.6324
        48.200          39.2004
 121621091.365 7  94769707.35545  23143715.991                    23143715.5704
        44.800          32.7004
 116612963.208 7  90867246.27345  22190704.412                    22190700.8314
        47.900          34.9004
 106268026.020 8  82806280.76147  20222119.238                    20222117.6474
        50.700          45.1004
 111709807.466 8  87046593.36546  21257664.077                    21257660.1074
        50.800          40.8004
 127629427.908 6  99451499.57343  24287072.723                    24287070.1564
        36.300          22.0004
 132212838.271 6 103022999.11243  25159266.383                    25159267.2664
        36.300          18.3004
 129309543.533 6 100760663.52643  24606788.801                    24606784.8974
        38.700          20.4004
 116171961.222 7  90523602.96145  22106786.055                    22106782.6184
        45.400          33.6004
 120320245.572 7  93755990.00344  22896175.224                    22896171.6114
        42.800          27.6004
 15  7 10  3 46 45.0000000  0 10G07G09G28G30G05G20G27G02G10G13
 111032220.141 7  86518619.52246  21128716.862                    21128713.3524
        47.600          39.2004
 121663776.072 7  94802968.11145  23151838.223                    23151838.5304
        44.700          32.5004
 116571542.635 7  90834970.50145  22182822.026                    22182818.4864
        47.800          34.1004
 106269774.786 8  82807643.42947  20222452.117                    20222450.2794
        51.400          45.1004
 111699740.421 8  87038748.89546  21255748.588                    21255744.7614
        51.000          40.8004
 127582686.582 6  99415077.79343  24278177.538                    24278175.2234
        36.300          21.3004
 132212404.628 6 103022661.18843  25159183.894                    25159184.8844
        38.100          18.6004
 129349034.301 6 100791435.56243  24614303.715                    24614300.5124
        40.900          20.1004
 116219030.453 7  90560280.27445  22115742.938                    22115739.4514
        46.800          33.1004
 120276654.415 7  93722022.85044  22887880.404                    22887876.7584
        43.100          28.1004
 15  7 10  3 47  0.0000000  0 10G07G09G28G30G05G20G27G02G10G13
 111060460.636 8  86540625.08246  21134090.348                    21134086.9044
        48.200          39.1004
 121706507.552 7  94836265.30745  23159969.974                    23159969.6574
        45.400          33.6004
 116530206.472 7  90802760.51345  22174955.501                    22174951.7404
        47.800          32.1004
 106271628.473 8  82809087.84947  20222804.773                    20222803.2564
        51.400          44.6004
 111689816.988 8  87031016.32946  21253860.056                    21253856.5954
        51.200          41.2004
 127536015.435 6  99378710.68643  24269296.067                    24269293.6684
        37.300          21.1004
 132212104.880 6 103022427.58143  25159126.934                    25159128.8844
        38.600          19.3004
 129388547.443 6 100822224.98643  24621822.293                    24621819.3764
        40.400          20.1004
 116266178.606 7  90597019.08145  22124714.546                    22124711.1204
        45.800          33.2004
 120233089.836 7  93688076.43344  22879590.339                    22879586.5414
        43.300          27.1004
 15  7 10  3 47 15.0000000  0 10G07G09G28G30G05G20G27G02G10G13
 111088769.339 7  86562683.78946  21139477.575                    21139473.8784
        47.500          39.4004
 121749286.607 7  94869599.60045  23168110.446                    23168110.3524
        43.800          32.1004
 116488955.729 7  90770617.07445  22167106.076                    22167102.1084
        47.300          32.0004
 106273587.814 8  82810614.60347  20223177.498                    20223175.9384
        51.600          45.4004
 111680038.065 8  87023396.38746  21251999.218                    21251996.0874
        50.800          41.7004
 127489415.687 6  99342399.23143  24260429.596                    24260425.6564
        38.000          21.3004
 132211939.945 6 103022299.05243  25159095.459                    25159097.0544
        37.100          19.0004
 129428083.341 6 100853032.14443  24629345.650                    24629342.3944
        40.700          20.4004
 116313406.318 7  90633819.87845  22133701.913                    22133698.5584
        45.300          32.7004
 120189552.867 7  93654151.52644  22871305.168                    22871302.1264
        43.200          27.7004
 15  7 10  3 47 30.0000000  0 11G07G09G28G30G05G20G27G02G19G10G13
 111117145.844 7  86584795.32346  21144877.272                    21144873.9864
        47.700          39.6004
 121792112.847 7  94902970.62945  23176259.864                    23176260.1714
        45.400          32.5004
 116447790.513 7  90738540.27845  22159272.813                    22159268.0544
        47.300          30.9004
 106275652.365 8  82812223.33347  20223570.811                    20223568.8364
        51.800          45.6004
 111670403.407 8  87015888.85146  21250165.711                    21250162.5434
        51.100          41.2004
 127442887.253 6  99306143.32143  24251575.130                    24251571.6974
        38.400          20.9004
 132211909.553 6 103022275.37643  25159088.966                    25159091.3164
        38.500          19.3004
 129467641.227 6 100883856.43343  24636873.370                    24636870.0644
        41.000          19.3004
 131759324.09916 102669600.73453  25072965.710                    25072965.1514
        39.200          22.2004
 116360712.816 7  90670682.06545  22142704.116                    22142701.0184
        44.300          33.1004
 120146043.348 7  93620248.01344  22863025.674                    22863022.3844
        43.900          28.8004
 15  7 10  3 47 45.0000000  0 11G07G09G28G30G05G20G27G02G19G10G13
 111145590.729 8  86606960.14146  21150290.260                    21150287.5754
        48.500          39.7004
 121834986.854 7  94936378.88845  23184419.258                    23184418.7534
        44.800          32.1004
 116406711.783 7  90706530.87645  22151455.384                    22151451.4954
        46.700          32.4004
 106277822.760 8  82813914.53347  20223983.569                    20223982.0754
        52.400          45.1004
 111660913.888 8  87008494.40646  21248360.199                    21248356.8094
        50.400          41.3004
 127396431.434 6  99269944.00843  24242735.347                    24242731.1554
        40.200          21.1004
 132212014.457 6 103022357.07843  25159110.180                    25159111.6544
        37.900          20.4004
 129507221.558 6 100914698.21743  24644406.022                    24644401.5024
        40.800          19.6004
 131733673.667 6 102649613.42443  25068084.217                    25068083.8344
        38.800          22.3004
 116408098.566 7  90707606.00145  22151721.239                    22151718.5404
        44.200          32.0004
 120102562.218 7  93586366.62444  22854751.759                    22854748.2894
        43.400          29.1004
 15  7 10  3 48  0.0000000  0 11G07G09G28G30G05G20G27G02G19G10G13
 111174098.028 8  86629173.59946  21155714.750                    21155712.4594
        48.000          39.4004
 121877902.709 7  94969819.77145  23192585.463                    23192585.1954
        44.900          31.9004
 116365713.956 8  90674584.51245  22143653.962                    22143650.1634
        48.600          33.8004
 106280092.993 8  82815683.53447  20224415.751                    20224414.0984
        52.100          45.1004
 111651563.755 8  87001208.59046  21246580.894                    21246577.7454
        51.800          41.3004
 127350042.395 6  99233796.72243  24233906.535                    24233903.9714
        40.600          21.7004
 132212248.844 6 103022539.70242  25159155.117                    25159156.6994
        39.000          17.8004
 129546818.055 6 100945552.59043  24651940.378                    24651935.5664
        39.000          19.3004
 131708123.820 6 102629704.46143  25063222.384                    25063221.7604
        38.600          21.5004
 116455557.441 7  90744586.90545  22160752.435                    22160749.7764
        43.600          33.2004
 120059103.666 7  93552502.83244  22846482.021                    22846478.8894
        43.900          28.9004
 15  7 10  3 48 15.0000000  0 11G07G09G28G30G05G20G27G02G19G10G13
 111202676.685 7  86651442.65546  21161153.012                    21161150.6484
        46.300          39.2004
 121920869.554 7  95003300.37245  23200761.573                    23200761.6094
        42.500          31.9004
 116324806.626 8  90642708.66345  22135869.844                    22135865.7114
        48.900          34.2004
 106282472.166 8  82817537.42247  20224868.723                    20224866.9374
        52.100          44.8004
 111642362.241 8  86994038.56246  21244830.059                    21244826.5074
        50.900          41.7004
 127303729.867 6  99197709.06043  24225093.633                    24225090.4924
        40.900          21.5004
 132212621.971 6 103022830.44643  25159225.555                    25159227.3814
        38.600          19.3004
 129586439.836 6 100976426.67443  24659480.560                    24659475.3144
        40.200          19.9004
 131682684.237 6 102609881.43543  25058382.325                    25058380.1334
        37.200          20.1004
 116503098.356 7  90781631.73445  22169798.790                    22169796.1324
        42.900          32.4004
 120015677.038 7  93518663.89945  22838218.445                    22838214.7354
        46.400          30.4004
 15  7 10  3 48 30.0000000  0 11G07G09G28G30G05G20G27G02G19G10G13
 111231322.470 7  86673764.01046  21166604.633                    21166601.5674
        47.200          39.4004
 121963883.245 7  95036817.46945  23208947.065                    23208947.1544
        43.400          31.3004
 116283986.101 8  90610900.45445  22128102.347                    22128097.9774
        49.000          34.3004
 106284956.181 8  82819473.01547  20225341.190                    20225339.6754
        52.100          44.9004
 111633305.488 8  86986981.35046  21243106.017                    21243102.7834
        51.100          41.3004
 127257489.896 6  99161677.91343  24216295.429                    24216291.8104
        41.100          22.0004
 132213129.895 6 103023226.27143  25159322.288                    25159323.7304
        38.400          19.3004
 129626082.222 6 101007316.81643  24667024.026                    24667019.1054
        38.700          18.6004
 131657351.293 6 102590141.51443  25053559.855                    25053558.4164
        37.000          20.1004
 116550716.888 7  90818737.04745  22178860.541                    22178858.2484
        43.400          32.8004
 119972278.389 7  93484846.76245  22829959.677                    22829956.3304
        45.000          30.8004
 15  7 10  3 48 45.0000000  0 11G07G09G28G30G05G20G27G02G19G10G13
 111260034.872 8  86696137.28546  21172068.190                    21172065.6684
        48.100          39.3004
 122006943.422 7  95070370.81445  23217141.640                    23217141.5274
        44.500          32.7004
 116243252.337 8  90579159.86945  22120350.413                    22120347.1234
        48.500          35.7004
 106287544.666 8  82821490.00547  20225833.774                    20225832.1094
        52.700          45.3004
 111624393.419 8  86980036.86746  21241410.626                    21241406.7524
        51.400          41.2004
 127211322.700 6  99125703.46343  24207509.991                    24207505.9664
        41.100          21.8004
 132213772.428 6 103023726.86043  25159444.678                    25159446.1194
        37.900          19.3004
 129665744.597 6 101038222.61643  24674571.336                    24674566.2294
        38.900          18.3004
 131632124.916 6 102570484.57543  25048759.291                    25048757.2864
        36.000          19.6004
 116598412.503 7  90855902.41245  22187936.888                    22187934.3634
        43.900          33.1004
 119928907.882 7  93451051.55245  22821706.484                    22821703.0104
        45.400          30.0004
 15  7 10  3 49  0.0000000  0 11G07G09G28G30G05G20G27G02G19G10G13
 111288813.493 7  86718562.15846  21177544.715                    21177542.0084
        47.600          39.4004
 122050049.774 7  95103960.13545  23225344.060                    23225344.0844
        45.300          32.2004
 116202605.417 8  90547486.94346  22112616.102                    22112612.3124
        50.200          36.0004
 106290237.221 8  82823588.08547  20226346.167                    20226344.3884
        52.100          45.4004
 111615625.728 8  86973204.89446  21239741.959                    21239737.9544
        51.300          40.6004
 127165228.405 6  99089785.82543  24198738.831                    24198735.0514
        40.200          22.0004
 132214549.343 6 103024332.21443  25159592.428                    25159594.0464
        38.400          20.9004
 129705426.420 6 101069143.46743  24682122.942                    24682117.5214
        38.700          18.3004
 131607005.297 6 102550910.86743  25043979.506                    25043977.0094
        39.000          20.1004
 116646184.527 7  90893127.33645  22197027.319                    22197025.3334
        44.300          33.8004
 119885565.319 7  93417278.12044  22813458.670                    22813455.3914
        44.100          29.3004
 15  7 10  3 49 15.0000000  0 11G07G09G28G30G05G20G27G02G19G10G13
 111317658.196 8  86741038.51846  21183033.703                    21183031.1764
        48.200          39.8004
 122093202.248 7  95137585.38945  23233555.667                    23233556.2654
        44.100          32.7004
 116162045.607 8  90515881.89546  22104897.738                    22104893.7294
        49.700          36.2004
 106293033.807 8  82825767.23047  20226878.248                    20226877.0894
        52.100          45.1004
 111607002.530 8  86966485.51146  21238101.142                    21238097.2464
        50.900          41.1004
 127119207.333 6  99053925.25343  24189981.311                    24189977.2934
        40.100          21.5004
 132215460.630 6 103025042.26243  25159765.755                    25159768.0474
        38.200          21.3004
 129745127.170 6 101100079.15743  24689678.750                    24689672.4244
        39.500          19.0004
 131581992.693 6 102531420.53243  25039220.122                    25039217.4314
        38.800          20.1004
 116694032.767 7  90930411.63845  22206133.365                    22206130.9364
        44.800          34.9004
 119842250.711 7  93383526.48844  22805215.849                    22805212.1994
        43.700          28.4004
 15  7 10  3 49 30.0000000  0 11G07G09G28G30G05G20G27G02G19G10G13
 111346569.412 8  86763566.70946  21188535.623                    21188532.9494
        49.300          40.3004
 122136401.367 7  95171246.98945  23241776.647                    23241776.6104
        46.100          33.5004
 116121573.852 8  90484345.47045  22097195.736                    22097192.2954
        48.600          34.6004
 106295934.874 8  82828027.79547  20227430.288                    20227428.5914
        52.900          44.8004
 111598524.692 8  86959879.39146  21236487.957                    21236483.7564
        51.200          40.9004
 127073260.313 6  99018122.37143  24181237.577                    24181233.8924
        39.600          22.0004
 132216506.988 6 103025857.61843  25159964.559                    25159966.7624
        38.400          20.4004
 129784847.194 6 101131029.79843  24697236.320                    24697231.4394
        40.100          19.3004
 131557088.165 6 102512014.43043  25034480.781                    25034478.1214
        38.700          20.9004
 116741957.526 7  90967755.57945  22215252.903                    22215249.7864
        46.700          34.7004
 119798964.872 7  93349797.26944  22796978.651                    22796974.8724
        44.200          28.7004
 15  7 10  3 49 45.0000000  0 11G07G09G28G30G05G20G27G02G19G10G13
 111375546.384 8  86786146.15446  21194050.149                    21194046.8264
        48.700          40.3004
 122179646.383 7  95204944.34845  23250006.157                    23250006.0374
        45.100          32.7004
 116081189.818 8  90452877.41045  22089511.016                    22089507.3214
        48.500          35.0004
 106298939.690 8  82830369.19747  20228002.367                    20228000.6334
        52.400          44.4004
 111590191.724 8  86953386.15546  21234902.424                    21234898.5324
        50.700          40.9004
 127027386.998 6  98982376.90043  24172507.617                    24172504.3724
        39.700          21.7004
 132217687.844 6 103026777.71643  25160189.619                    25160190.7364
        38.600          19.3004
 129824585.608 6 101161994.78843  24704798.093                    24704793.2314
        40.200          18.3004
 131532291.268 6 102492692.20043  25029762.447                    25029759.7774
        39.400          21.5004
 116789957.835 7  91005158.39645  22224387.325                    22224383.8954
        46.700          34.9004
 119755707.392 7  93316090.14444  22788746.651                    22788743.0254
        44.400          27.6004
 15  7 10  3 50  0.0000000  0 11G07G09G28G30G05G20G27G02G19G10G13
 111404589.814 7  86808777.36646  21199576.845                    21199573.5704
        47.500          40.5004
 122222938.115 7  95238678.09945  23258244.015                    23258244.2294
        43.500          32.6004
 116040894.594 8  90421478.53445  22081842.841                    22081839.4154
        48.800          34.4004
 106302049.011 8  82832792.03447  20228593.739                    20228592.2594
        52.100          44.8004
 111582004.357 8  86947006.38146  21233344.568                    21233340.3224
        50.900          40.6004
 126981588.841 6  98946690.03243  24163793.135                    24163788.8624
        39.800          22.0004
 132219004.099 6 103027803.35843  25160439.407                    25160441.1544
        38.500          19.9004
 129864342.686 6 101192974.29842  24712363.691                    24712358.3814
        39.800          17.8004
 131507603.254 6 102473454.78443  25025063.550                    25025062.1314
        38.300          21.5004
 116838034.161 7  91042620.44445  22233535.753                    22233532.2394
        46.200          33.0004
 119712479.252 7  93282405.88744  22780521.125                    22780517.2064
        46.200          28.0004
 15  7 10  3 50 15.0000000  0 11G07G09G28G30G05G20G27G02G19G10G13
 111433698.554 8  86831459.47646  21205116.143                    21205112.8164
        48.400          40.4004
 122266275.672 7  95272447.57945  23266490.886                    23266490.6364
        43.200          31.5004
 116000687.707 8  90390148.49845  22074191.403                    22074187.9174
        48.100          34.7004
 106305261.919 8  82835295.58947  20229204.998                    20229203.7474
        51.900          44.4004
 111573962.047 8  86940739.65046  21231813.442                    21231810.0044
        50.300          40.6004
 126935865.142 6  98911061.20643  24155092.262                    24155088.2654
        39.900          22.0004
 132220454.957 6 103028933.86743  25160715.992                    25160717.0064
        36.900          19.0004
 129904117.472 6 101223967.58643  24719932.708                    24719928.1544
        38.900          18.6004
 131483023.577 6 102454301.84043  25020387.175                    25020385.3534
        39.100          22.0004
 116886185.492 7  91080140.94145  22242698.809                    22242695.0424
        46.000          33.0004
 119669279.766 7  93248743.94744  22772300.676                    22772296.6504
        45.600          27.9004
 15  7 10  3 50 30.0000000  0 11G07G09G28G30G05G20G27G02G19G10G13
 111462873.043 8  86854192.81946  21210667.793                    21210664.3404
        49.000          40.4004
 122309659.545 7  95306253.14945  23274746.853                    23274746.3344
        44.600          32.3004
 115960570.065 8  90358888.01545  22066557.202                    22066553.4234
        48.700          33.7004
 106308578.892 8  82837880.23647  20229836.269                    20229834.5884
        51.800          44.9004
 111566065.420 8  86934586.42946  21230310.867                    21230307.3164
        51.000          40.6004
 126890216.645 6  98875490.96043  24146404.827                    24146401.8284
        39.700          22.2004
 132222041.088 6 103030169.78943  25161018.167                    25161019.6594
        38.800          18.6004
 129943910.099 6 101254974.83342  24727504.048                    24727500.4584
        36.800          16.3004
 131458553.043 6 102435233.93743  25015729.966                    25015728.4824
        38.100          21.1004
 116934412.107 7  91117720.10145  22251875.415                    22251872.0334
        44.600          32.0004
 119626109.627 7  93215104.87644  22764085.353                    22764082.0954
        45.900          28.5004
 15  7 10  3 50 45.0000000  0 11G07G09G28G30G05G20G27G02G19G10G13
 111492112.636 8  86876976.89846  21216231.870                    21216228.5644
        48.300          40.4004
 122353089.073 7  95340094.30145  23283011.427                    23283010.2444
        44.000          31.9004
 115920541.465 8  90327696.90445  22058940.473                    22058936.3454
        48.800          33.9004
 106311999.309 8  82840545.48247  20230487.308                    20230486.2214
        52.200          44.9004
 111558313.954 8  86928546.32146  21228835.951                    21228832.2594
        51.000          40.7004
 126844643.189 6  98839979.20443  24137732.852                    24137729.3274
        39.500          22.2004
 132223762.030 6 103031510.74643  25161345.970                    25161347.5994
        39.500          18.6004
 129983719.645 6 101285995.18742  24735080.262                    24735075.0734
        36.900          17.4004
 131434191.659 6 102416251.04343  25011093.393                    25011092.5934
        36.000          21.1004
 116982713.189 7  91155357.28545  22261066.846                    22261063.6094
        45.200          31.4004
 119582968.471 7  93181488.38844  22755875.927                    22755872.7464
        45.800          29.1004
 15  7 10  3 51  0.0000000  0 11G07G09G28G30G05G20G27G02G19G10G13
 111521417.407 8  86899811.76546  21221808.531                    21221804.9804
        48.600          40.9004
 122396564.461 7  95373971.18445  23291284.005                    23291284.0494
        44.900          31.4004
 115880602.370 8  90296575.51645  22051340.245                    22051336.4794
        49.900          34.0004
 106315523.287 8  82843291.43147  20231157.783                    20231156.5274
        51.800          45.1004
 111550708.174 8  86922619.72646  21227388.731                    21227384.8704
        50.200          39.9004
 126799145.607 6  98804526.52343  24129074.747                    24129070.4114
        40.400          21.7004
 132225618.000 6 103032956.90343  25161698.704                    25161699.9534
        39.500          18.6004
 130023545.997 6 101317028.68143  24742659.019                    24742654.0834
        37.800          18.3004
 131409939.817 6 102397353.52143  25006479.191                    25006477.5964
        37.900          21.1004
 117031088.652 7  91193052.41544  22270272.342                    22270269.3094
        43.200          29.9004
 119539856.758 7  93147894.85044  22747672.094                    22747668.9074
        45.600          28.9004
 15  7 10  3 51 15.0000000  0 11G07G09G28G30G05G20G27G02G19G10G13
 111550788.007 8  86922697.91546  21227397.860                    21227394.2714
        48.900          40.8004
 122440086.430 7  95407884.36045  23299566.164                    23299565.9384
        42.200          31.8004
 115840753.847 8  90265524.72245  22043757.722                    22043753.4274
        49.900          34.8004
 106319151.535 8  82846118.62747  20231848.347                    20231847.4554
        52.800          44.9004
 111543248.879 8  86916807.28846  21225969.258                    21225965.2504
        50.900          40.1004
 126753725.053 6  98769133.88843  24120431.119                    24120426.8374
        38.000          20.6004
 132227609.859 6 103034508.98343  25162078.138                    25162079.8404
        39.600          19.9004
 130063389.656 6 101348075.63442  24750241.575                    24750235.6834
        37.100          16.9004
 131385798.727 6 102378542.28443  25001884.741                    25001883.3774
        38.600          20.9004
 117079539.038 7  91230805.94045  22279491.249                    22279488.1254
        43.000          30.2004
 119496775.511 7  93114325.05144  22739473.724                    22739470.7714
        45.400          28.1004
 15  7 10  3 51 30.0000000  0 10G07G09G28G30G05G20G27G19G10G13
 111580222.871 8  86945634.14946  21232999.227                    21232995.4974
        50.300          40.2004
 122483653.556 7  95441832.71845  23307856.510                    23307856.9004
        43.600          32.5004
 115800994.822 8  90234543.65345  22036191.958                    22036187.7264
        49.600          34.9004
 106322882.523 8  82849025.87647  20232558.476                    20232557.0634
        52.100          45.1004
 111535934.868 8  86911108.05146  21224577.261                    21224573.2694
        51.200          40.8004
 126708380.415 6  98733800.42043  24111802.410                    24111798.3114
        37.100          19.9004
 132229736.325 6 103036165.95543  25162481.879                    25162484.8834
        38.100          19.3004
 131361767.335 6 102359816.55343  24997311.658                    24997309.8834
        40.300          22.3004
 117128062.571 7  91268616.44845  22288726.037                    22288722.8794
        43.400          30.5004
 119453723.411 7  93080777.96844  22731281.667                    22731278.0204
        45.800          29.8004
 15  7 10  3 51 45.0000000  0 10G07G09G28G30G05G20G27G19G10G13
 111609722.041 8  86968620.50346  21238612.684                    21238608.8364
        50.900          40.2004
 122527266.052 7  95475816.42445  23316155.775                    23316155.9994
        44.700          32.3004
 115761326.052 8  90203632.90445  22028643.263                    22028638.4534
        48.700          35.1004
 106326716.552 8  82852013.42147  20233288.051                    20233286.5924
        52.400          45.1004
 111528766.471 8  86905522.27846  21223213.202                    21223209.1694
        51.600          40.5004
 126663112.243 6  98698526.51143  24103188.364                    24103183.4014
        36.700          18.6004
 132231997.691 6 103037928.02843  25162912.912                    25162915.4204
        37.900          19.9004
 131337846.326 6 102341176.85343  24992759.887                    24992758.0384
        38.900          22.0004
 117176659.293 7  91306483.99445  22297974.119                    22297970.3664
        44.500          32.2004
 119410700.922 7  93047253.94844  22723094.915                    22723091.2694
        44.900          28.6004
 15  7 10  3 52  0.0000000  0 10G07G09G28G30G05G20G27G19G10G13
 111639285.507 8  86991656.94346  21244238.338                    21244234.6764
        50.300          39.8004
 122570923.938 7  95509835.48845  23324463.984                    23324464.0384
        44.200          31.4004
 115721747.790 8  90172792.69645  22021111.999                    22021107.6944
        48.800          34.4004
 106330653.538 8  82855081.19647  20234037.155                    20234035.4544
        52.300          45.6004
 111521743.946 8  86900050.17246  21221877.067                    21221872.5824
        51.300          40.5004
 126617921.021 6  98663312.58443  24094588.148                    24094584.4274
        36.400          19.3004
 132234394.177 6 103039795.41343  25163368.627                    25163371.2124
        37.500          20.1004
 131314036.106 6 102322623.45343  24988228.932                    24988227.2334
        39.400          21.5004
 117225328.893 7  91344408.32545  22307235.351                    22307232.0414
        44.800          33.6004
 119367708.245 7  93013753.17044  22714912.965                    22714909.6904
        44.700          27.0004
 15  7 10  3 52 15.0000000  0 10G07G09G28G30G05G20G27G19G10G13
 111668912.452 8  87014742.85046  21249876.327                    21249872.9124
        49.500          39.6004
 122614626.500 7  95543889.37945  23332779.955                    23332780.8904
        44.500          32.3004
 115682259.794 8  90142022.82045  22013597.052                    22013592.9434
        49.200          35.3004
 106334692.838 8  82858228.68047  20234806.051                    20234804.2234
        52.000          44.9004
 111514866.761 8  86894691.31146  21220567.952                    21220564.2634
        51.100          40.3004
 126572806.514 6  98628158.43443  24086003.959                    24085999.9074
        37.300          19.6004
 132236925.138 6 103041767.57443  25163849.802                    25163852.2214
        36.700          20.6004
 131290336.431 6 102304156.19243  24983718.902                    24983717.9504
        38.100          21.7004
 117274070.573 7  91382388.82645  22316510.720                    22316507.4934
        44.300          33.7004
 119324745.050 7  92980275.36244  22706737.627                    22706734.6594
        45.100          27.9004
 15  7 10  3 52 30.0000000  0 10G07G09G28G30G05G20G27G19G10G13
 111698603.777 8  87037878.92246  21255526.132                    21255522.7134
        50.500          40.3004
 122658374.714 7  95577978.86145  23341104.934                    23341105.4464
        44.500          32.0004
 115642863.535 8  90111324.43245  22006100.499                    22006096.6284
        48.500          34.7004
 106338835.311 8  82861456.56747  20235594.359                    20235592.4624
        53.000          45.0004
 111508135.988 8  86889446.54446  21219287.733                    21219283.7504
        50.800          40.2004
 126527769.967 6  98593065.07043  24077432.736                    24077430.2594
        36.100          20.1004
 132239591.635 6 103043845.30943  25164357.657                    25164360.0854
        36.700          19.3004
 131266748.597 6 102285776.07243  24979230.529                    24979230.2794
        37.600          22.5004
 117322885.040 7  91420426.03445  22325800.159                    22325796.7624
        45.900          34.3004
 119281812.653 7  92946821.55244  22698567.809                    22698564.3364
        45.200          29.0004
 15  7 10  3 52 45.0000000  0 10G07G09G28G30G05G20G27G19G10G13
 111728359.172 8  87061064.92646  21261187.950                    21261184.8624
        50.500          39.7004
 122702168.227 7  95612103.62345  23349438.658                    23349438.9004
        45.700          31.6004
 115603558.689 7  90080697.27445  21998620.620                    21998617.3464
        47.800          33.8004
 106343080.544 8  82864764.53247  20236401.992                    20236400.1814
        52.700          44.9004
 111501551.483 8  86884315.76446  21218034.570                    21218030.1454
        51.400          40.3004
 126482811.492 5  98558032.52443  24068877.232                    24068874.8054
        35.300          20.1004
 132242393.420 6 103046028.51643  25164890.718                    25164894.4054
        36.900          19.9004
 131243272.461 6 102267483.05643  24974763.392                    24974763.2784
        37.000          20.6004
 117371771.639 7  91458519.46145  22335103.207                    22335099.8364
        45.900          34.5004
 119238910.725 7  92913391.49444  22690403.741                    22690400.3814
        45.900          27.9004
 15  7 10  3 53  0.0000000  0 10G07G09G28G30G05G20G27G19G10G13
 111758178.022 8  87084300.37546  21266862.985                    21266858.6804
        49.600          39.2004
 122746006.684 7  95646263.40745  23357780.720                    23357780.6924
        43.400          31.4004
 115564345.330 8  90050141.43245  21991158.297                    21991155.3024
        48.100          33.6004
 106347428.222 8  82868152.31947  20237229.264                    20237227.5454
        51.800          44.9004
 111495113.032 8  86879298.78846  21216809.578                    21216805.0634
        51.900          40.1004
 126437931.122 6  98523060.83443  24060336.928                    24060333.6044
        36.200          20.4004
 132245330.232 6 103048316.95743  25165450.044                    25165453.5134
        36.800          20.4004
 131219908.273 6 102249277.26743  24970316.121                    24970316.5884
        36.400          21.3004
 117420729.947 7  91496668.76145  22344419.646                    22344416.0194
        44.800          34.7004
 119196038.959 7  92879984.92444  22682245.993                    22682241.5834
        46.500          28.3004
 15  7 10  3 53 15.0000000  0 10G07G09G28G30G05G20G27G19G10G13
 111788060.251 8  87107585.20546  21272549.419                    21272545.0824
        51.100          38.9004
 122789890.226 7  95680458.34645  23366131.973                    23366131.8744
        44.800          30.5004
 115525223.954 7  90019657.24045  21983713.856                    21983710.5514
        47.700          33.7004
 106351878.438 8  82871620.00847  20238076.270                    20238074.8744
        52.500          44.8004
 111488820.907 8  86874395.82346  21215612.279                    21215607.7594
        51.100          40.1004
 126393129.395 6  98488150.42343  24051811.592                    24051808.7034
        37.100          19.6004
 132248402.409 6 103050710.83743  25166034.384                    25166037.6634
        37.300          21.1004
 131196656.611 6 102231159.12043  24965891.517                    24965890.9494
        37.000          20.6004
 117469759.790 7  91534873.81145  22353749.015                    22353746.5494
        45.800          34.6004
 119153198.126 7  92846602.42744  22674093.778                    22674089.1954
        46.600          27.4004
 15  7 10  3 53 30.0000000  0 10G07G09G28G30G05G20G27G19G10G13
 111818006.244 8  87130919.72946  21278247.986                    21278243.7034
        50.100          39.1004
 122833819.163 7  95714688.64045  23374491.307                    23374491.9674
        44.700          31.8004
 115486195.363 7  89989245.35545  21976286.389                    21976283.6554
        47.900          34.4004
 106356431.451 8  82875167.79747  20238942.575                    20238941.2054
        52.400          44.9004
 111482675.716 8  86869607.34846  21214442.585                    21214438.1244
        51.300          40.7004
 126348407.074 6  98453301.87043  24043301.136                    24043297.9454
        38.100          21.1004
 132251610.297 6 103053210.48243  25166645.206                    25166648.4084
        36.600          19.6004
 131173518.141 6 102213129.14443  24961489.003                    24961487.6104
        38.400          21.3004
 117518861.323 7  91573134.71445  22363092.890                    22363089.4244
        44.600          33.4004
 119110388.766 7  92813244.46744  22665947.104                    22665942.2594
        46.400          27.3004
 15  7 10  3 53 45.0000000  0 10G07G09G28G30G05G20G27G19G10G13
 111848014.515 8  87154302.77446  21283958.188                    21283953.8734
        50.500          39.1004
 122877792.134 7  95748953.25845  23382859.205                    23382859.1874
        44.500          31.1004
 115447258.569 8  89958905.00345  21968877.424                    21968874.8874
        48.400          34.9004
 106361085.935 8  82878794.66047  20239828.218                    20239826.7084
        51.600          45.0004
 111476676.232 8  86864932.41646  21213300.598                    21213296.5274
        51.200          40.3004
 126303763.171 6  98418514.41243  24034805.923                    24034802.4634
        37.500          21.3004
 132254952.692 5 103055814.90843  25167281.012                    25167284.3034
        34.300          19.9004
 131150491.916 6 102195186.68443  24957107.933                    24957105.6694
        39.800          21.3004
 117568032.911 7  91611450.20045  22372449.699                    22372446.9604
        43.300          31.9004
 119067609.604 7  92779910.05944  22657806.881                    22657802.5054
        46.900          27.9004
 15  7 10  3 54  0.0000000  0 10G07G09G28G30G05G20G27G19G10G13
 111878086.853 8  87177735.74346  21289680.667                    21289677.0994
        49.800          38.6004
 122921810.982 7  95783253.60745  23391235.776                    23391235.7784
        44.900          33.0004
 115408415.752 8  89928637.88045  21961486.193                    21961483.1484
        49.100          35.6004
 106365843.652 8  82882501.96547  20240733.413                    20240732.2754
        52.000          44.7004
 111470824.377 8  86860372.52346  21212187.232                    21212183.5064
        50.800          40.8004
 126259199.957 6  98383789.86743  24026325.970                    24026322.9784
        37.700          22.3004
 132258431.546 5 103058525.70543  25167942.504                    25167945.6524
        35.000          20.1004
 131127580.016 6 102177333.28643  24952748.421                    24952745.6384
        40.000          21.1004
 117617276.130 7  91649821.51445  22381820.437                    22381818.0524
        44.200          32.1004
 119024862.788 7  92746600.84244  22649671.708                    22649668.2174
        46.900          29.3004
 15  7 10  3 54 15.0000000  0 10G07G09G28G30G05G20G27G19G10G13
 111908221.577 8  87201217.32146  21295414.971                    21295411.3164
        49.700          38.6004
 122965874.152 7  95817588.50445  23399620.655                    23399620.9754
        44.100          32.3004
 115369665.711 8  89898443.03745  21954112.500                    21954108.8904
        49.200          35.4004
 106370703.011 8  82886288.46747  20241658.447                    20241657.1764
        51.900          44.4004
 111465118.584 8  86855926.44946  21211101.870                    21211098.0414
        50.300          40.5004
 126214716.233 6  98349127.25843  24017861.135                    24017858.1994
        38.200          22.0004
 132262045.394 5 103061341.70443  25168629.869                    25168633.8544
        35.600          19.3004
 131104781.436 6 102159568.20343  24948409.185                    24948406.7164
        38.300          21.1004
 117666589.167 7  91688247.22445  22391203.826                    22391201.4704
        42.800          30.9004
 118982146.724 7  92713315.61145  22641543.553                    22641540.2884
        46.100          30.4004
 15  7 10  3 54 30.0000000  0 10G07G09G28G30G05G20G27G19G10G13
 111938418.714 8  87224747.53246  21301161.345                    21301157.5464
        49.300          39.0004
 123009981.669 7  95851957.96145  23408013.888                    23408014.0694
        44.900          31.8004
 115331008.947 8  89868320.88646  21946756.338                    21946752.5494
        49.800          36.0004
 106375664.041 8  82890154.19247  20242602.539                    20242601.0654
        53.200          45.1004
 111459559.375 8  86851594.58246  21210043.611                    21210040.2344
        50.800          40.9004
 126170312.590 6  98314527.05243  24009410.879                    24009408.6744
        38.200          22.6004
 132265794.346 5 103064262.98043  25169344.678                    25169347.1014
        34.800          19.0004
 131082096.553 6 102141891.72643  24944092.473                    24944090.8044
        38.100          18.3004
 117715971.835 7  91726727.18145  22400601.511                    22400598.8754
        43.000          30.8004
 118939462.166 7  92680054.92544  22633420.697                    22633417.9824
        46.300          28.8004
 15  7 10  3 54 45.0000000  0 10G07G09G28G30G05G20G27G19G10G13
 111968678.312 8  87248326.41446  21306919.662                    21306915.7154
        49.500          38.8004
 123054133.796 7  95886362.15245  23416415.717                    23416416.2684
        43.400          31.6004
 115292446.046 8  89838271.86446  21939418.388                    21939413.9424
        49.500          36.4004
 106380726.932 8  82894099.28947  20243566.070                    20243564.1674
        53.000          45.3004
 111454147.089 8  86847377.19646  21209013.693                    21209010.1044
        50.200          40.6004
 126125989.515 6  98279989.60843  24000976.437                    24000974.0604
        38.800          22.0004
 132269678.732 5 103067289.72543  25170084.112                    25170085.3194
        35.900          19.6004
 131059525.984 5 102124304.29143  24939796.794                    24939794.8954
        35.700          19.9004
 117765424.228 7  91765261.47144  22410011.903                    22410009.0234
        43.600          29.7004
 118896809.446 7  92646819.05444  22625304.302                    22625301.0144
        47.200          29.5004
 15  7 10  3 55  0.0000000  0 10G07G09G28G30G05G20G27G19G10G13
 111998999.489 8  87271953.28146  21312689.668                    21312686.0824
        48.800          38.8004
 123098329.674 6  95920800.44845  23424825.312                    23424826.1144
        41.100          30.4004
 115253976.540 8  89808295.62645  21932097.911                    21932094.0634
        49.100          35.5004
 106385890.814 8  82898123.07947  20244548.684                    20244547.2014
        52.200          44.9004
 111448881.048 8  86843273.78146  21208011.610                    21208008.0954
        50.600          40.2004
 126081746.588 6  98245514.61943  23992557.912                    23992554.0864
        39.500          21.5004
 132273697.881 5 103070421.52743  25170847.533                    25170849.8364
        34.800          19.9004
 131037069.207 6 102106805.54043  24935523.055                    24935521.8734
        36.700          19.0004
 117814945.222 7  91803849.23945  22419435.958                    22419432.4024
        44.400          30.5004
 118854187.921 7  92613607.47644  22617193.977                    22617190.5794
        47.000          29.8004
 15  7 10  3 55 15.0000000  0 10G07G09G28G30G05G20G27G19G10G13
 112029382.595 8  87295628.41146  21318471.165                    21318468.1974
        49.100          38.9004
 123142569.832 7  95955273.23145  23433244.731                    23433245.4644
        42.000          31.3004
 115215601.183 8  89778392.75045  21924794.979                    21924790.8654
        49.600          34.4004
 106391156.161 8  82902225.94347  20245550.484                    20245549.2264
        52.700          44.9004
 111443761.887 8  86839284.81846  21207037.322                    21207033.8694
        50.200          40.3004
 126037584.852 6  98211102.91543  23984153.906                    23984150.1624
        39.600          21.3004
 132277852.314 5 103073658.74743  25171638.731                    25171640.8104
        34.800          19.9004
 131014727.259 6 102089396.29043  24931270.990                    24931270.2214
        36.200          19.3004
 117864535.165 7  91842490.72645  22428872.642                    22428869.3394
        44.000          31.2004
 118811598.338 7  92580420.78745  22609089.194                    22609085.6424
        47.000          30.3004
 15  7 10  3 55 30.0000000  0 10G07G09G28G30G05G20G27G19G10G13
 112059828.357 8  87319352.36746  21324264.916                    21324261.7164
        48.800          38.9004
 123186855.025 7  95989781.11345  23441672.045                    23441672.7024
        44.200          31.3004
 115177321.375 8  89748564.32145  21917510.154                    21917506.3284
        49.000          34.3004
 106396523.781 8  82906408.49147  20246572.006                    20246570.5124
        52.000          44.9004
 111438790.365 8  86835410.89546  21206091.210                    21206088.1544
        50.300          40.5004
 125993505.494 6  98176755.38443  23975766.153                    23975762.2664
        40.800          21.7004
 132282143.004 5 103077002.13943  25172454.390                    25172458.0954
        35.200          19.6004
 130992501.266 6 102072077.36343  24927041.833                    24927041.2534
        38.300          20.1004
 117914194.572 7  91881186.33845  22438322.042                    22438319.4874
        45.300          32.3004
 118769041.816 7  92547259.84644  22600991.077                    22600987.5384
        46.800          29.4004
 15  7 10  3 55 45.0000000  0 10G07G09G28G30G05G20G27G19G10G13
 112090335.615 8  87343124.23446  21330069.571                    21330066.8234
        48.400          37.7004
 123231184.133 7  96024323.24545  23450107.620                    23450108.1894
        44.000          31.4004
 115139136.068 8  89718809.53345  21910244.039                    21910239.5534
        48.400          34.2004
 106401992.441 8  82910669.77147  20247612.593                    20247611.2564
        53.000          44.9004
 111433965.680 8  86831651.38746  21205173.421                    21205169.6994
        50.600          40.6004
 125949507.790 7  98142471.41643  23967394.177                    23967389.1884
        42.600          22.3004
 132286568.941 5 103080450.89943  25173297.329                    25173299.4754
        33.200          18.6004
 130970390.502 6 102054848.21343  24922834.903                    24922833.8744
        38.000          21.1004
 117963921.956 7  91919934.92045  22447785.529                    22447782.5074
        45.500          32.1004
 118726517.287 7  92514123.83545  22592899.093                    22592894.5844
        47.200          30.9004
 15  7 10  3 56  0.0000000  0 10G07G09G28G30G05G20G27G19G10G13
 112120904.510 8  87366944.12946  21335887.351                    21335883.9304
        48.800          38.3004
 123275557.460 7  96058899.81245  23458552.416                    23458552.4624
        43.600          31.2004
 115101045.995 8  89689128.97245  21902995.661                    21902991.2894
        48.400          34.0004
 106407562.498 8  82915010.07147  20248672.772                    20248671.4824
        53.200          45.1004
 111429288.362 8  86828006.70446  21204283.358                    21204279.2994
        50.500          40.1004
 125905592.436 7  98108251.66343  23959037.927                    23959032.7964
        42.600          22.6004
 132291130.401 5 103084005.28843  25174165.008                    25174167.3824
        33.300          19.3004
 130948395.830 6 102037709.56043  24918649.839                    24918648.8524
        40.300          21.3004
 118013717.598 7  91958736.69445  22457261.593                    22457258.1844
        45.900          32.5004
 118684025.231 7  92481013.12944  22584813.108                    22584809.3794
        47.400          29.8004
 15  7 10  3 56 15.0000000  0 10G07G09G28G30G05G20G27G19G10G13
 112151534.131 8  87390811.33546  21341715.832                    21341712.3204
        48.200          37.8004
 123319973.883 7  96093509.97945  23467003.926                    23467004.7394
        43.400          30.8004
 115063050.483 8  89659522.08545  21895765.405                    21895761.4054
        48.300          34.4004
 106413232.715 8  82919428.40447  20249751.790                    20249750.3284
        52.800          45.3004
 111424757.273 8  86824475.97246  21203420.937                    21203417.3104
        50.500          40.4004
 125861758.605 7  98074095.43243  23950695.555                    23950691.4424
        42.400          22.6004
 132295826.454 6 103087664.56743  25175058.415                    25175061.3044
        36.200          20.6004
 130926516.259 6 102020660.56243  24914486.084                    24914485.1244
        38.400          21.3004
 118063580.091 7  91997590.56145  22466750.042                    22466747.1384
        44.900          32.8004
 118641565.056 7  92447927.28145  22576733.200                    22576729.8194
        47.000          30.0004
 15  7 10  3 56 30.0000000  0 10G07G09G28G30G05G20G27G19G10G13
 112182224.818 8  87414726.13146  21347556.132                    21347552.6884
        49.000          38.3004
 123364434.192 7  96128154.32945  23475464.287                    23475465.0974
        43.700          31.6004
 115025150.687 8  89629989.77645  21888553.093                    21888549.2064
        48.700          35.5004
 106419003.866 8  82923925.39747  20250849.784                    20250848.1714
        53.000          44.8004
 111420373.508 8  86821060.03746  21202586.447                    21202583.1434
        49.800          40.4004
 125818007.567 7  98040003.72543  23942370.400                    23942366.4704
        42.700          22.5004
 132300657.952 5 103091429.37243  25175978.287                    25175980.8904
        32.800          19.9004
 130904753.055 6 102003702.24743  24910344.123                    24910343.0984
        37.700          20.9004
 118113509.927 7  92036496.90345  22476251.211                    22476248.6574
        46.300          32.6004
 118599137.800 7  92414867.07845  22568659.546                    22568655.8924
        46.600          30.1004
 15  7 10  3 56 45.0000000  0 10G07G09G28G30G05G20G27G19G10G13
 112212977.494 8  87438689.22946  21353408.302                    21353405.2314
        48.700          39.1004
 123408939.381 7  96162833.65745  23483932.880                    23483933.9934
        42.700          30.3004
 114987347.855 8  89600533.02345  21881359.631                    21881355.4944
        48.700          35.9004
 106424876.907 8  82928501.78647  20251967.359                    20251966.4944
        52.900          45.5004
 111416138.149 8  86817759.75946  21201780.858                    21201776.9294
        49.800          40.0004
 125774340.674 7  98005977.56243  23934060.523                    23934057.6704
        42.000          22.2004
 132305625.918 5 103095300.52343  25176923.351                    25176926.9044
        32.600          20.4004
 130883107.444 6 101986835.58643  24906224.481                    24906223.0964
        38.300          19.9004
 118163507.908 7  92075456.33745  22485765.318                    22485763.4294
        45.400          32.7004
 118556744.629 7  92381833.45045  22560592.490                    22560588.0674
        47.200          31.1004
 15  7 10  3 57  0.0000000  0 10G07G09G28G30G05G20G27G19G10G13
 112243790.113 7  87462699.04346  21359271.838                    21359269.0924
        47.900          39.5004
 123453487.503 7  96197546.42044  23492410.455                    23492411.1664
        43.000          29.9004
 114949640.534 8  89571150.68945  21874184.397                    21874180.5614
        49.300          35.7004
 106430849.872 8  82933156.03247  20253103.807                    20253102.7554
        52.300          44.9004
 111412049.457 8  86814573.75646  21201002.861                    21200998.9284
        50.700          39.9004
 125730756.463 7  97972015.84943  23925767.088                    23925763.7484
        42.200          21.5004
 132310728.614 5 103099276.62843  25177894.956                    25177897.6724
        33.800          20.6004
 130861578.013 6 101970059.44143  24902129.044                    24902127.0554
        38.900          21.5004
 118213571.822 7  92114467.13245  22495292.345                    22495289.9634
        44.200          33.0004
 118514383.829 7  92348825.02344  22552531.598                    22552527.5524
        46.800          29.7004
 15  7 10  3 57 15.0000000  0 10G07G09G28G30G05G20G27G19G10G13
 112274664.393 8  87486756.89346  21365147.283                    21365144.6434
        49.100          40.3004
 123498080.276 7  96232293.97044  23500895.792                    23500897.3284
        42.000          29.7004
 114912030.689 8  89541844.32246  21867027.410                    21867023.7374
        49.300          36.1004
 106436924.463 8  82937889.47147  20254260.172                    20254258.9014
        51.900          44.5004
 111408109.241 8  86811503.43846  21200252.967                    21200249.7334
        50.600          40.6004
 125687257.017 7  97938120.19343  23917489.228                    23917485.7574
        42.000          21.5004
 132315967.790 6 103103359.11843  25178891.333                    25178893.9684
        36.800          20.1004
 130840166.862 6 101953375.48643  24898053.663                    24898052.9064
        38.300          21.3004
 118263703.199 7  92153530.51045  22504831.651                    22504830.0694
        43.900          31.3004
 118472057.419 7  92315843.40645  22544476.771                    22544472.7324
        46.800          30.4004
 15  7 10  3 57 30.0000000  0 10G07G09G28G30G05G20G27G19G10G13
 112305598.137 8  87510861.07246  21371033.690                    21371030.8754
        50.400          40.0004
 123542715.510 7  96267074.62945  23509390.170                    23509390.7674
        43.100          31.3004
 114874516.508 8  89512612.49845  21859888.807                    21859885.1144
        49.900          35.9004
 106443098.432 8  82942700.34347  20255434.912                    20255433.5904
        52.700          44.9004
 111404315.408 8  86808547.19046  21199531.393                    21199527.8394
        50.700          40.9004
 125643840.606 6  97904289.20843  23909227.591                    23909224.3834
        41.500          21.7004
 132321341.388 6 103107546.32943  25179914.250                    25179917.0214
        38.100          20.4004
 130818872.261 6 101936782.31543  24894002.202                    24894000.1314
        38.700          20.4004
 118313899.601 7  92192644.54045  22514383.958                    22514381.8584
        44.600          31.4004
 118429763.466 7  92282887.08244  22536428.566                    22536424.7944
        47.300          29.9004
 15  7 10  3 57 45.0000000  0 10G07G09G28G30G05G20G27G19G10G13
 112336592.720 8  87535012.66746  21376931.780                    21376928.7244
        50.000          40.5004
 123587394.775 7  96301889.58445  23517892.543                    23517893.3174
        43.700          30.8004
 114837099.942 8  89483456.73045  21852768.487                    21852765.1424
        49.900          35.9004
 106449373.314 8  82947589.85047  20256628.945                    20256627.5814
        52.800          45.1004
 111400669.773 8  86805706.42146  21198837.441                    21198834.1684
        50.300          40.1004
 125600509.195 6  97870524.47543  23900981.712                    23900977.7284
        41.400          19.6004
 132326850.937 6 103111839.51643  25180963.236                    25180966.1224
        36.800          21.8004
 130797695.929 6 101920281.33443  24889971.674                    24889971.0524
        38.400          21.1004
 118364162.325 7  92231810.25745  22523948.658                    22523946.7274
        43.800          31.1004
 118387503.625 7  92249957.32645  22528386.827                    22528382.5544
        47.800          30.4004
 15  7 10  3 58  0.0000000  0 10G07G09G28G30G05G20G27G19G10G13
 112367646.284 8  87559210.23146  21382841.158                    21382837.8024
        50.200          40.1004
 123632116.341 7  96336737.49545  23526402.470                    23526403.5814
        44.200          30.5004
 114799779.616 8  89454375.96745  21845667.040                    21845663.0364
        48.800          35.6004
 106455747.380 8  82952556.65447  20257842.031                    20257840.5894
        52.200          44.9004
 111397170.661 8  86802979.83546  21198171.882                    21198167.8824
        51.100          40.3004
 125557261.377 6  97836824.90743  23892752.183                    23892747.5424
        38.800          19.0004
 132332494.913 6 103116237.39043  25182037.328                    25182039.6674
        38.100          21.3004
 130776636.786 6 101903871.61543  24885964.768                    24885964.3894
        40.200          22.0004
 118414489.527 7  92271026.21145  22533525.764                    22533523.6414
        44.600          30.9004
 118345276.539 7  92217053.10245  22520351.725                    22520347.5614
        46.900          30.1004
 15  7 10  3 58 15.0000000  0 10G07G09G28G30G05G20G27G19G10G13
 112398759.933 8  87583454.61146  21388761.728                    21388758.1744
        49.900          39.8004
 123676881.335 7  96371619.27045  23534921.318                    23534921.7544
        44.900          30.4004
 114762557.073 8  89425371.38645  21838583.560                    21838579.7964
        48.200          35.1004
 106462221.698 8  82957601.56047  20259073.620                    20259072.0224
        52.800          44.4004
 111393819.361 8  86800368.41346  21197533.984                    21197529.9034
        51.000          40.7004
 125514098.753 6  97803191.67843  23884538.680                    23884532.6564
        39.700          19.0004
 132338274.500 6 103120740.97843  25183137.042                    25183139.0584
        39.200          21.1004
 130755696.132 6 101887554.29843  24881980.225                    24881979.1514
        40.200          22.5004
 118464881.989 7  92310293.02945  22543115.374                    22543112.5324
        46.400          30.6004
 118303083.462 8  92184175.38245  22512322.365                    22512318.8134
        48.000          31.1004
 15  7 10  3 58 30.0000000  0 10G07G09G28G30G05G20G27G19G10G13
 112429933.416 8  87607745.60946  21394693.958                    21394690.6984
        50.000          39.8004
 123721689.531 7  96406534.69845  23543447.813                    23543448.0774
        44.100          30.0004
 114725432.474 8  89396443.11545  21831518.609                    21831514.9324
        48.000          35.0004
 106468795.996 8  82962724.38047  20260325.077                    20260323.4364
        52.400          44.8004
 111390615.754 8  86797872.09046  21196924.410                    21196920.6764
        51.200          40.5004
 125471021.409 6  97769624.92743  23876339.987                    23876335.7094
        39.700          19.0004
 132344189.508 6 103125350.04443  25184262.097                    25184264.7764
        39.400          21.1004
 130734874.204 6 101871329.46743  24878017.326                    24878016.5774
        38.600          21.7004
 118515339.347 7  92349610.42945  22552717.079                    22552714.8694
        46.200          31.5004
 118260924.561 7  92151324.28745  22504299.616                    22504296.0594
        47.200          30.8004
 15  7 10  3 58 45.0000000  0 10G07G09G28G30G05G20G27G19G10G13
 112461166.316 8  87632082.92946  21400637.356                    21400634.4594
        49.900          39.8004
 123766540.698 7  96441483.62044  23551983.790                    23551982.9584
        44.700          29.2004
 114688405.937 8  89367591.26145  21824472.676                    21824468.9484
        48.400          35.3004
 106475470.069 8  82967924.94847  20261594.977                    20261593.2884
        52.800          44.5004
 111387559.865 8  86795490.85046  21196342.734                    21196339.5194
        51.200          40.9004
 125428029.760 6  97736124.95143  23868159.874                    23868154.7484
        40.000          19.3004
 132350239.874 6 103130064.65543  25185414.552                    25185416.2074
        37.200          20.4004
 130714171.203 6 101855197.25443  24874077.183                    24874075.8584
        37.400          20.9004
 118565861.061 7  92388977.96145  22562331.142                    22562328.2144
        46.700          31.0004
 118218799.885 7  92118499.86745  22496283.828                    22496280.2984
        47.800          31.2004
 15  7 10  3 59  0.0000000  0 10G07G09G28G30G05G20G27G19G10G13
 112492458.488 8  87656466.37946  21406592.103                    21406589.2844
        49.800          39.5004
 123811434.564 7  96476465.78944  23560525.720                    23560526.4054
        43.900          29.7004
 114651477.422 8  89338815.80945  21817445.676                    21817442.5264
        48.700          35.3004
 106482243.564 8  82973202.98647  20262883.986                    20262882.5204
        52.700          44.2004
 111384651.349 8  86793224.45946  21195789.196                    21195786.2014
        51.500          40.6004
 125385123.867 6  97702691.80743  23859994.946                    23859991.4614
        40.600          19.0004
 132356425.340 6 103134884.47043  25186590.730                    25186593.0274
        36.400          22.2004
 130693587.160 6 101839157.81543  24870161.292                    24870158.0494
        37.100          19.9004
 118616446.722 7  92428395.34145  22571957.037                    22571954.4444
        46.200          30.8004
 118176709.395 7  92085702.08445  22488273.581                    22488270.0824
        47.000          30.1004
 15  7 10  3 59 15.0000000  0 10G07G09G28G30G05G20G27G19G10G13
 112523810.137 8  87680896.21446  21412558.076                    21412554.8604
        50.200          39.5004
 123856371.566 7  96511481.61145  23569077.118                    23569077.6294
        44.100          30.2004
 114614647.863 8  89310117.45945  21810436.994                    21810433.8084
        48.500          35.3004
 106489116.897 8  82978558.81847  20264191.882                    20264190.2054
        52.300          44.5004
 111381890.883 8  86791073.44046  21195264.140                    21195260.7494
        50.700          40.8004
 125342304.432 6  97669325.99843  23851846.817                    23851843.2434
        39.700          20.6004
 132362746.508 5 103139810.07443  25187792.160                    25187794.2094
        35.900          21.1004
 130673123.019 6 101823211.76343  24866267.066                    24866263.0964
        39.000          20.1004
 118667096.569 7  92467862.72545  22581596.223                    22581593.0714
        46.600          32.6004
 118134653.824 7  92052931.50945  22480270.828                    22480267.1644
        47.500          30.5004
 15  7 10  3 59 30.0000000  0 10G07G09G28G30G05G20G27G19G10G13
 112555220.507 8  87705371.79946  21418535.658                    21418532.3104
        50.300          39.7004
 123901351.057 7  96546530.50744  23577637.261                    23577637.3174
        44.500          29.0004
 114577916.903 8  89281495.93645  21803447.178                    21803443.8474
        48.900          35.1004
 106496089.357 8  82983991.89547  20265518.843                    20265517.3544
        52.400          44.6004
 111379278.044 8  86789037.45046  21194766.746                    21194763.0544
        51.000          40.7004
 125299571.317 6  97636027.50943  23843714.517                    23843711.4454
        39.200          20.6004
 132369202.677 5 103144840.85943  25189020.875                    25189023.3444
        35.400          20.4004
 130652778.407 6 101807358.84843  24862395.542                    24862391.6494
        41.100          21.7004
 118717809.620 7  92507379.36945  22591246.219                    22591243.2394
        47.400          32.2004
 118092632.694 7  92020187.76544  22472274.612                    22472271.3844
        47.100          29.7004
 15  7 10  3 59 45.0000000  0 10G07G09G28G30G05G20G27G19G10G13
 112586690.160 8  87729893.57846  21424523.893                    21424520.6494
        49.900          39.1004
 123946373.742 7  96581613.06044  23586203.268                    23586204.1334
        43.600          29.0004
 114541285.570 8  89252952.04245  21796477.089                    21796473.1534
        48.800          35.9004
 106503161.651 8  82989502.76447  20266864.456                    20266862.9104
        53.100          44.9004
 111376813.647 8  86787117.11946  21194297.785                    21194294.3594
        49.600          40.4004
 125256925.621 6  97602797.11543  23835599.235                    23835596.4574
        38.900          20.6004
 132375794.660 6 103149977.47143  25190276.010                    25190277.6504
        38.100          20.1004
 130632554.285 6 101791599.83643  24858547.028                    24858545.0024
        40.900          23.2004
 118768586.356 7  92546945.64145  22600908.290                    22600905.3504
        47.200          32.1004
 118050646.945 7  91987471.59545  22464285.228                    22464281.1394
        47.300          30.4004
 15  7 10  4  0  0.0000000  0 10G07G09G28G30G05G20G27G19G10G13
 112618218.249 8  87754460.89246  21430523.540                    21430519.9774
        49.800          39.1004
 123991438.731 7  96616728.58344  23594780.045                    23594779.7524
        44.300          29.2004
 114504753.474 8  89224485.46846  21789525.359                    21789521.6604
        49.000          36.6004
 106510332.876 8  82995090.72147  20268229.089                    20268227.6944
        52.300          44.8004
 111374497.085 8  86785311.98646  21193857.462                    21193853.7814
        49.600          40.4004
 125214366.951 6  97569634.54743  23827499.880                    23827497.6254
        38.500          20.9004
 132382521.848 5 103155219.44643  25191557.197                    25191558.4404
        35.500          20.6004
 130612450.321 6 101775934.44743  24854721.342                    24854719.1524
        41.700          22.2004
 118819425.731 7  92586560.72045  22610582.961                    22610580.7734
        47.300          32.4004
 118008696.054 7  91954782.58845  22456302.381                    22456298.5334
        47.000          31.1004
 15  7 10  4  0 15.0000000  0 10G07G09G28G30G05G20G27G19G10G13
 112649805.436 8  87779074.25546  21436534.720                    21436530.9884
        49.300          39.0004
 124036546.845 7  96651877.73244  23603364.143                    23603364.0344
        45.200          29.9004
 114468321.601 8  89196097.00945  21782592.350                    21782589.1154
        49.600          35.9004
 106517603.756 8  83000756.33547  20269612.791                    20269611.2894
        52.400          44.6004
 111372329.066 8  86783622.61046  21193444.884                    21193440.8254
        51.200          40.3004
 125171896.359 6  97536540.59643  23819418.720                    23819415.5934
        39.200          21.1004
 132389384.787 5 103160567.18943  25192862.879                    25192864.7114
        35.600          20.1004
 130592467.530 6 101760363.47943  24850918.277                    24850916.5044
        40.900          22.6004
 118870328.251 7  92626224.97545  22620269.026                    22620266.5914
        45.600          31.8004
 117966781.055 7  91922121.55445  22448326.172                    22448322.6124
        47.800          31.8004
 15  7 10  4  0 30.0000000  0 10G07G09G28G30G05G20G27G19G10G13
 112681450.933 8  87803733.06446  21442556.519                    21442552.4954
        49.200          38.5004
 124081697.311 7  96687059.85244  23611955.391                    23611956.2264
        45.200          29.3004
 114431989.561 8  89167786.33246  21775679.065                    21775674.8254
        49.800          36.0004
 106524973.514 8  83006498.99147  20271015.281                    20271013.3884
        52.900          43.8004
 111370309.041 8  86782048.55046  21193060.548                    21193056.8314
        50.800          41.4004
 125129513.816 6  97503515.25043  23811353.694                    23811351.0384
        39.200          21.5004
 132396383.141 5 103166020.43643  25194193.574                    25194195.7124
        35.500          19.6004
 130572605.670 6 101744886.76543  24847139.100                    24847136.5254
        40.800          21.7004
 118921293.097 7  92665937.81545  22629967.921                    22629965.0114
        45.800          31.4004
 117924901.244 7  91889487.92545  22440356.401                    22440352.8414
        47.600          31.7004
 15  7 10  4  0 45.0000000  0 10G07G09G28G30G05G20G27G19G10G13
 112713154.350 8  87828436.99646  21448589.195                    21448585.5774
        49.800          38.5004
 124126889.885 7  96722274.80745  23620555.325                    23620555.6944
        44.900          30.4004
 114395757.546 8  89139553.59046  21768784.040                    21768780.1034
        49.000          36.1004
 106532441.880 8  83012318.48947  20272436.437                    20272434.6654
        52.600          44.4004
 111368436.985 8  86780589.79746  21192704.140                    21192700.4824
        50.800          41.3004
 125087219.028 6  97470558.29343  23803305.006                    23803302.3024
        40.800          22.0004
 132403516.461 5 103171578.85743  25195550.919                    25195553.5344
        35.700          21.1004
 130552864.795 6 101729504.30343  24843382.331                    24843380.6124
        39.800          21.1004
 118972319.651 7  92705698.72044  22639677.462                    22639675.1714
        44.900          29.9004
 117883056.993 8  91856882.01345  22432393.493                    22432390.5134
        48.200          32.1004
 15  7 10  4  1  0.0000000  0 10G07G09G28G30G05G20G27G19G10G13
 112744915.250 8  87853185.73046  21454633.031                    21454629.0844
        50.900          38.6004
 124172124.169 7  96757522.24745  23629163.299                    23629163.9664
        43.700          30.0004
 114359625.515 8  89111398.77545  21761907.887                    21761904.1474
        49.400          35.4004
 106540008.409 8  83018214.47647  20273876.337                    20273874.5974
        52.900          43.9004
 111366712.499 8  86779246.02946  21192376.241                    21192372.7524
        51.500          41.0004
 125045012.157 6  97437669.85743  23795274.484                    23795271.1564
        41.000          22.5004
 132410784.636 6 103177242.37343  25196934.159                    25196937.3544
        37.300          20.4004
 130533244.869 6 101714216.07743  24839649.263                    24839647.3664
        40.300          22.9004
 119023407.228 7  92745507.17344  22649398.566                    22649396.8204
        44.800          29.9004
 117841248.030 7  91824303.60745  22424437.737                    22424434.5844
        47.500          32.3004
 15  7 10  4  1 15.0000000  0 10G07G09G28G30G05G20G27G19G10G13
 112776734.171 8  87877979.66846  21460687.783                    21460684.0424
        49.400          37.9004
 124217400.760 7  96792802.65445  23637779.262                    23637779.6624
        45.100          30.3004
 114323594.454 8  89083322.63446  21755051.490                    21755047.3354
        49.200          36.0004
 106547673.690 8  83024187.41147  20275334.977                    20275333.4694
        52.500          44.3004
 111365136.300 8  86778017.80546  21192075.989                    21192072.2334
        51.700          41.3004
 125002894.366 6  97404850.80943  23787259.040                    23787256.5424
        41.000          22.8004
 132418188.144 6 103183011.35143  25198343.842                    25198345.4564
        39.400          20.1004
 130513746.820 6 101699022.86843  24835938.670                    24835936.8374
        40.400          23.2004
 119074556.303 7  92785363.54944  22659132.787                    22659130.2694
        44.700          29.9004
 117799475.191 7  91791753.35045  22416488.887                    22416485.7774
        47.300          31.4004
 15  7 10  4  1 30.0000000  0 10G07G09G28G30G05G20G27G19G10G13
 112808610.638 8  87902818.44646  21466754.290                    21466750.0234
        49.900          38.2004
 124262719.169 7  96828115.63445  23646403.344                    23646404.2854
        44.900          30.9004
 114287664.188 8  89055325.01245  21748214.008                    21748209.7824
        48.600          35.1004
 106555437.176 8  83030236.86447  20276812.208                    20276810.8994
        51.900          44.3004
 111363708.115 8  86776904.91746  21191804.084                    21191800.2024
        50.400          40.6004
 124960865.449 6  97372101.01043  23779261.545                    23779257.9794
        41.400          22.8004
 132425726.682 6 103188885.54343  25199778.754                    25199780.2084
        41.100          20.6004
 130494370.604 6 101683924.55643  24832251.348                    24832249.9314
        41.400          22.5004
 119125766.141 7  92825267.28845  22668877.716                    22668875.5924
        45.100          31.0004
 117757738.237 7  91759231.05845  22408545.935                    22408543.5424
        46.700          31.4004
 15  7 10  4  1 45.0000000  0 10G07G09G28G30G05G20G27G19G10G13
 112840544.168 8  87927701.69746  21472830.870                    21472827.0374
        50.000          38.5004
 124308079.164 7  96863461.04545  23655034.840                    23655035.9794
        44.600          30.9004
 114251834.794 8  89027406.01145  21741395.902                    21741391.7244
        49.000          34.9004
 106563298.600 8  83036362.63847  20278308.217                    20278306.9904
        52.800          43.7004
 111362427.688 8  86775907.17946  21191560.475                    21191556.4024
        51.000          40.0004
 124918925.645 6  97339420.64643  23771280.732                    23771276.9324
        41.600          22.3004
 132433399.990 6 103194864.73643  25201238.746                    25201240.1424
        41.000          21.7004
 130475116.440 6 101668921.35543  24828586.554                    24828585.2294
        41.600          22.3004
 119177036.313 7  92865218.02045  22678634.622                    22678631.3424
        46.400          30.9004
 117716037.209 7  91726736.75145  22400610.594                    22400607.3964
        47.100          30.9004
 15  7 10  4  2  0.0000000  0 10G07G09G28G30G05G20G27G19G10G13
 112872534.771 8  87952629.41946  21478918.669                    21478914.5804
        50.700          38.5004
 124353480.796 7  96898838.87644  23663674.925                    23663676.1704
        44.400          29.9004
 114216106.817 8  88999566.03545  21734597.019                    21734593.4154
        48.300          34.7004
 106571257.968 8  83042564.73847  20279822.635                    20279821.6044
        52.800          44.0004
 111361295.338 8  86775024.82846  21191344.901                    21191341.3244
        51.500          40.1004
 124877075.402 6  97306810.06443  23763316.828                    23763313.8814
        40.300          22.9004
 132441208.278 6 103200949.12243  25202723.812                    25202726.4774
        39.600          22.3004
 130455984.674 6 101654013.51843  24824946.296                    24824944.2644
        41.500          22.3004
 119228366.631 7  92905215.64845  22688402.154                    22688398.9804
        47.000          31.4004
 117674372.539 7  91694270.76645  22392682.553                    22392678.6784
        47.500          31.1004
 15  7 10  4  2 15.0000000  0 10G07G09G28G30G05G20G27G19G10G13
 112904582.485 8  87977601.62846  21485016.875                    21485013.3824
        50.200          37.6004
 124398924.179 7  96934249.24145  23672321.784                    23672323.1894
        43.900          30.2004
 114180480.478 8  88971805.25445  21727817.666                    21727813.3924
        48.100          34.8004
 106579315.389 8  83048843.23947  20281356.045                    20281355.1384
        52.600          43.9004
 111360311.294 8  86774258.03146  21191157.361                    21191153.9524
        51.300          40.4004
 124835315.271 6  97274269.70443  23755369.674                    23755367.1654
        40.800          23.2004
 132449151.668 6 103207138.78443  25204236.227                    25204238.0554
        39.700          22.0004
 130436975.768 7 101639201.37643  24821329.973                    24821326.4924
        42.900          23.4004
 119279756.944 7  92945260.00645  22698181.305                    22698178.6794
        47.200          32.3004
 117632744.469 7  91661833.30845  22384760.777                    22384756.9524
        46.400          31.2004
 15  7 10  4  2 30.0000000  0 10G07G09G28G30G05G20G27G19G10G13
 112936687.006 8  88002618.11346  21491126.376                    21491122.6654
        50.300          37.4004
 124444409.033 7  96969691.92544  23680977.195                    23680978.6764
        43.300          29.3004
 114144956.002 8  88944123.85145  21721057.796                    21721053.7684
        49.400          35.4004
 106587470.532 8  83055197.89247  20282908.067                    20282906.7604
        52.400          44.2004
 111359475.425 8  86773606.68646  21190998.590                    21190994.8714
        51.100          40.4004
 124793645.330 6  97241799.64043  23747440.193                    23747438.2164
        40.300          22.9004
 132457229.937 6 103213433.54343  25205772.905                    25205775.5074
        40.600          22.3004
 130418089.713 7 101624485.01743  24817735.813                    24817732.3784
        42.600          22.8004
 119331206.779 7  92985350.76545  22707972.330                    22707969.0584
        47.300          32.3004
 117591153.023 7  91629424.37545  22376845.985                    22376841.9854
        46.200          30.9004
 15  7 10  4  2 45.0000000  0 10G07G09G28G30G05G20G27G19G10G13
 112968848.404 8  88027678.92646  21497246.285                    21497242.6404
        50.800          38.2004
 124489935.409 7  97005166.96444  23689640.895                    23689641.5594
        42.500          28.8004
 114109533.718 8  88916522.08045  21714317.389                    21714313.3304
        49.300          35.7004
 106595723.406 8  83061628.69647  20284478.596                    20284477.0714
        52.700          44.0004
 111358787.733 8  86773070.80946  21190867.604                    21190864.3034
        49.500          39.9004
 124752065.855 6  97209400.06043  23739527.757                    23739526.0874
        41.700          22.5004
 132465443.245 6 103219833.51243  25207336.528                    25207337.6414
        40.900          21.7004
 130399327.049 7 101609864.79143  24814164.158                    24814162.1054
        42.000          22.6004
 119382715.873 7  93025487.69945  22717773.919                    22717770.8604
        47.600          32.4004
 117549598.476 7  91597044.21245  22368938.366                    22368935.2974
        47.200          30.6004
 15  7 10  4  3  0.0000000  0 10G07G09G28G30G05G20G27G19G10G13
 113001066.789 8  88052784.13746  21503377.193                    21503373.7984
        49.900          38.1004
 124535503.647 7  97040674.62044  23698312.634                    23698313.2554
        43.000          28.7004
 114074214.389 8  88889000.53546  21707596.227                    21707592.3974
        50.200          36.5004
 106604074.298 8  83068135.87147  20286067.566                    20286066.0524
        52.900          44.0004
 111358248.863 8  86772650.90446  21190765.079                    21190761.4314
        48.100          40.3004
 124710577.942 6  97177071.83944  23731632.838                    23731630.5184
        41.600          24.3004
 132473791.970 6 103226339.07443  25208925.061                    25208926.5474
        40.500          21.8004
 130380688.506 6 101595341.27243  24810617.985                    24810616.1864
        40.400          21.8004
 119434284.372 7  93065670.92245  22727587.559                    22727584.3494
        47.300          32.1004
 117508081.538 7  91564693.35745  22361038.091                    22361034.8004
        47.200          31.6004
 15  7 10  4  3 15.0000000  0 10G07G09G28G30G05G20G27G19G10G13
 113033341.351 8  88077933.10446  21509518.891                    21509515.4694
        49.500          38.1004
 124581113.101 7  97076214.40744  23706992.307                    23706992.4234
        43.100          29.5004
 114038997.734 8  88861558.99246  21700894.692                    21700890.7534
        49.300          36.6004
 106612522.559 8  83074718.91647  20287675.337                    20287673.8304
        52.500          44.3004
 111357858.073 8  86772346.38046  21190690.743                    21190687.3664
        48.400          40.1004
 124669181.100 6  97144814.55744  23723755.475                    23723752.4424
        41.800          24.4004
 132482275.505 6 103232949.49543  25210538.937                    25210540.5644
        39.200          21.5004
 130362173.768 6 101580914.22043  24807094.747                    24807092.6954
        41.500          21.5004
 119485911.384 7  93105899.74545  22737410.710                    22737408.1374
        46.800          30.5004
 117466601.723 7  91532371.43445  22353144.826                    22353141.7244
        46.800          31.8004
 15  7 10  4  3 30.0000000  0 10G07G09G28G30G05G20G27G19G10G13
 113065672.729 8  88103126.35646  21515671.832                    21515667.8244
        50.100          39.2004
 124626764.316 7  97111786.72944  23715679.364                    23715679.5634
        43.400          29.6004
 114003884.688 8  88834198.17946  21694213.206                    21694209.0844
        50.000          36.4004
 106621068.698 8  83081378.23747  20289301.506                    20289299.9474
        52.400          44.1004
 111357616.256 8  86772157.95446  21190644.927                    21190641.1884
        48.800          39.9004
 124627876.418 6  97112629.10743  23715895.305                    23715892.5864
        41.500          22.8004
 132490894.485 6 103239665.59443  25212178.975                    25212181.7464
        39.700          21.7004
 130343783.655 6 101566584.31143  24803595.286                    24803593.6944
        41.500          21.5004
 119537597.291 7  93146174.44345  22747246.515                    22747243.5254
        46.000          30.2004
 117425159.848 7  91500079.07045  22345258.493                    22345255.7834
        47.200          32.6004
 15  7 10  4  3 45.0000000  0 10G07G09G28G30G05G20G27G19G10G13
 113098060.989 8  88128363.94346  21521835.451                    21521831.2274
        50.500          39.0004
 124672457.441 7  97147391.72145  23724373.917                    23724374.6884
        42.100          30.4004
 113968875.661 8  88806918.41246  21687551.364                    21687547.1994
        48.800          36.7004
 106629712.852 8  83088113.92847  20290946.136                    20290945.1454
        51.800          44.3004
 111357523.722 8  86772085.83546  21190627.326                    21190623.6424
        49.100          40.2004
 124586664.457 6  97080515.89943  23708052.639                    23708049.4724
        41.300          23.2004
 132499649.229 6 103246487.46943  25213845.779                    25213846.9344
        40.500          20.4004
 130325518.744 7 101552351.92243  24800119.424                    24800118.6284
        42.500          23.0004
 119589342.028 7  93186494.98744  22757093.049                    22757091.0764
        45.200          29.8004
 117383756.402 7  91467816.64545  22337379.868                    22337376.2924
        47.100          31.7004
 15  7 10  4  4  0.0000000  0 10G07G09G28G30G05G20G27G19G10G13
 113130504.962 8  88153644.93546  21528008.853                    21528004.8374
        50.900          38.9004
 124718191.504 7  97183028.62045  23733077.235                    23733077.8304
        43.700          31.6004
 113933969.959 8  88779719.16846  21680908.321                    21680904.8334
        49.200          36.7004
 106638453.956 8  83094925.16947  20292609.982                    20292608.3184
        52.000          44.0004
 111357579.436 8  86772129.23046  21190638.122                    21190634.9634
        48.800          40.7004
 124545544.553 6  97048474.43543  23700227.916                    23700225.2524
        41.100          22.8004
 132508538.616 6 103253414.27343  25215537.120                    25215538.1014
        39.200          20.1004
 130307378.374 7 101538216.59743  24796667.433                    24796666.2984
        42.100          22.9004
 119641144.349 7  93226860.37844  22766950.726                    22766948.5114
        44.300          29.1004
 117342390.610 7  91435583.56445  22329508.607                    22329504.4724
        47.900          31.4004
 15  7 10  4  4 15.0000000  0 10G07G09G28G30G05G20G27G19G10G13
 113163003.963 8  88178968.81146  21534193.172                    21534189.3254
        50.000          38.0004
 124763965.718 7  97218696.79245  23741787.689                    23741788.8024
        42.500          30.9004
 113899167.176 8  88752600.11946  21674285.612                    21674282.0824
        49.200          36.0004
 106647291.269 8  83101811.37247  20294291.215                    20294290.3854
        52.500          43.9004
 111357782.756 8  86772287.64246  21190676.363                    21190673.6874
        48.600          40.9004
 124504516.458 6  97016504.48844  23692420.176                    23692418.2964
        41.400          24.5004
 132517562.113 6 103260445.55943  25217254.750                    25217254.5324
        39.700          20.1004
 130289362.250 7 101524178.08243  24793239.087                    24793237.9634
        42.500          22.3004
 119693003.257 7  93267269.88644  22776817.963                    22776816.5634
        44.200          28.6004
 117301062.085 7  91403379.51845  22321643.923                    22321640.0764
        47.000          31.8004
 15  7 10  4  4 30.0000000  0  9G07G09G28G30G05G20G19G10G13
 113195558.154 8  88204335.68146  21540388.052                    21540384.4924
        50.000          38.4004
 124809780.465 6  97254396.53345  23750505.535                    23750506.9234
        41.600          30.4004
 113864468.010 8  88725561.81546  21667682.365                    21667679.1344
        49.300          36.1004
 106656225.019 8  83108772.73347  20295991.653                    20295990.2514
        52.500          43.4004
 111358134.126 8  86772561.43146  21190743.400                    21190740.2814
        48.100          40.9004
 124463580.863 6  96984606.63243  23684630.168                    23684627.7854
        41.300          22.3004
 130271471.017 7 101510236.87743  24789834.679                    24789832.5774
        43.200          21.8004
 119744918.958 7  93307723.60444  22786698.148                    22786696.5944
        43.300          28.6004
 117259771.454 7  91371205.00245  22313786.093                    22313782.6344
        47.800          31.9004
 15  7 10  4  4 45.0000000  0  9G07G09G28G30G05G20G19G10G13
 113228168.162 8  88229746.04746  21546593.779                    21546590.1004
        50.000          39.1004
 124855636.427 6  97290128.39545  23759232.240                    23759233.3574
        41.600          31.2004
 113829873.581 8  88698605.13246  21661099.248                    21661096.5104
        48.900          37.3004
 106665255.935 8  83115809.80247  20297710.175                    20297708.8994
        52.700          43.9004
 111358634.378 8  86772951.23246  21190838.417                    21190835.8054
        48.700          40.2004
 124422738.923 6  96952781.75443  23676858.495                    23676855.4024
        41.300          21.7004
 130253705.728 7 101496393.83343  24786454.241                    24786451.3664
        42.600          22.0004
 119796891.740 7  93348221.83844  22796588.623                    22796586.5234
        44.200          29.5004
 117218519.529 7  91339060.64745  22305936.494                    22305933.0514
        47.300          31.9004
 15  7 10  4  5  0.0000000  0  9G07G09G28G30G05G20G19G10G13
 113260833.736 8  88255199.72746  21552810.036                    21552806.2074
        51.000          40.0004
 124901533.179 7  97325892.04745  23767965.780                    23767967.4324
        42.100          30.1004
 113795383.817 8  88671729.99746  21654536.262                    21654532.9964
        49.500          37.3004
 106674383.524 8  83122922.19247  20299446.769                    20299445.5574
        52.300          43.9004
 111359283.201 8  86773456.79946  21190961.464                    21190959.1484
        48.000          40.2004
 124381990.569 6  96921029.80243  23669104.080                    23669101.4294
        41.300          20.9004
 130236066.240 7 101482648.77843  24783096.957                    24783093.9074
        42.700          22.8004
 119848921.073 7  93388764.12444  22806488.790                    22806487.6754
        45.600          29.4004
 117177306.281 7  91306946.42945  22298093.914                    22298089.9424
        47.100          31.1004
 15  7 10  4  5 15.0000000  0  9G07G09G28G30G05G20G19G10G13
 113293552.572 8  88280694.90246  21559035.830                    21559032.6494
        50.300          39.0004
 124947468.813 7  97361685.97644  23776706.940                    23776708.7124
        42.200          29.6004
 113760997.110 8  88644935.16646  21647992.915                    21647989.2724
        49.600          37.4004
 106683605.820 8  83130108.38547  20301201.873                    20301200.5654
        52.000          43.7004
 111360078.844 8  86774076.77146  21191113.383                    21191110.5994
        49.900          40.9004
 124341334.251 7  96889349.55243  23661367.882                    23661365.1274
        42.200          21.5004
 130218550.978 6 101469000.54343  24779763.784                    24779761.6454
        41.900          22.2004
 119901004.835 7  93429348.83445  22816400.740                    22816398.8034
        46.200          31.6004
 117136129.887 7  91274860.93745  22290258.115                    22290254.4184
        47.900          31.5004
